{
  "type" : "FeatureCollection",
  "features" : [
    {
      "type" : "Feature",
      "id" : 1,
      "geometry" : {
        "type" : "Point",
        "coordinates" : [
          139.78953000000001,
          35.675400000000081
        ]
      },
      "properties" : {
        "OBJECTID" : 1,
        "name" : "佐賀一丁目",
        "lon" : 139.78953000000001,
        "lat" : 35.675400000000003
      }
    },
    {
      "type" : "Feature",
      "id" : 2,
      "geometry" : {
        "type" : "Point",
        "coordinates" : [
          139.78953000000001,
          35.675400000000081
        ]
      },
      "properties" : {
        "OBJECTID" : 2,
        "name" : "佐賀一丁目",
        "lon" : 139.78953000000001,
        "lat" : 35.675400000000003
      }
    },
    {
      "type" : "Feature",
      "id" : 3,
      "geometry" : {
        "type" : "Point",
        "coordinates" : [
          139.79252000000008,
          35.673430000000053
        ]
      },
      "properties" : {
        "OBJECTID" : 3,
        "name" : "永代二丁目",
        "lon" : 139.79252,
        "lat" : 35.673430000000003
      }
    },
    {
      "type" : "Feature",
      "id" : 4,
      "geometry" : {
        "type" : "Point",
        "coordinates" : [
          139.79252000000008,
          35.673430000000053
        ]
      },
      "properties" : {
        "OBJECTID" : 4,
        "name" : "永代二丁目",
        "lon" : 139.79252,
        "lat" : 35.673430000000003
      }
    },
    {
      "type" : "Feature",
      "id" : 5,
      "geometry" : {
        "type" : "Point",
        "coordinates" : [
          139.79351000000008,
          35.667240000000049
        ]
      },
      "properties" : {
        "OBJECTID" : 5,
        "name" : "東京海洋大学越中島校舎前",
        "lon" : 139.79351,
        "lat" : 35.66724
      }
    },
    {
      "type" : "Feature",
      "id" : 6,
      "geometry" : {
        "type" : "Point",
        "coordinates" : [
          139.79351000000008,
          35.667240000000049
        ]
      },
      "properties" : {
        "OBJECTID" : 6,
        "name" : "東京海洋大学越中島校舎前",
        "lon" : 139.79351,
        "lat" : 35.66724
      }
    },
    {
      "type" : "Feature",
      "id" : 7,
      "geometry" : {
        "type" : "Point",
        "coordinates" : [
          139.79167000000007,
          35.669210000000078
        ]
      },
      "properties" : {
        "OBJECTID" : 7,
        "name" : "越中島",
        "lon" : 139.79167000000001,
        "lat" : 35.66921
      }
    },
    {
      "type" : "Feature",
      "id" : 8,
      "geometry" : {
        "type" : "Point",
        "coordinates" : [
          139.79167000000007,
          35.669210000000078
        ]
      },
      "properties" : {
        "OBJECTID" : 8,
        "name" : "越中島",
        "lon" : 139.79167000000001,
        "lat" : 35.66921
      }
    },
    {
      "type" : "Feature",
      "id" : 9,
      "geometry" : {
        "type" : "Point",
        "coordinates" : [
          139.79167000000007,
          35.669210000000078
        ]
      },
      "properties" : {
        "OBJECTID" : 9,
        "name" : "越中島",
        "lon" : 139.79167000000001,
        "lat" : 35.66921
      }
    },
    {
      "type" : "Feature",
      "id" : 10,
      "geometry" : {
        "type" : "Point",
        "coordinates" : [
          139.79650000000004,
          35.664740000000052
        ]
      },
      "properties" : {
        "OBJECTID" : 10,
        "name" : "都立三商前",
        "lon" : 139.79650000000001,
        "lat" : 35.664740000000002
      }
    },
    {
      "type" : "Feature",
      "id" : 11,
      "geometry" : {
        "type" : "Point",
        "coordinates" : [
          139.79650000000004,
          35.664740000000052
        ]
      },
      "properties" : {
        "OBJECTID" : 11,
        "name" : "都立三商前",
        "lon" : 139.79650000000001,
        "lat" : 35.664740000000002
      }
    },
    {
      "type" : "Feature",
      "id" : 12,
      "geometry" : {
        "type" : "Point",
        "coordinates" : [
          139.81101000000001,
          35.686040000000048
        ]
      },
      "properties" : {
        "OBJECTID" : 12,
        "name" : "猿江一丁目",
        "lon" : 139.81101000000001,
        "lat" : 35.686039999999998
      }
    },
    {
      "type" : "Feature",
      "id" : 13,
      "geometry" : {
        "type" : "Point",
        "coordinates" : [
          139.81596999999999,
          35.686160000000086
        ]
      },
      "properties" : {
        "OBJECTID" : 13,
        "name" : "猿江二丁目",
        "lon" : 139.81596999999999,
        "lat" : 35.686160000000001
      }
    },
    {
      "type" : "Feature",
      "id" : 14,
      "geometry" : {
        "type" : "Point",
        "coordinates" : [
          139.81596999999999,
          35.686160000000086
        ]
      },
      "properties" : {
        "OBJECTID" : 14,
        "name" : "猿江二丁目",
        "lon" : 139.81596999999999,
        "lat" : 35.686160000000001
      }
    },
    {
      "type" : "Feature",
      "id" : 15,
      "geometry" : {
        "type" : "Point",
        "coordinates" : [
          139.80070000000001,
          35.660050000000069
        ]
      },
      "properties" : {
        "OBJECTID" : 15,
        "name" : "塩浜一丁目",
        "lon" : 139.80070000000001,
        "lat" : 35.660049999999998
      }
    },
    {
      "type" : "Feature",
      "id" : 16,
      "geometry" : {
        "type" : "Point",
        "coordinates" : [
          139.80070000000001,
          35.660050000000069
        ]
      },
      "properties" : {
        "OBJECTID" : 16,
        "name" : "塩浜一丁目",
        "lon" : 139.80070000000001,
        "lat" : 35.660049999999998
      }
    },
    {
      "type" : "Feature",
      "id" : 17,
      "geometry" : {
        "type" : "Point",
        "coordinates" : [
          139.81351000000006,
          35.663680000000056
        ]
      },
      "properties" : {
        "OBJECTID" : 17,
        "name" : "深川八中南",
        "lon" : 139.81351000000001,
        "lat" : 35.663679999999999
      }
    },
    {
      "type" : "Feature",
      "id" : 18,
      "geometry" : {
        "type" : "Point",
        "coordinates" : [
          139.81351000000006,
          35.663680000000056
        ]
      },
      "properties" : {
        "OBJECTID" : 18,
        "name" : "深川八中南",
        "lon" : 139.81351000000001,
        "lat" : 35.663679999999999
      }
    },
    {
      "type" : "Feature",
      "id" : 19,
      "geometry" : {
        "type" : "Point",
        "coordinates" : [
          139.81351000000006,
          35.663680000000056
        ]
      },
      "properties" : {
        "OBJECTID" : 19,
        "name" : "深川八中南",
        "lon" : 139.81351000000001,
        "lat" : 35.663679999999999
      }
    },
    {
      "type" : "Feature",
      "id" : 20,
      "geometry" : {
        "type" : "Point",
        "coordinates" : [
          139.81609000000003,
          35.663940000000082
        ]
      },
      "properties" : {
        "OBJECTID" : 20,
        "name" : "東陽橋南",
        "lon" : 139.81609,
        "lat" : 35.663939999999997
      }
    },
    {
      "type" : "Feature",
      "id" : 21,
      "geometry" : {
        "type" : "Point",
        "coordinates" : [
          139.81609000000003,
          35.663940000000082
        ]
      },
      "properties" : {
        "OBJECTID" : 21,
        "name" : "東陽橋南",
        "lon" : 139.81609,
        "lat" : 35.663939999999997
      }
    },
    {
      "type" : "Feature",
      "id" : 22,
      "geometry" : {
        "type" : "Point",
        "coordinates" : [
          139.81609000000003,
          35.663940000000082
        ]
      },
      "properties" : {
        "OBJECTID" : 22,
        "name" : "東陽橋南",
        "lon" : 139.81609,
        "lat" : 35.663939999999997
      }
    },
    {
      "type" : "Feature",
      "id" : 23,
      "geometry" : {
        "type" : "Point",
        "coordinates" : [
          139.80630000000008,
          35.661620000000084
        ]
      },
      "properties" : {
        "OBJECTID" : 23,
        "name" : "塩浜二丁目(東京都)",
        "lon" : 139.80629999999999,
        "lat" : 35.661619999999999
      }
    },
    {
      "type" : "Feature",
      "id" : 24,
      "geometry" : {
        "type" : "Point",
        "coordinates" : [
          139.80630000000008,
          35.661620000000084
        ]
      },
      "properties" : {
        "OBJECTID" : 24,
        "name" : "塩浜二丁目(東京都)",
        "lon" : 139.80629999999999,
        "lat" : 35.661619999999999
      }
    },
    {
      "type" : "Feature",
      "id" : 25,
      "geometry" : {
        "type" : "Point",
        "coordinates" : [
          139.80630000000008,
          35.661620000000084
        ]
      },
      "properties" : {
        "OBJECTID" : 25,
        "name" : "塩浜二丁目(東京都)",
        "lon" : 139.80629999999999,
        "lat" : 35.661619999999999
      }
    },
    {
      "type" : "Feature",
      "id" : 26,
      "geometry" : {
        "type" : "Point",
        "coordinates" : [
          139.80630000000008,
          35.661620000000084
        ]
      },
      "properties" : {
        "OBJECTID" : 26,
        "name" : "塩浜二丁目(東京都)",
        "lon" : 139.80629999999999,
        "lat" : 35.661619999999999
      }
    },
    {
      "type" : "Feature",
      "id" : 27,
      "geometry" : {
        "type" : "Point",
        "coordinates" : [
          139.80630000000008,
          35.661620000000084
        ]
      },
      "properties" : {
        "OBJECTID" : 27,
        "name" : "塩浜二丁目(東京都)",
        "lon" : 139.80629999999999,
        "lat" : 35.661619999999999
      }
    },
    {
      "type" : "Feature",
      "id" : 28,
      "geometry" : {
        "type" : "Point",
        "coordinates" : [
          139.80630000000008,
          35.661620000000084
        ]
      },
      "properties" : {
        "OBJECTID" : 28,
        "name" : "塩浜二丁目(東京都)",
        "lon" : 139.80629999999999,
        "lat" : 35.661619999999999
      }
    },
    {
      "type" : "Feature",
      "id" : 29,
      "geometry" : {
        "type" : "Point",
        "coordinates" : [
          139.80630000000008,
          35.661620000000084
        ]
      },
      "properties" : {
        "OBJECTID" : 29,
        "name" : "塩浜二丁目(東京都)",
        "lon" : 139.80629999999999,
        "lat" : 35.661619999999999
      }
    },
    {
      "type" : "Feature",
      "id" : 30,
      "geometry" : {
        "type" : "Point",
        "coordinates" : [
          139.80501000000004,
          35.662360000000035
        ]
      },
      "properties" : {
        "OBJECTID" : 30,
        "name" : "塩崎荘前",
        "lon" : 139.80501000000001,
        "lat" : 35.66236
      }
    },
    {
      "type" : "Feature",
      "id" : 31,
      "geometry" : {
        "type" : "Point",
        "coordinates" : [
          139.80822000000001,
          35.663150000000087
        ]
      },
      "properties" : {
        "OBJECTID" : 31,
        "name" : "塩浜東",
        "lon" : 139.80822000000001,
        "lat" : 35.663150000000002
      }
    },
    {
      "type" : "Feature",
      "id" : 32,
      "geometry" : {
        "type" : "Point",
        "coordinates" : [
          139.80822000000001,
          35.663150000000087
        ]
      },
      "properties" : {
        "OBJECTID" : 32,
        "name" : "塩浜東",
        "lon" : 139.80822000000001,
        "lat" : 35.663150000000002
      }
    },
    {
      "type" : "Feature",
      "id" : 33,
      "geometry" : {
        "type" : "Point",
        "coordinates" : [
          139.80822000000001,
          35.663150000000087
        ]
      },
      "properties" : {
        "OBJECTID" : 33,
        "name" : "塩浜東",
        "lon" : 139.80822000000001,
        "lat" : 35.663150000000002
      }
    },
    {
      "type" : "Feature",
      "id" : 34,
      "geometry" : {
        "type" : "Point",
        "coordinates" : [
          139.80822000000001,
          35.663150000000087
        ]
      },
      "properties" : {
        "OBJECTID" : 34,
        "name" : "塩浜東",
        "lon" : 139.80822000000001,
        "lat" : 35.663150000000002
      }
    },
    {
      "type" : "Feature",
      "id" : 35,
      "geometry" : {
        "type" : "Point",
        "coordinates" : [
          139.80540000000008,
          35.663510000000088
        ]
      },
      "properties" : {
        "OBJECTID" : 35,
        "name" : "塩浜橋(東京都)",
        "lon" : 139.80539999999999,
        "lat" : 35.663510000000002
      }
    },
    {
      "type" : "Feature",
      "id" : 36,
      "geometry" : {
        "type" : "Point",
        "coordinates" : [
          139.79917,
          35.598760000000084
        ]
      },
      "properties" : {
        "OBJECTID" : 36,
        "name" : "環境局中防合同庁舎前",
        "lon" : 139.79917,
        "lat" : 35.598759999999999
      }
    },
    {
      "type" : "Feature",
      "id" : 37,
      "geometry" : {
        "type" : "Point",
        "coordinates" : [
          139.79730000000006,
          35.600880000000075
        ]
      },
      "properties" : {
        "OBJECTID" : 37,
        "name" : "中央防波堤",
        "lon" : 139.79730000000001,
        "lat" : 35.600879999999997
      }
    },
    {
      "type" : "Feature",
      "id" : 38,
      "geometry" : {
        "type" : "Point",
        "coordinates" : [
          139.82095000000004,
          35.696330000000046
        ]
      },
      "properties" : {
        "OBJECTID" : 38,
        "name" : "亀戸一丁目",
        "lon" : 139.82095000000001,
        "lat" : 35.696330000000003
      }
    },
    {
      "type" : "Feature",
      "id" : 39,
      "geometry" : {
        "type" : "Point",
        "coordinates" : [
          139.82095000000004,
          35.696330000000046
        ]
      },
      "properties" : {
        "OBJECTID" : 39,
        "name" : "亀戸一丁目",
        "lon" : 139.82095000000001,
        "lat" : 35.696330000000003
      }
    },
    {
      "type" : "Feature",
      "id" : 40,
      "geometry" : {
        "type" : "Point",
        "coordinates" : [
          139.82095000000004,
          35.696330000000046
        ]
      },
      "properties" : {
        "OBJECTID" : 40,
        "name" : "亀戸一丁目",
        "lon" : 139.82095000000001,
        "lat" : 35.696330000000003
      }
    },
    {
      "type" : "Feature",
      "id" : 41,
      "geometry" : {
        "type" : "Point",
        "coordinates" : [
          139.82095000000004,
          35.696330000000046
        ]
      },
      "properties" : {
        "OBJECTID" : 41,
        "name" : "亀戸一丁目",
        "lon" : 139.82095000000001,
        "lat" : 35.696330000000003
      }
    },
    {
      "type" : "Feature",
      "id" : 42,
      "geometry" : {
        "type" : "Point",
        "coordinates" : [
          139.82095000000004,
          35.696330000000046
        ]
      },
      "properties" : {
        "OBJECTID" : 42,
        "name" : "亀戸一丁目",
        "lon" : 139.82095000000001,
        "lat" : 35.696330000000003
      }
    },
    {
      "type" : "Feature",
      "id" : 43,
      "geometry" : {
        "type" : "Point",
        "coordinates" : [
          139.82095000000004,
          35.696330000000046
        ]
      },
      "properties" : {
        "OBJECTID" : 43,
        "name" : "亀戸一丁目",
        "lon" : 139.82095000000001,
        "lat" : 35.696330000000003
      }
    },
    {
      "type" : "Feature",
      "id" : 44,
      "geometry" : {
        "type" : "Point",
        "coordinates" : [
          139.82095000000004,
          35.696330000000046
        ]
      },
      "properties" : {
        "OBJECTID" : 44,
        "name" : "亀戸一丁目",
        "lon" : 139.82095000000001,
        "lat" : 35.696330000000003
      }
    },
    {
      "type" : "Feature",
      "id" : 45,
      "geometry" : {
        "type" : "Point",
        "coordinates" : [
          139.82095000000004,
          35.696330000000046
        ]
      },
      "properties" : {
        "OBJECTID" : 45,
        "name" : "亀戸一丁目",
        "lon" : 139.82095000000001,
        "lat" : 35.696330000000003
      }
    },
    {
      "type" : "Feature",
      "id" : 46,
      "geometry" : {
        "type" : "Point",
        "coordinates" : [
          139.82095000000004,
          35.696330000000046
        ]
      },
      "properties" : {
        "OBJECTID" : 46,
        "name" : "亀戸一丁目",
        "lon" : 139.82095000000001,
        "lat" : 35.696330000000003
      }
    },
    {
      "type" : "Feature",
      "id" : 47,
      "geometry" : {
        "type" : "Point",
        "coordinates" : [
          139.82540000000006,
          35.697890000000086
        ]
      },
      "properties" : {
        "OBJECTID" : 47,
        "name" : "亀戸駅前",
        "lon" : 139.8254,
        "lat" : 35.697890000000001
      }
    },
    {
      "type" : "Feature",
      "id" : 48,
      "geometry" : {
        "type" : "Point",
        "coordinates" : [
          139.82540000000006,
          35.697890000000086
        ]
      },
      "properties" : {
        "OBJECTID" : 48,
        "name" : "亀戸駅前",
        "lon" : 139.8254,
        "lat" : 35.697890000000001
      }
    },
    {
      "type" : "Feature",
      "id" : 49,
      "geometry" : {
        "type" : "Point",
        "coordinates" : [
          139.82540000000006,
          35.697890000000086
        ]
      },
      "properties" : {
        "OBJECTID" : 49,
        "name" : "亀戸駅前",
        "lon" : 139.8254,
        "lat" : 35.697890000000001
      }
    },
    {
      "type" : "Feature",
      "id" : 50,
      "geometry" : {
        "type" : "Point",
        "coordinates" : [
          139.82540000000006,
          35.697890000000086
        ]
      },
      "properties" : {
        "OBJECTID" : 50,
        "name" : "亀戸駅前",
        "lon" : 139.8254,
        "lat" : 35.697890000000001
      }
    },
    {
      "type" : "Feature",
      "id" : 51,
      "geometry" : {
        "type" : "Point",
        "coordinates" : [
          139.82540000000006,
          35.697890000000086
        ]
      },
      "properties" : {
        "OBJECTID" : 51,
        "name" : "亀戸駅前",
        "lon" : 139.8254,
        "lat" : 35.697890000000001
      }
    },
    {
      "type" : "Feature",
      "id" : 52,
      "geometry" : {
        "type" : "Point",
        "coordinates" : [
          139.82540000000006,
          35.697890000000086
        ]
      },
      "properties" : {
        "OBJECTID" : 52,
        "name" : "亀戸駅前",
        "lon" : 139.8254,
        "lat" : 35.697890000000001
      }
    },
    {
      "type" : "Feature",
      "id" : 53,
      "geometry" : {
        "type" : "Point",
        "coordinates" : [
          139.82540000000006,
          35.697890000000086
        ]
      },
      "properties" : {
        "OBJECTID" : 53,
        "name" : "亀戸駅前",
        "lon" : 139.8254,
        "lat" : 35.697890000000001
      }
    },
    {
      "type" : "Feature",
      "id" : 54,
      "geometry" : {
        "type" : "Point",
        "coordinates" : [
          139.82540000000006,
          35.697890000000086
        ]
      },
      "properties" : {
        "OBJECTID" : 54,
        "name" : "亀戸駅前",
        "lon" : 139.8254,
        "lat" : 35.697890000000001
      }
    },
    {
      "type" : "Feature",
      "id" : 55,
      "geometry" : {
        "type" : "Point",
        "coordinates" : [
          139.82540000000006,
          35.697890000000086
        ]
      },
      "properties" : {
        "OBJECTID" : 55,
        "name" : "亀戸駅前",
        "lon" : 139.8254,
        "lat" : 35.697890000000001
      }
    },
    {
      "type" : "Feature",
      "id" : 56,
      "geometry" : {
        "type" : "Point",
        "coordinates" : [
          139.82540000000006,
          35.697890000000086
        ]
      },
      "properties" : {
        "OBJECTID" : 56,
        "name" : "亀戸駅前",
        "lon" : 139.8254,
        "lat" : 35.697890000000001
      }
    },
    {
      "type" : "Feature",
      "id" : 57,
      "geometry" : {
        "type" : "Point",
        "coordinates" : [
          139.82540000000006,
          35.697890000000086
        ]
      },
      "properties" : {
        "OBJECTID" : 57,
        "name" : "亀戸駅前",
        "lon" : 139.8254,
        "lat" : 35.697890000000001
      }
    },
    {
      "type" : "Feature",
      "id" : 58,
      "geometry" : {
        "type" : "Point",
        "coordinates" : [
          139.82511,
          35.70139000000006
        ]
      },
      "properties" : {
        "OBJECTID" : 58,
        "name" : "亀戸四丁目",
        "lon" : 139.82511,
        "lat" : 35.701390000000004
      }
    },
    {
      "type" : "Feature",
      "id" : 59,
      "geometry" : {
        "type" : "Point",
        "coordinates" : [
          139.82511,
          35.70139000000006
        ]
      },
      "properties" : {
        "OBJECTID" : 59,
        "name" : "亀戸四丁目",
        "lon" : 139.82511,
        "lat" : 35.701390000000004
      }
    },
    {
      "type" : "Feature",
      "id" : 60,
      "geometry" : {
        "type" : "Point",
        "coordinates" : [
          139.82511,
          35.70139000000006
        ]
      },
      "properties" : {
        "OBJECTID" : 60,
        "name" : "亀戸四丁目",
        "lon" : 139.82511,
        "lat" : 35.701390000000004
      }
    },
    {
      "type" : "Feature",
      "id" : 61,
      "geometry" : {
        "type" : "Point",
        "coordinates" : [
          139.82511,
          35.70139000000006
        ]
      },
      "properties" : {
        "OBJECTID" : 61,
        "name" : "亀戸四丁目",
        "lon" : 139.82511,
        "lat" : 35.701390000000004
      }
    },
    {
      "type" : "Feature",
      "id" : 62,
      "geometry" : {
        "type" : "Point",
        "coordinates" : [
          139.81997000000001,
          35.707310000000064
        ]
      },
      "properties" : {
        "OBJECTID" : 62,
        "name" : "柳島(東京都)",
        "lon" : 139.81997000000001,
        "lat" : 35.70731
      }
    },
    {
      "type" : "Feature",
      "id" : 63,
      "geometry" : {
        "type" : "Point",
        "coordinates" : [
          139.82078000000001,
          35.701510000000042
        ]
      },
      "properties" : {
        "OBJECTID" : 63,
        "name" : "亀戸天神前",
        "lon" : 139.82078000000001,
        "lat" : 35.701509999999999
      }
    },
    {
      "type" : "Feature",
      "id" : 64,
      "geometry" : {
        "type" : "Point",
        "coordinates" : [
          139.82078000000001,
          35.701510000000042
        ]
      },
      "properties" : {
        "OBJECTID" : 64,
        "name" : "亀戸天神前",
        "lon" : 139.82078000000001,
        "lat" : 35.701509999999999
      }
    },
    {
      "type" : "Feature",
      "id" : 65,
      "geometry" : {
        "type" : "Point",
        "coordinates" : [
          139.82574,
          35.704050000000052
        ]
      },
      "properties" : {
        "OBJECTID" : 65,
        "name" : "亀戸香取神社",
        "lon" : 139.82574,
        "lat" : 35.704050000000002
      }
    },
    {
      "type" : "Feature",
      "id" : 66,
      "geometry" : {
        "type" : "Point",
        "coordinates" : [
          139.82592,
          35.704360000000065
        ]
      },
      "properties" : {
        "OBJECTID" : 66,
        "name" : "福神橋",
        "lon" : 139.82592,
        "lat" : 35.704360000000001
      }
    },
    {
      "type" : "Feature",
      "id" : 67,
      "geometry" : {
        "type" : "Point",
        "coordinates" : [
          139.82592,
          35.704360000000065
        ]
      },
      "properties" : {
        "OBJECTID" : 67,
        "name" : "福神橋",
        "lon" : 139.82592,
        "lat" : 35.704360000000001
      }
    },
    {
      "type" : "Feature",
      "id" : 68,
      "geometry" : {
        "type" : "Point",
        "coordinates" : [
          139.82584000000008,
          35.69578000000007
        ]
      },
      "properties" : {
        "OBJECTID" : 68,
        "name" : "亀戸駅通り",
        "lon" : 139.82584,
        "lat" : 35.695779999999999
      }
    },
    {
      "type" : "Feature",
      "id" : 69,
      "geometry" : {
        "type" : "Point",
        "coordinates" : [
          139.82584000000008,
          35.69578000000007
        ]
      },
      "properties" : {
        "OBJECTID" : 69,
        "name" : "亀戸駅通り",
        "lon" : 139.82584,
        "lat" : 35.695779999999999
      }
    },
    {
      "type" : "Feature",
      "id" : 70,
      "geometry" : {
        "type" : "Point",
        "coordinates" : [
          139.82584000000008,
          35.69578000000007
        ]
      },
      "properties" : {
        "OBJECTID" : 70,
        "name" : "亀戸駅通り",
        "lon" : 139.82584,
        "lat" : 35.695779999999999
      }
    },
    {
      "type" : "Feature",
      "id" : 71,
      "geometry" : {
        "type" : "Point",
        "coordinates" : [
          139.82584000000008,
          35.69578000000007
        ]
      },
      "properties" : {
        "OBJECTID" : 71,
        "name" : "亀戸駅通り",
        "lon" : 139.82584,
        "lat" : 35.695779999999999
      }
    },
    {
      "type" : "Feature",
      "id" : 72,
      "geometry" : {
        "type" : "Point",
        "coordinates" : [
          139.82584000000008,
          35.69578000000007
        ]
      },
      "properties" : {
        "OBJECTID" : 72,
        "name" : "亀戸駅通り",
        "lon" : 139.82584,
        "lat" : 35.695779999999999
      }
    },
    {
      "type" : "Feature",
      "id" : 73,
      "geometry" : {
        "type" : "Point",
        "coordinates" : [
          139.82584000000008,
          35.69578000000007
        ]
      },
      "properties" : {
        "OBJECTID" : 73,
        "name" : "亀戸駅通り",
        "lon" : 139.82584,
        "lat" : 35.695779999999999
      }
    },
    {
      "type" : "Feature",
      "id" : 74,
      "geometry" : {
        "type" : "Point",
        "coordinates" : [
          139.82584000000008,
          35.69578000000007
        ]
      },
      "properties" : {
        "OBJECTID" : 74,
        "name" : "亀戸駅通り",
        "lon" : 139.82584,
        "lat" : 35.695779999999999
      }
    },
    {
      "type" : "Feature",
      "id" : 75,
      "geometry" : {
        "type" : "Point",
        "coordinates" : [
          139.82584000000008,
          35.69578000000007
        ]
      },
      "properties" : {
        "OBJECTID" : 75,
        "name" : "亀戸駅通り",
        "lon" : 139.82584,
        "lat" : 35.695779999999999
      }
    },
    {
      "type" : "Feature",
      "id" : 76,
      "geometry" : {
        "type" : "Point",
        "coordinates" : [
          139.82584000000008,
          35.69578000000007
        ]
      },
      "properties" : {
        "OBJECTID" : 76,
        "name" : "亀戸駅通り",
        "lon" : 139.82584,
        "lat" : 35.695779999999999
      }
    },
    {
      "type" : "Feature",
      "id" : 77,
      "geometry" : {
        "type" : "Point",
        "coordinates" : [
          139.82584000000008,
          35.69578000000007
        ]
      },
      "properties" : {
        "OBJECTID" : 77,
        "name" : "亀戸駅通り",
        "lon" : 139.82584,
        "lat" : 35.695779999999999
      }
    },
    {
      "type" : "Feature",
      "id" : 78,
      "geometry" : {
        "type" : "Point",
        "coordinates" : [
          139.82584000000008,
          35.69578000000007
        ]
      },
      "properties" : {
        "OBJECTID" : 78,
        "name" : "亀戸駅通り",
        "lon" : 139.82584,
        "lat" : 35.695779999999999
      }
    },
    {
      "type" : "Feature",
      "id" : 79,
      "geometry" : {
        "type" : "Point",
        "coordinates" : [
          139.82584000000008,
          35.69578000000007
        ]
      },
      "properties" : {
        "OBJECTID" : 79,
        "name" : "亀戸駅通り",
        "lon" : 139.82584,
        "lat" : 35.695779999999999
      }
    },
    {
      "type" : "Feature",
      "id" : 80,
      "geometry" : {
        "type" : "Point",
        "coordinates" : [
          139.82584000000008,
          35.69578000000007
        ]
      },
      "properties" : {
        "OBJECTID" : 80,
        "name" : "亀戸駅通り",
        "lon" : 139.82584,
        "lat" : 35.695779999999999
      }
    },
    {
      "type" : "Feature",
      "id" : 81,
      "geometry" : {
        "type" : "Point",
        "coordinates" : [
          139.82584000000008,
          35.69578000000007
        ]
      },
      "properties" : {
        "OBJECTID" : 81,
        "name" : "亀戸駅通り",
        "lon" : 139.82584,
        "lat" : 35.695779999999999
      }
    },
    {
      "type" : "Feature",
      "id" : 82,
      "geometry" : {
        "type" : "Point",
        "coordinates" : [
          139.83159000000001,
          35.696960000000047
        ]
      },
      "properties" : {
        "OBJECTID" : 82,
        "name" : "亀戸六丁目",
        "lon" : 139.83159000000001,
        "lat" : 35.696959999999997
      }
    },
    {
      "type" : "Feature",
      "id" : 83,
      "geometry" : {
        "type" : "Point",
        "coordinates" : [
          139.83159000000001,
          35.696960000000047
        ]
      },
      "properties" : {
        "OBJECTID" : 83,
        "name" : "亀戸六丁目",
        "lon" : 139.83159000000001,
        "lat" : 35.696959999999997
      }
    },
    {
      "type" : "Feature",
      "id" : 84,
      "geometry" : {
        "type" : "Point",
        "coordinates" : [
          139.83159000000001,
          35.696960000000047
        ]
      },
      "properties" : {
        "OBJECTID" : 84,
        "name" : "亀戸六丁目",
        "lon" : 139.83159000000001,
        "lat" : 35.696959999999997
      }
    },
    {
      "type" : "Feature",
      "id" : 85,
      "geometry" : {
        "type" : "Point",
        "coordinates" : [
          139.83159000000001,
          35.696960000000047
        ]
      },
      "properties" : {
        "OBJECTID" : 85,
        "name" : "亀戸六丁目",
        "lon" : 139.83159000000001,
        "lat" : 35.696959999999997
      }
    },
    {
      "type" : "Feature",
      "id" : 86,
      "geometry" : {
        "type" : "Point",
        "coordinates" : [
          139.83159000000001,
          35.696960000000047
        ]
      },
      "properties" : {
        "OBJECTID" : 86,
        "name" : "亀戸六丁目",
        "lon" : 139.83159000000001,
        "lat" : 35.696959999999997
      }
    },
    {
      "type" : "Feature",
      "id" : 87,
      "geometry" : {
        "type" : "Point",
        "coordinates" : [
          139.82891000000006,
          35.69676000000004
        ]
      },
      "properties" : {
        "OBJECTID" : 87,
        "name" : "水神森",
        "lon" : 139.82891000000001,
        "lat" : 35.696759999999998
      }
    },
    {
      "type" : "Feature",
      "id" : 88,
      "geometry" : {
        "type" : "Point",
        "coordinates" : [
          139.82891000000006,
          35.69676000000004
        ]
      },
      "properties" : {
        "OBJECTID" : 88,
        "name" : "水神森",
        "lon" : 139.82891000000001,
        "lat" : 35.696759999999998
      }
    },
    {
      "type" : "Feature",
      "id" : 89,
      "geometry" : {
        "type" : "Point",
        "coordinates" : [
          139.82891000000006,
          35.69676000000004
        ]
      },
      "properties" : {
        "OBJECTID" : 89,
        "name" : "水神森",
        "lon" : 139.82891000000001,
        "lat" : 35.696759999999998
      }
    },
    {
      "type" : "Feature",
      "id" : 90,
      "geometry" : {
        "type" : "Point",
        "coordinates" : [
          139.82891000000006,
          35.69676000000004
        ]
      },
      "properties" : {
        "OBJECTID" : 90,
        "name" : "水神森",
        "lon" : 139.82891000000001,
        "lat" : 35.696759999999998
      }
    },
    {
      "type" : "Feature",
      "id" : 91,
      "geometry" : {
        "type" : "Point",
        "coordinates" : [
          139.82891000000006,
          35.69676000000004
        ]
      },
      "properties" : {
        "OBJECTID" : 91,
        "name" : "水神森",
        "lon" : 139.82891000000001,
        "lat" : 35.696759999999998
      }
    },
    {
      "type" : "Feature",
      "id" : 92,
      "geometry" : {
        "type" : "Point",
        "coordinates" : [
          139.8356500000001,
          35.697110000000066
        ]
      },
      "properties" : {
        "OBJECTID" : 92,
        "name" : "亀戸七丁目",
        "lon" : 139.83564999999999,
        "lat" : 35.697110000000002
      }
    },
    {
      "type" : "Feature",
      "id" : 93,
      "geometry" : {
        "type" : "Point",
        "coordinates" : [
          139.8356500000001,
          35.697110000000066
        ]
      },
      "properties" : {
        "OBJECTID" : 93,
        "name" : "亀戸七丁目",
        "lon" : 139.83564999999999,
        "lat" : 35.697110000000002
      }
    },
    {
      "type" : "Feature",
      "id" : 94,
      "geometry" : {
        "type" : "Point",
        "coordinates" : [
          139.8356500000001,
          35.697110000000066
        ]
      },
      "properties" : {
        "OBJECTID" : 94,
        "name" : "亀戸七丁目",
        "lon" : 139.83564999999999,
        "lat" : 35.697110000000002
      }
    },
    {
      "type" : "Feature",
      "id" : 95,
      "geometry" : {
        "type" : "Point",
        "coordinates" : [
          139.8356500000001,
          35.697110000000066
        ]
      },
      "properties" : {
        "OBJECTID" : 95,
        "name" : "亀戸七丁目",
        "lon" : 139.83564999999999,
        "lat" : 35.697110000000002
      }
    },
    {
      "type" : "Feature",
      "id" : 96,
      "geometry" : {
        "type" : "Point",
        "coordinates" : [
          139.83935000000008,
          35.697290000000066
        ]
      },
      "properties" : {
        "OBJECTID" : 96,
        "name" : "亀戸九丁目",
        "lon" : 139.83935,
        "lat" : 35.697290000000002
      }
    },
    {
      "type" : "Feature",
      "id" : 97,
      "geometry" : {
        "type" : "Point",
        "coordinates" : [
          139.83935000000008,
          35.697290000000066
        ]
      },
      "properties" : {
        "OBJECTID" : 97,
        "name" : "亀戸九丁目",
        "lon" : 139.83935,
        "lat" : 35.697290000000002
      }
    },
    {
      "type" : "Feature",
      "id" : 98,
      "geometry" : {
        "type" : "Point",
        "coordinates" : [
          139.83935000000008,
          35.697290000000066
        ]
      },
      "properties" : {
        "OBJECTID" : 98,
        "name" : "亀戸九丁目",
        "lon" : 139.83935,
        "lat" : 35.697290000000002
      }
    },
    {
      "type" : "Feature",
      "id" : 99,
      "geometry" : {
        "type" : "Point",
        "coordinates" : [
          139.83935000000008,
          35.697290000000066
        ]
      },
      "properties" : {
        "OBJECTID" : 99,
        "name" : "亀戸九丁目",
        "lon" : 139.83935,
        "lat" : 35.697290000000002
      }
    },
    {
      "type" : "Feature",
      "id" : 100,
      "geometry" : {
        "type" : "Point",
        "coordinates" : [
          139.83416,
          35.695370000000082
        ]
      },
      "properties" : {
        "OBJECTID" : 100,
        "name" : "竪川大橋北詰",
        "lon" : 139.83416,
        "lat" : 35.695369999999997
      }
    },
    {
      "type" : "Feature",
      "id" : 101,
      "geometry" : {
        "type" : "Point",
        "coordinates" : [
          139.84331000000009,
          35.695950000000039
        ]
      },
      "properties" : {
        "OBJECTID" : 101,
        "name" : "亀戸中学校入口",
        "lon" : 139.84331,
        "lat" : 35.695950000000003
      }
    },
    {
      "type" : "Feature",
      "id" : 102,
      "geometry" : {
        "type" : "Point",
        "coordinates" : [
          139.84396000000004,
          35.697640000000035
        ]
      },
      "properties" : {
        "OBJECTID" : 102,
        "name" : "浅間神社(江東区)",
        "lon" : 139.84396000000001,
        "lat" : 35.69764
      }
    },
    {
      "type" : "Feature",
      "id" : 103,
      "geometry" : {
        "type" : "Point",
        "coordinates" : [
          139.84396000000004,
          35.697640000000035
        ]
      },
      "properties" : {
        "OBJECTID" : 103,
        "name" : "浅間神社(江東区)",
        "lon" : 139.84396000000001,
        "lat" : 35.69764
      }
    },
    {
      "type" : "Feature",
      "id" : 104,
      "geometry" : {
        "type" : "Point",
        "coordinates" : [
          139.84396000000004,
          35.697640000000035
        ]
      },
      "properties" : {
        "OBJECTID" : 104,
        "name" : "浅間神社(江東区)",
        "lon" : 139.84396000000001,
        "lat" : 35.69764
      }
    },
    {
      "type" : "Feature",
      "id" : 105,
      "geometry" : {
        "type" : "Point",
        "coordinates" : [
          139.79845,
          35.685500000000047
        ]
      },
      "properties" : {
        "OBJECTID" : 105,
        "name" : "高橋(東京都)",
        "lon" : 139.79845,
        "lat" : 35.685499999999998
      }
    },
    {
      "type" : "Feature",
      "id" : 106,
      "geometry" : {
        "type" : "Point",
        "coordinates" : [
          139.79898000000003,
          35.680550000000039
        ]
      },
      "properties" : {
        "OBJECTID" : 106,
        "name" : "清澄庭園前",
        "lon" : 139.79898,
        "lat" : 35.680549999999997
      }
    },
    {
      "type" : "Feature",
      "id" : 107,
      "geometry" : {
        "type" : "Point",
        "coordinates" : [
          139.79898000000003,
          35.680550000000039
        ]
      },
      "properties" : {
        "OBJECTID" : 107,
        "name" : "清澄庭園前",
        "lon" : 139.79898,
        "lat" : 35.680549999999997
      }
    },
    {
      "type" : "Feature",
      "id" : 108,
      "geometry" : {
        "type" : "Point",
        "coordinates" : [
          139.80718000000002,
          35.679780000000051
        ]
      },
      "properties" : {
        "OBJECTID" : 108,
        "name" : "東京都現代美術館",
        "lon" : 139.80717999999999,
        "lat" : 35.679780000000001
      }
    },
    {
      "type" : "Feature",
      "id" : 109,
      "geometry" : {
        "type" : "Point",
        "coordinates" : [
          139.80681000000004,
          35.679250000000081
        ]
      },
      "properties" : {
        "OBJECTID" : 109,
        "name" : "東京都現代美術館前",
        "lon" : 139.80681000000001,
        "lat" : 35.679250000000003
      }
    },
    {
      "type" : "Feature",
      "id" : 110,
      "geometry" : {
        "type" : "Point",
        "coordinates" : [
          139.80681000000004,
          35.679250000000081
        ]
      },
      "properties" : {
        "OBJECTID" : 110,
        "name" : "東京都現代美術館前",
        "lon" : 139.80681000000001,
        "lat" : 35.679250000000003
      }
    },
    {
      "type" : "Feature",
      "id" : 111,
      "geometry" : {
        "type" : "Point",
        "coordinates" : [
          139.80445000000009,
          35.656990000000064
        ]
      },
      "properties" : {
        "OBJECTID" : 111,
        "name" : "枝川一丁目",
        "lon" : 139.80445,
        "lat" : 35.65699
      }
    },
    {
      "type" : "Feature",
      "id" : 112,
      "geometry" : {
        "type" : "Point",
        "coordinates" : [
          139.80445000000009,
          35.656990000000064
        ]
      },
      "properties" : {
        "OBJECTID" : 112,
        "name" : "枝川一丁目",
        "lon" : 139.80445,
        "lat" : 35.65699
      }
    },
    {
      "type" : "Feature",
      "id" : 113,
      "geometry" : {
        "type" : "Point",
        "coordinates" : [
          139.80445000000009,
          35.656990000000064
        ]
      },
      "properties" : {
        "OBJECTID" : 113,
        "name" : "枝川一丁目",
        "lon" : 139.80445,
        "lat" : 35.65699
      }
    },
    {
      "type" : "Feature",
      "id" : 114,
      "geometry" : {
        "type" : "Point",
        "coordinates" : [
          139.80445000000009,
          35.656990000000064
        ]
      },
      "properties" : {
        "OBJECTID" : 114,
        "name" : "枝川一丁目",
        "lon" : 139.80445,
        "lat" : 35.65699
      }
    },
    {
      "type" : "Feature",
      "id" : 115,
      "geometry" : {
        "type" : "Point",
        "coordinates" : [
          139.80445000000009,
          35.656990000000064
        ]
      },
      "properties" : {
        "OBJECTID" : 115,
        "name" : "枝川一丁目",
        "lon" : 139.80445,
        "lat" : 35.65699
      }
    },
    {
      "type" : "Feature",
      "id" : 116,
      "geometry" : {
        "type" : "Point",
        "coordinates" : [
          139.80225000000007,
          35.658020000000079
        ]
      },
      "properties" : {
        "OBJECTID" : 116,
        "name" : "枝川(東京都)",
        "lon" : 139.80224999999999,
        "lat" : 35.65802
      }
    },
    {
      "type" : "Feature",
      "id" : 117,
      "geometry" : {
        "type" : "Point",
        "coordinates" : [
          139.80225000000007,
          35.658020000000079
        ]
      },
      "properties" : {
        "OBJECTID" : 117,
        "name" : "枝川(東京都)",
        "lon" : 139.80224999999999,
        "lat" : 35.65802
      }
    },
    {
      "type" : "Feature",
      "id" : 118,
      "geometry" : {
        "type" : "Point",
        "coordinates" : [
          139.80225000000007,
          35.658020000000079
        ]
      },
      "properties" : {
        "OBJECTID" : 118,
        "name" : "枝川(東京都)",
        "lon" : 139.80224999999999,
        "lat" : 35.65802
      }
    },
    {
      "type" : "Feature",
      "id" : 119,
      "geometry" : {
        "type" : "Point",
        "coordinates" : [
          139.80225000000007,
          35.658020000000079
        ]
      },
      "properties" : {
        "OBJECTID" : 119,
        "name" : "枝川(東京都)",
        "lon" : 139.80224999999999,
        "lat" : 35.65802
      }
    },
    {
      "type" : "Feature",
      "id" : 120,
      "geometry" : {
        "type" : "Point",
        "coordinates" : [
          139.80225000000007,
          35.658020000000079
        ]
      },
      "properties" : {
        "OBJECTID" : 120,
        "name" : "枝川(東京都)",
        "lon" : 139.80224999999999,
        "lat" : 35.65802
      }
    },
    {
      "type" : "Feature",
      "id" : 121,
      "geometry" : {
        "type" : "Point",
        "coordinates" : [
          139.80225000000007,
          35.658020000000079
        ]
      },
      "properties" : {
        "OBJECTID" : 121,
        "name" : "枝川(東京都)",
        "lon" : 139.80224999999999,
        "lat" : 35.65802
      }
    },
    {
      "type" : "Feature",
      "id" : 122,
      "geometry" : {
        "type" : "Point",
        "coordinates" : [
          139.80225000000007,
          35.658020000000079
        ]
      },
      "properties" : {
        "OBJECTID" : 122,
        "name" : "枝川(東京都)",
        "lon" : 139.80224999999999,
        "lat" : 35.65802
      }
    },
    {
      "type" : "Feature",
      "id" : 123,
      "geometry" : {
        "type" : "Point",
        "coordinates" : [
          139.80819000000008,
          35.658770000000061
        ]
      },
      "properties" : {
        "OBJECTID" : 123,
        "name" : "八枝橋",
        "lon" : 139.80819,
        "lat" : 35.658769999999997
      }
    },
    {
      "type" : "Feature",
      "id" : 124,
      "geometry" : {
        "type" : "Point",
        "coordinates" : [
          139.80732,
          35.658870000000036
        ]
      },
      "properties" : {
        "OBJECTID" : 124,
        "name" : "枝川二丁目",
        "lon" : 139.80732,
        "lat" : 35.65887
      }
    },
    {
      "type" : "Feature",
      "id" : 125,
      "geometry" : {
        "type" : "Point",
        "coordinates" : [
          139.80732,
          35.658870000000036
        ]
      },
      "properties" : {
        "OBJECTID" : 125,
        "name" : "枝川二丁目",
        "lon" : 139.80732,
        "lat" : 35.65887
      }
    },
    {
      "type" : "Feature",
      "id" : 126,
      "geometry" : {
        "type" : "Point",
        "coordinates" : [
          139.80732,
          35.658870000000036
        ]
      },
      "properties" : {
        "OBJECTID" : 126,
        "name" : "枝川二丁目",
        "lon" : 139.80732,
        "lat" : 35.65887
      }
    },
    {
      "type" : "Feature",
      "id" : 127,
      "geometry" : {
        "type" : "Point",
        "coordinates" : [
          139.80732,
          35.658870000000036
        ]
      },
      "properties" : {
        "OBJECTID" : 127,
        "name" : "枝川二丁目",
        "lon" : 139.80732,
        "lat" : 35.65887
      }
    },
    {
      "type" : "Feature",
      "id" : 128,
      "geometry" : {
        "type" : "Point",
        "coordinates" : [
          139.80732,
          35.658870000000036
        ]
      },
      "properties" : {
        "OBJECTID" : 128,
        "name" : "枝川二丁目",
        "lon" : 139.80732,
        "lat" : 35.65887
      }
    },
    {
      "type" : "Feature",
      "id" : 129,
      "geometry" : {
        "type" : "Point",
        "coordinates" : [
          139.80732,
          35.658870000000036
        ]
      },
      "properties" : {
        "OBJECTID" : 129,
        "name" : "枝川二丁目",
        "lon" : 139.80732,
        "lat" : 35.65887
      }
    },
    {
      "type" : "Feature",
      "id" : 130,
      "geometry" : {
        "type" : "Point",
        "coordinates" : [
          139.80732,
          35.658870000000036
        ]
      },
      "properties" : {
        "OBJECTID" : 130,
        "name" : "枝川二丁目",
        "lon" : 139.80732,
        "lat" : 35.65887
      }
    },
    {
      "type" : "Feature",
      "id" : 131,
      "geometry" : {
        "type" : "Point",
        "coordinates" : [
          139.80979000000002,
          35.659760000000063
        ]
      },
      "properties" : {
        "OBJECTID" : 131,
        "name" : "枝川三丁目",
        "lon" : 139.80978999999999,
        "lat" : 35.659759999999999
      }
    },
    {
      "type" : "Feature",
      "id" : 132,
      "geometry" : {
        "type" : "Point",
        "coordinates" : [
          139.80979000000002,
          35.659760000000063
        ]
      },
      "properties" : {
        "OBJECTID" : 132,
        "name" : "枝川三丁目",
        "lon" : 139.80978999999999,
        "lat" : 35.659759999999999
      }
    },
    {
      "type" : "Feature",
      "id" : 133,
      "geometry" : {
        "type" : "Point",
        "coordinates" : [
          139.83248000000003,
          35.62874000000005
        ]
      },
      "properties" : {
        "OBJECTID" : 133,
        "name" : "シャシー整理場前",
        "lon" : 139.83248,
        "lat" : 35.628740000000001
      }
    },
    {
      "type" : "Feature",
      "id" : 134,
      "geometry" : {
        "type" : "Point",
        "coordinates" : [
          139.83091000000002,
          35.627520000000061
        ]
      },
      "properties" : {
        "OBJECTID" : 134,
        "name" : "若洲中央",
        "lon" : 139.83090999999999,
        "lat" : 35.627519999999997
      }
    },
    {
      "type" : "Feature",
      "id" : 135,
      "geometry" : {
        "type" : "Point",
        "coordinates" : [
          139.83226000000002,
          35.626540000000034
        ]
      },
      "properties" : {
        "OBJECTID" : 135,
        "name" : "江東倉庫組合前",
        "lon" : 139.83225999999999,
        "lat" : 35.626539999999999
      }
    },
    {
      "type" : "Feature",
      "id" : 136,
      "geometry" : {
        "type" : "Point",
        "coordinates" : [
          139.83357000000001,
          35.624870000000044
        ]
      },
      "properties" : {
        "OBJECTID" : 136,
        "name" : "江東倉庫会館前",
        "lon" : 139.83357000000001,
        "lat" : 35.624870000000001
      }
    },
    {
      "type" : "Feature",
      "id" : 137,
      "geometry" : {
        "type" : "Point",
        "coordinates" : [
          139.83582000000001,
          35.629910000000052
        ]
      },
      "properties" : {
        "OBJECTID" : 137,
        "name" : "若洲ゴルフリンクス前",
        "lon" : 139.83582000000001,
        "lat" : 35.629910000000002
      }
    },
    {
      "type" : "Feature",
      "id" : 138,
      "geometry" : {
        "type" : "Point",
        "coordinates" : [
          139.83450000000005,
          35.619530000000054
        ]
      },
      "properties" : {
        "OBJECTID" : 138,
        "name" : "若洲キャンプ場前",
        "lon" : 139.83449999999999,
        "lat" : 35.619529999999997
      }
    },
    {
      "type" : "Feature",
      "id" : 139,
      "geometry" : {
        "type" : "Point",
        "coordinates" : [
          139.81144000000006,
          35.688950000000034
        ]
      },
      "properties" : {
        "OBJECTID" : 139,
        "name" : "住吉一丁目(東京都)",
        "lon" : 139.81144,
        "lat" : 35.688949999999998
      }
    },
    {
      "type" : "Feature",
      "id" : 140,
      "geometry" : {
        "type" : "Point",
        "coordinates" : [
          139.81144000000006,
          35.688950000000034
        ]
      },
      "properties" : {
        "OBJECTID" : 140,
        "name" : "住吉一丁目(東京都)",
        "lon" : 139.81144,
        "lat" : 35.688949999999998
      }
    },
    {
      "type" : "Feature",
      "id" : 141,
      "geometry" : {
        "type" : "Point",
        "coordinates" : [
          139.81144000000006,
          35.688950000000034
        ]
      },
      "properties" : {
        "OBJECTID" : 141,
        "name" : "住吉一丁目(東京都)",
        "lon" : 139.81144,
        "lat" : 35.688949999999998
      }
    },
    {
      "type" : "Feature",
      "id" : 142,
      "geometry" : {
        "type" : "Point",
        "coordinates" : [
          139.81902000000002,
          35.689120000000059
        ]
      },
      "properties" : {
        "OBJECTID" : 142,
        "name" : "江東公会堂前",
        "lon" : 139.81901999999999,
        "lat" : 35.689120000000003
      }
    },
    {
      "type" : "Feature",
      "id" : 143,
      "geometry" : {
        "type" : "Point",
        "coordinates" : [
          139.8148900000001,
          35.688830000000053
        ]
      },
      "properties" : {
        "OBJECTID" : 143,
        "name" : "住吉駅前(東京都)",
        "lon" : 139.81488999999999,
        "lat" : 35.688830000000003
      }
    },
    {
      "type" : "Feature",
      "id" : 144,
      "geometry" : {
        "type" : "Point",
        "coordinates" : [
          139.8148900000001,
          35.688830000000053
        ]
      },
      "properties" : {
        "OBJECTID" : 144,
        "name" : "住吉駅前(東京都)",
        "lon" : 139.81488999999999,
        "lat" : 35.688830000000003
      }
    },
    {
      "type" : "Feature",
      "id" : 145,
      "geometry" : {
        "type" : "Point",
        "coordinates" : [
          139.8148900000001,
          35.688830000000053
        ]
      },
      "properties" : {
        "OBJECTID" : 145,
        "name" : "住吉駅前(東京都)",
        "lon" : 139.81488999999999,
        "lat" : 35.688830000000003
      }
    },
    {
      "type" : "Feature",
      "id" : 146,
      "geometry" : {
        "type" : "Point",
        "coordinates" : [
          139.8148900000001,
          35.688830000000053
        ]
      },
      "properties" : {
        "OBJECTID" : 146,
        "name" : "住吉駅前(東京都)",
        "lon" : 139.81488999999999,
        "lat" : 35.688830000000003
      }
    },
    {
      "type" : "Feature",
      "id" : 147,
      "geometry" : {
        "type" : "Point",
        "coordinates" : [
          139.8148900000001,
          35.688830000000053
        ]
      },
      "properties" : {
        "OBJECTID" : 147,
        "name" : "住吉駅前(東京都)",
        "lon" : 139.81488999999999,
        "lat" : 35.688830000000003
      }
    },
    {
      "type" : "Feature",
      "id" : 148,
      "geometry" : {
        "type" : "Point",
        "coordinates" : [
          139.8148900000001,
          35.688830000000053
        ]
      },
      "properties" : {
        "OBJECTID" : 148,
        "name" : "住吉駅前(東京都)",
        "lon" : 139.81488999999999,
        "lat" : 35.688830000000003
      }
    },
    {
      "type" : "Feature",
      "id" : 149,
      "geometry" : {
        "type" : "Point",
        "coordinates" : [
          139.8248900000001,
          35.665470000000084
        ]
      },
      "properties" : {
        "OBJECTID" : 149,
        "name" : "新砂二丁目",
        "lon" : 139.82489000000001,
        "lat" : 35.665469999999999
      }
    },
    {
      "type" : "Feature",
      "id" : 150,
      "geometry" : {
        "type" : "Point",
        "coordinates" : [
          139.8248900000001,
          35.665470000000084
        ]
      },
      "properties" : {
        "OBJECTID" : 150,
        "name" : "新砂二丁目",
        "lon" : 139.82489000000001,
        "lat" : 35.665469999999999
      }
    },
    {
      "type" : "Feature",
      "id" : 151,
      "geometry" : {
        "type" : "Point",
        "coordinates" : [
          139.8248900000001,
          35.665470000000084
        ]
      },
      "properties" : {
        "OBJECTID" : 151,
        "name" : "新砂二丁目",
        "lon" : 139.82489000000001,
        "lat" : 35.665469999999999
      }
    },
    {
      "type" : "Feature",
      "id" : 152,
      "geometry" : {
        "type" : "Point",
        "coordinates" : [
          139.8248900000001,
          35.665470000000084
        ]
      },
      "properties" : {
        "OBJECTID" : 152,
        "name" : "新砂二丁目",
        "lon" : 139.82489000000001,
        "lat" : 35.665469999999999
      }
    },
    {
      "type" : "Feature",
      "id" : 153,
      "geometry" : {
        "type" : "Point",
        "coordinates" : [
          139.82401000000004,
          35.658490000000086
        ]
      },
      "properties" : {
        "OBJECTID" : 153,
        "name" : "新砂一丁目",
        "lon" : 139.82400999999999,
        "lat" : 35.65849
      }
    },
    {
      "type" : "Feature",
      "id" : 154,
      "geometry" : {
        "type" : "Point",
        "coordinates" : [
          139.82401000000004,
          35.658490000000086
        ]
      },
      "properties" : {
        "OBJECTID" : 154,
        "name" : "新砂一丁目",
        "lon" : 139.82400999999999,
        "lat" : 35.65849
      }
    },
    {
      "type" : "Feature",
      "id" : 155,
      "geometry" : {
        "type" : "Point",
        "coordinates" : [
          139.82401000000004,
          35.658490000000086
        ]
      },
      "properties" : {
        "OBJECTID" : 155,
        "name" : "新砂一丁目",
        "lon" : 139.82400999999999,
        "lat" : 35.65849
      }
    },
    {
      "type" : "Feature",
      "id" : 156,
      "geometry" : {
        "type" : "Point",
        "coordinates" : [
          139.82401000000004,
          35.658490000000086
        ]
      },
      "properties" : {
        "OBJECTID" : 156,
        "name" : "新砂一丁目",
        "lon" : 139.82400999999999,
        "lat" : 35.65849
      }
    },
    {
      "type" : "Feature",
      "id" : 157,
      "geometry" : {
        "type" : "Point",
        "coordinates" : [
          139.82386000000008,
          35.660540000000083
        ]
      },
      "properties" : {
        "OBJECTID" : 157,
        "name" : "新東京郵便局前",
        "lon" : 139.82386,
        "lat" : 35.660539999999997
      }
    },
    {
      "type" : "Feature",
      "id" : 158,
      "geometry" : {
        "type" : "Point",
        "coordinates" : [
          139.82386000000008,
          35.660540000000083
        ]
      },
      "properties" : {
        "OBJECTID" : 158,
        "name" : "新東京郵便局前",
        "lon" : 139.82386,
        "lat" : 35.660539999999997
      }
    },
    {
      "type" : "Feature",
      "id" : 159,
      "geometry" : {
        "type" : "Point",
        "coordinates" : [
          139.82386000000008,
          35.660540000000083
        ]
      },
      "properties" : {
        "OBJECTID" : 159,
        "name" : "新東京郵便局前",
        "lon" : 139.82386,
        "lat" : 35.660539999999997
      }
    },
    {
      "type" : "Feature",
      "id" : 160,
      "geometry" : {
        "type" : "Point",
        "coordinates" : [
          139.82386000000008,
          35.660540000000083
        ]
      },
      "properties" : {
        "OBJECTID" : 160,
        "name" : "新東京郵便局前",
        "lon" : 139.82386,
        "lat" : 35.660539999999997
      }
    },
    {
      "type" : "Feature",
      "id" : 161,
      "geometry" : {
        "type" : "Point",
        "coordinates" : [
          139.82388000000003,
          35.662710000000061
        ]
      },
      "properties" : {
        "OBJECTID" : 161,
        "name" : "東京地下鉄総合運動場前",
        "lon" : 139.82388,
        "lat" : 35.662709999999997
      }
    },
    {
      "type" : "Feature",
      "id" : 162,
      "geometry" : {
        "type" : "Point",
        "coordinates" : [
          139.82388000000003,
          35.662710000000061
        ]
      },
      "properties" : {
        "OBJECTID" : 162,
        "name" : "東京地下鉄総合運動場前",
        "lon" : 139.82388,
        "lat" : 35.662709999999997
      }
    },
    {
      "type" : "Feature",
      "id" : 163,
      "geometry" : {
        "type" : "Point",
        "coordinates" : [
          139.82388000000003,
          35.662710000000061
        ]
      },
      "properties" : {
        "OBJECTID" : 163,
        "name" : "東京地下鉄総合運動場前",
        "lon" : 139.82388,
        "lat" : 35.662709999999997
      }
    },
    {
      "type" : "Feature",
      "id" : 164,
      "geometry" : {
        "type" : "Point",
        "coordinates" : [
          139.82388000000003,
          35.662710000000061
        ]
      },
      "properties" : {
        "OBJECTID" : 164,
        "name" : "東京地下鉄総合運動場前",
        "lon" : 139.82388,
        "lat" : 35.662709999999997
      }
    },
    {
      "type" : "Feature",
      "id" : 165,
      "geometry" : {
        "type" : "Point",
        "coordinates" : [
          139.83077000000003,
          35.667590000000075
        ]
      },
      "properties" : {
        "OBJECTID" : 165,
        "name" : "南砂町駅入口",
        "lon" : 139.83077,
        "lat" : 35.667589999999997
      }
    },
    {
      "type" : "Feature",
      "id" : 166,
      "geometry" : {
        "type" : "Point",
        "coordinates" : [
          139.83077000000003,
          35.667590000000075
        ]
      },
      "properties" : {
        "OBJECTID" : 166,
        "name" : "南砂町駅入口",
        "lon" : 139.83077,
        "lat" : 35.667589999999997
      }
    },
    {
      "type" : "Feature",
      "id" : 167,
      "geometry" : {
        "type" : "Point",
        "coordinates" : [
          139.83077000000003,
          35.667590000000075
        ]
      },
      "properties" : {
        "OBJECTID" : 167,
        "name" : "南砂町駅入口",
        "lon" : 139.83077,
        "lat" : 35.667589999999997
      }
    },
    {
      "type" : "Feature",
      "id" : 168,
      "geometry" : {
        "type" : "Point",
        "coordinates" : [
          139.83077000000003,
          35.667590000000075
        ]
      },
      "properties" : {
        "OBJECTID" : 168,
        "name" : "南砂町駅入口",
        "lon" : 139.83077,
        "lat" : 35.667589999999997
      }
    },
    {
      "type" : "Feature",
      "id" : 169,
      "geometry" : {
        "type" : "Point",
        "coordinates" : [
          139.83077000000003,
          35.667590000000075
        ]
      },
      "properties" : {
        "OBJECTID" : 169,
        "name" : "南砂町駅入口",
        "lon" : 139.83077,
        "lat" : 35.667589999999997
      }
    },
    {
      "type" : "Feature",
      "id" : 170,
      "geometry" : {
        "type" : "Point",
        "coordinates" : [
          139.83077000000003,
          35.667590000000075
        ]
      },
      "properties" : {
        "OBJECTID" : 170,
        "name" : "南砂町駅入口",
        "lon" : 139.83077,
        "lat" : 35.667589999999997
      }
    },
    {
      "type" : "Feature",
      "id" : 171,
      "geometry" : {
        "type" : "Point",
        "coordinates" : [
          139.83418000000006,
          35.666520000000048
        ]
      },
      "properties" : {
        "OBJECTID" : 171,
        "name" : "江東高齢者医療センター入口",
        "lon" : 139.83418,
        "lat" : 35.666519999999998
      }
    },
    {
      "type" : "Feature",
      "id" : 172,
      "geometry" : {
        "type" : "Point",
        "coordinates" : [
          139.83418000000006,
          35.666520000000048
        ]
      },
      "properties" : {
        "OBJECTID" : 172,
        "name" : "江東高齢者医療センター入口",
        "lon" : 139.83418,
        "lat" : 35.666519999999998
      }
    },
    {
      "type" : "Feature",
      "id" : 173,
      "geometry" : {
        "type" : "Point",
        "coordinates" : [
          139.83418000000006,
          35.666520000000048
        ]
      },
      "properties" : {
        "OBJECTID" : 173,
        "name" : "江東高齢者医療センター入口",
        "lon" : 139.83418,
        "lat" : 35.666519999999998
      }
    },
    {
      "type" : "Feature",
      "id" : 174,
      "geometry" : {
        "type" : "Point",
        "coordinates" : [
          139.83418000000006,
          35.666520000000048
        ]
      },
      "properties" : {
        "OBJECTID" : 174,
        "name" : "江東高齢者医療センター入口",
        "lon" : 139.83418,
        "lat" : 35.666519999999998
      }
    },
    {
      "type" : "Feature",
      "id" : 175,
      "geometry" : {
        "type" : "Point",
        "coordinates" : [
          139.83418000000006,
          35.666520000000048
        ]
      },
      "properties" : {
        "OBJECTID" : 175,
        "name" : "江東高齢者医療センター入口",
        "lon" : 139.83418,
        "lat" : 35.666519999999998
      }
    },
    {
      "type" : "Feature",
      "id" : 176,
      "geometry" : {
        "type" : "Point",
        "coordinates" : [
          139.83362,
          35.664300000000082
        ]
      },
      "properties" : {
        "OBJECTID" : 176,
        "name" : "東部療育センター前",
        "lon" : 139.83362,
        "lat" : 35.664299999999997
      }
    },
    {
      "type" : "Feature",
      "id" : 177,
      "geometry" : {
        "type" : "Point",
        "coordinates" : [
          139.83362,
          35.664300000000082
        ]
      },
      "properties" : {
        "OBJECTID" : 177,
        "name" : "東部療育センター前",
        "lon" : 139.83362,
        "lat" : 35.664299999999997
      }
    },
    {
      "type" : "Feature",
      "id" : 178,
      "geometry" : {
        "type" : "Point",
        "coordinates" : [
          139.83362,
          35.664300000000082
        ]
      },
      "properties" : {
        "OBJECTID" : 178,
        "name" : "東部療育センター前",
        "lon" : 139.83362,
        "lat" : 35.664299999999997
      }
    },
    {
      "type" : "Feature",
      "id" : 179,
      "geometry" : {
        "type" : "Point",
        "coordinates" : [
          139.83392000000003,
          35.666460000000086
        ]
      },
      "properties" : {
        "OBJECTID" : 179,
        "name" : "新砂三丁目アパート",
        "lon" : 139.83392000000001,
        "lat" : 35.666460000000001
      }
    },
    {
      "type" : "Feature",
      "id" : 180,
      "geometry" : {
        "type" : "Point",
        "coordinates" : [
          139.83392000000003,
          35.666460000000086
        ]
      },
      "properties" : {
        "OBJECTID" : 180,
        "name" : "新砂三丁目アパート",
        "lon" : 139.83392000000001,
        "lat" : 35.666460000000001
      }
    },
    {
      "type" : "Feature",
      "id" : 181,
      "geometry" : {
        "type" : "Point",
        "coordinates" : [
          139.83392000000003,
          35.666460000000086
        ]
      },
      "properties" : {
        "OBJECTID" : 181,
        "name" : "新砂三丁目アパート",
        "lon" : 139.83392000000001,
        "lat" : 35.666460000000001
      }
    },
    {
      "type" : "Feature",
      "id" : 182,
      "geometry" : {
        "type" : "Point",
        "coordinates" : [
          139.83392000000003,
          35.666460000000086
        ]
      },
      "properties" : {
        "OBJECTID" : 182,
        "name" : "新砂三丁目アパート",
        "lon" : 139.83392000000001,
        "lat" : 35.666460000000001
      }
    },
    {
      "type" : "Feature",
      "id" : 183,
      "geometry" : {
        "type" : "Point",
        "coordinates" : [
          139.83392000000003,
          35.666460000000086
        ]
      },
      "properties" : {
        "OBJECTID" : 183,
        "name" : "新砂三丁目アパート",
        "lon" : 139.83392000000001,
        "lat" : 35.666460000000001
      }
    },
    {
      "type" : "Feature",
      "id" : 184,
      "geometry" : {
        "type" : "Point",
        "coordinates" : [
          139.83432000000005,
          35.665310000000034
        ]
      },
      "properties" : {
        "OBJECTID" : 184,
        "name" : "江東高齢者医療センター",
        "lon" : 139.83431999999999,
        "lat" : 35.665309999999998
      }
    },
    {
      "type" : "Feature",
      "id" : 185,
      "geometry" : {
        "type" : "Point",
        "coordinates" : [
          139.83432000000005,
          35.665310000000034
        ]
      },
      "properties" : {
        "OBJECTID" : 185,
        "name" : "江東高齢者医療センター",
        "lon" : 139.83431999999999,
        "lat" : 35.665309999999998
      }
    },
    {
      "type" : "Feature",
      "id" : 186,
      "geometry" : {
        "type" : "Point",
        "coordinates" : [
          139.83432000000005,
          35.665310000000034
        ]
      },
      "properties" : {
        "OBJECTID" : 186,
        "name" : "江東高齢者医療センター",
        "lon" : 139.83431999999999,
        "lat" : 35.665309999999998
      }
    },
    {
      "type" : "Feature",
      "id" : 187,
      "geometry" : {
        "type" : "Point",
        "coordinates" : [
          139.83722,
          35.665820000000053
        ]
      },
      "properties" : {
        "OBJECTID" : 187,
        "name" : "清砂大橋西",
        "lon" : 139.83722,
        "lat" : 35.665819999999997
      }
    },
    {
      "type" : "Feature",
      "id" : 188,
      "geometry" : {
        "type" : "Point",
        "coordinates" : [
          139.83722,
          35.665820000000053
        ]
      },
      "properties" : {
        "OBJECTID" : 188,
        "name" : "清砂大橋西",
        "lon" : 139.83722,
        "lat" : 35.665819999999997
      }
    },
    {
      "type" : "Feature",
      "id" : 189,
      "geometry" : {
        "type" : "Point",
        "coordinates" : [
          139.79572000000007,
          35.687980000000039
        ]
      },
      "properties" : {
        "OBJECTID" : 189,
        "name" : "新大橋(東京都)",
        "lon" : 139.79571999999999,
        "lat" : 35.687980000000003
      }
    },
    {
      "type" : "Feature",
      "id" : 190,
      "geometry" : {
        "type" : "Point",
        "coordinates" : [
          139.82544000000007,
          35.645580000000052
        ]
      },
      "properties" : {
        "OBJECTID" : 190,
        "name" : "新木場駅前［明治通り］",
        "lon" : 139.82543999999999,
        "lat" : 35.645580000000002
      }
    },
    {
      "type" : "Feature",
      "id" : 191,
      "geometry" : {
        "type" : "Point",
        "coordinates" : [
          139.82544000000007,
          35.645580000000052
        ]
      },
      "properties" : {
        "OBJECTID" : 191,
        "name" : "新木場駅前［明治通り］",
        "lon" : 139.82543999999999,
        "lat" : 35.645580000000002
      }
    },
    {
      "type" : "Feature",
      "id" : 192,
      "geometry" : {
        "type" : "Point",
        "coordinates" : [
          139.82544000000007,
          35.645580000000052
        ]
      },
      "properties" : {
        "OBJECTID" : 192,
        "name" : "新木場駅前［明治通り］",
        "lon" : 139.82543999999999,
        "lat" : 35.645580000000002
      }
    },
    {
      "type" : "Feature",
      "id" : 193,
      "geometry" : {
        "type" : "Point",
        "coordinates" : [
          139.83579000000009,
          35.644430000000057
        ]
      },
      "properties" : {
        "OBJECTID" : 193,
        "name" : "新木場東",
        "lon" : 139.83579,
        "lat" : 35.64443
      }
    },
    {
      "type" : "Feature",
      "id" : 194,
      "geometry" : {
        "type" : "Point",
        "coordinates" : [
          139.83515,
          35.640060000000062
        ]
      },
      "properties" : {
        "OBJECTID" : 194,
        "name" : "東千石橋",
        "lon" : 139.83515,
        "lat" : 35.640059999999998
      }
    },
    {
      "type" : "Feature",
      "id" : 195,
      "geometry" : {
        "type" : "Point",
        "coordinates" : [
          139.82590000000005,
          35.64543000000009
        ]
      },
      "properties" : {
        "OBJECTID" : 195,
        "name" : "新木場駅前",
        "lon" : 139.82589999999999,
        "lat" : 35.645429999999998
      }
    },
    {
      "type" : "Feature",
      "id" : 196,
      "geometry" : {
        "type" : "Point",
        "coordinates" : [
          139.82590000000005,
          35.64543000000009
        ]
      },
      "properties" : {
        "OBJECTID" : 196,
        "name" : "新木場駅前",
        "lon" : 139.82589999999999,
        "lat" : 35.645429999999998
      }
    },
    {
      "type" : "Feature",
      "id" : 197,
      "geometry" : {
        "type" : "Point",
        "coordinates" : [
          139.82590000000005,
          35.64543000000009
        ]
      },
      "properties" : {
        "OBJECTID" : 197,
        "name" : "新木場駅前",
        "lon" : 139.82589999999999,
        "lat" : 35.645429999999998
      }
    },
    {
      "type" : "Feature",
      "id" : 198,
      "geometry" : {
        "type" : "Point",
        "coordinates" : [
          139.82625000000007,
          35.645330000000058
        ]
      },
      "properties" : {
        "OBJECTID" : 198,
        "name" : "新木場駅",
        "lon" : 139.82624999999999,
        "lat" : 35.645330000000001
      }
    },
    {
      "type" : "Feature",
      "id" : 199,
      "geometry" : {
        "type" : "Point",
        "coordinates" : [
          139.82625000000007,
          35.645330000000058
        ]
      },
      "properties" : {
        "OBJECTID" : 199,
        "name" : "新木場駅",
        "lon" : 139.82624999999999,
        "lat" : 35.645330000000001
      }
    },
    {
      "type" : "Feature",
      "id" : 200,
      "geometry" : {
        "type" : "Point",
        "coordinates" : [
          139.82625000000007,
          35.645330000000058
        ]
      },
      "properties" : {
        "OBJECTID" : 200,
        "name" : "新木場駅",
        "lon" : 139.82624999999999,
        "lat" : 35.645330000000001
      }
    },
    {
      "type" : "Feature",
      "id" : 201,
      "geometry" : {
        "type" : "Point",
        "coordinates" : [
          139.82625000000007,
          35.645330000000058
        ]
      },
      "properties" : {
        "OBJECTID" : 201,
        "name" : "新木場駅",
        "lon" : 139.82624999999999,
        "lat" : 35.645330000000001
      }
    },
    {
      "type" : "Feature",
      "id" : 202,
      "geometry" : {
        "type" : "Point",
        "coordinates" : [
          139.82625000000007,
          35.645330000000058
        ]
      },
      "properties" : {
        "OBJECTID" : 202,
        "name" : "新木場駅",
        "lon" : 139.82624999999999,
        "lat" : 35.645330000000001
      }
    },
    {
      "type" : "Feature",
      "id" : 203,
      "geometry" : {
        "type" : "Point",
        "coordinates" : [
          139.82625000000007,
          35.645330000000058
        ]
      },
      "properties" : {
        "OBJECTID" : 203,
        "name" : "新木場駅",
        "lon" : 139.82624999999999,
        "lat" : 35.645330000000001
      }
    },
    {
      "type" : "Feature",
      "id" : 204,
      "geometry" : {
        "type" : "Point",
        "coordinates" : [
          139.82625000000007,
          35.645330000000058
        ]
      },
      "properties" : {
        "OBJECTID" : 204,
        "name" : "新木場駅",
        "lon" : 139.82624999999999,
        "lat" : 35.645330000000001
      }
    },
    {
      "type" : "Feature",
      "id" : 205,
      "geometry" : {
        "type" : "Point",
        "coordinates" : [
          139.82625000000007,
          35.645330000000058
        ]
      },
      "properties" : {
        "OBJECTID" : 205,
        "name" : "新木場駅",
        "lon" : 139.82624999999999,
        "lat" : 35.645330000000001
      }
    },
    {
      "type" : "Feature",
      "id" : 206,
      "geometry" : {
        "type" : "Point",
        "coordinates" : [
          139.83207000000004,
          35.645300000000077
        ]
      },
      "properties" : {
        "OBJECTID" : 206,
        "name" : "新木場一丁目",
        "lon" : 139.83206999999999,
        "lat" : 35.645299999999999
      }
    },
    {
      "type" : "Feature",
      "id" : 207,
      "geometry" : {
        "type" : "Point",
        "coordinates" : [
          139.82386000000008,
          35.64167000000009
        ]
      },
      "properties" : {
        "OBJECTID" : 207,
        "name" : "新木場埠頭公園前",
        "lon" : 139.82386,
        "lat" : 35.641669999999998
      }
    },
    {
      "type" : "Feature",
      "id" : 208,
      "geometry" : {
        "type" : "Point",
        "coordinates" : [
          139.82332000000008,
          35.635770000000036
        ]
      },
      "properties" : {
        "OBJECTID" : 208,
        "name" : "南千石橋北詰",
        "lon" : 139.82332,
        "lat" : 35.635770000000001
      }
    },
    {
      "type" : "Feature",
      "id" : 209,
      "geometry" : {
        "type" : "Point",
        "coordinates" : [
          139.82309000000009,
          35.637430000000052
        ]
      },
      "properties" : {
        "OBJECTID" : 209,
        "name" : "新木場二丁目",
        "lon" : 139.82309000000001,
        "lat" : 35.637430000000002
      }
    },
    {
      "type" : "Feature",
      "id" : 210,
      "geometry" : {
        "type" : "Point",
        "coordinates" : [
          139.82479000000001,
          35.642270000000053
        ]
      },
      "properties" : {
        "OBJECTID" : 210,
        "name" : "ａｇｅＨａ〔スタジオコースト〕",
        "lon" : 139.82479000000001,
        "lat" : 35.642270000000003
      }
    },
    {
      "type" : "Feature",
      "id" : 211,
      "geometry" : {
        "type" : "Point",
        "coordinates" : [
          139.82486000000006,
          35.632530000000088
        ]
      },
      "properties" : {
        "OBJECTID" : 211,
        "name" : "南千石橋",
        "lon" : 139.82486,
        "lat" : 35.632530000000003
      }
    },
    {
      "type" : "Feature",
      "id" : 212,
      "geometry" : {
        "type" : "Point",
        "coordinates" : [
          139.82914000000005,
          35.632960000000082
        ]
      },
      "properties" : {
        "OBJECTID" : 212,
        "name" : "新木場南",
        "lon" : 139.82914,
        "lat" : 35.632959999999997
      }
    },
    {
      "type" : "Feature",
      "id" : 213,
      "geometry" : {
        "type" : "Point",
        "coordinates" : [
          139.83468000000005,
          35.63468000000006
        ]
      },
      "properties" : {
        "OBJECTID" : 213,
        "name" : "新木場三丁目",
        "lon" : 139.83467999999999,
        "lat" : 35.634680000000003
      }
    },
    {
      "type" : "Feature",
      "id" : 214,
      "geometry" : {
        "type" : "Point",
        "coordinates" : [
          139.83656000000008,
          35.635770000000036
        ]
      },
      "properties" : {
        "OBJECTID" : 214,
        "name" : "東京ヘリポート前",
        "lon" : 139.83655999999999,
        "lat" : 35.635770000000001
      }
    },
    {
      "type" : "Feature",
      "id" : 215,
      "geometry" : {
        "type" : "Point",
        "coordinates" : [
          139.79824000000008,
          35.688110000000052
        ]
      },
      "properties" : {
        "OBJECTID" : 215,
        "name" : "森下駅前(東京都)",
        "lon" : 139.79823999999999,
        "lat" : 35.688110000000002
      }
    },
    {
      "type" : "Feature",
      "id" : 216,
      "geometry" : {
        "type" : "Point",
        "coordinates" : [
          139.79824000000008,
          35.688110000000052
        ]
      },
      "properties" : {
        "OBJECTID" : 216,
        "name" : "森下駅前(東京都)",
        "lon" : 139.79823999999999,
        "lat" : 35.688110000000002
      }
    },
    {
      "type" : "Feature",
      "id" : 217,
      "geometry" : {
        "type" : "Point",
        "coordinates" : [
          139.79824000000008,
          35.688110000000052
        ]
      },
      "properties" : {
        "OBJECTID" : 217,
        "name" : "森下駅前(東京都)",
        "lon" : 139.79823999999999,
        "lat" : 35.688110000000002
      }
    },
    {
      "type" : "Feature",
      "id" : 218,
      "geometry" : {
        "type" : "Point",
        "coordinates" : [
          139.80214000000001,
          35.68823000000009
        ]
      },
      "properties" : {
        "OBJECTID" : 218,
        "name" : "菊川一丁目(東京都)",
        "lon" : 139.80214000000001,
        "lat" : 35.688229999999997
      }
    },
    {
      "type" : "Feature",
      "id" : 219,
      "geometry" : {
        "type" : "Point",
        "coordinates" : [
          139.80630000000008,
          35.685290000000066
        ]
      },
      "properties" : {
        "OBJECTID" : 219,
        "name" : "森下五丁目",
        "lon" : 139.80629999999999,
        "lat" : 35.685290000000002
      }
    },
    {
      "type" : "Feature",
      "id" : 220,
      "geometry" : {
        "type" : "Point",
        "coordinates" : [
          139.80630000000008,
          35.685290000000066
        ]
      },
      "properties" : {
        "OBJECTID" : 220,
        "name" : "森下五丁目",
        "lon" : 139.80629999999999,
        "lat" : 35.685290000000002
      }
    },
    {
      "type" : "Feature",
      "id" : 221,
      "geometry" : {
        "type" : "Point",
        "coordinates" : [
          139.79604000000006,
          35.673930000000041
        ]
      },
      "properties" : {
        "OBJECTID" : 221,
        "name" : "門前仲町二丁目",
        "lon" : 139.79604,
        "lat" : 35.673929999999999
      }
    },
    {
      "type" : "Feature",
      "id" : 222,
      "geometry" : {
        "type" : "Point",
        "coordinates" : [
          139.79730000000006,
          35.675130000000081
        ]
      },
      "properties" : {
        "OBJECTID" : 222,
        "name" : "深川一丁目",
        "lon" : 139.79730000000001,
        "lat" : 35.675130000000003
      }
    },
    {
      "type" : "Feature",
      "id" : 223,
      "geometry" : {
        "type" : "Point",
        "coordinates" : [
          139.79730000000006,
          35.675130000000081
        ]
      },
      "properties" : {
        "OBJECTID" : 223,
        "name" : "深川一丁目",
        "lon" : 139.79730000000001,
        "lat" : 35.675130000000003
      }
    },
    {
      "type" : "Feature",
      "id" : 224,
      "geometry" : {
        "type" : "Point",
        "coordinates" : [
          139.79511000000002,
          35.681830000000048
        ]
      },
      "properties" : {
        "OBJECTID" : 224,
        "name" : "清澄一丁目",
        "lon" : 139.79510999999999,
        "lat" : 35.681829999999998
      }
    },
    {
      "type" : "Feature",
      "id" : 225,
      "geometry" : {
        "type" : "Point",
        "coordinates" : [
          139.79853000000003,
          35.682030000000054
        ]
      },
      "properties" : {
        "OBJECTID" : 225,
        "name" : "清澄白河駅前",
        "lon" : 139.79853,
        "lat" : 35.682029999999997
      }
    },
    {
      "type" : "Feature",
      "id" : 226,
      "geometry" : {
        "type" : "Point",
        "coordinates" : [
          139.79853000000003,
          35.682030000000054
        ]
      },
      "properties" : {
        "OBJECTID" : 226,
        "name" : "清澄白河駅前",
        "lon" : 139.79853,
        "lat" : 35.682029999999997
      }
    },
    {
      "type" : "Feature",
      "id" : 227,
      "geometry" : {
        "type" : "Point",
        "coordinates" : [
          139.77936,
          35.627110000000073
        ]
      },
      "properties" : {
        "OBJECTID" : 227,
        "name" : "東京テレポート駅前",
        "lon" : 139.77936,
        "lat" : 35.627110000000002
      }
    },
    {
      "type" : "Feature",
      "id" : 228,
      "geometry" : {
        "type" : "Point",
        "coordinates" : [
          139.77936,
          35.627110000000073
        ]
      },
      "properties" : {
        "OBJECTID" : 228,
        "name" : "東京テレポート駅前",
        "lon" : 139.77936,
        "lat" : 35.627110000000002
      }
    },
    {
      "type" : "Feature",
      "id" : 229,
      "geometry" : {
        "type" : "Point",
        "coordinates" : [
          139.77936,
          35.627110000000073
        ]
      },
      "properties" : {
        "OBJECTID" : 229,
        "name" : "東京テレポート駅前",
        "lon" : 139.77936,
        "lat" : 35.627110000000002
      }
    },
    {
      "type" : "Feature",
      "id" : 230,
      "geometry" : {
        "type" : "Point",
        "coordinates" : [
          139.77936,
          35.627110000000073
        ]
      },
      "properties" : {
        "OBJECTID" : 230,
        "name" : "東京テレポート駅前",
        "lon" : 139.77936,
        "lat" : 35.627110000000002
      }
    },
    {
      "type" : "Feature",
      "id" : 231,
      "geometry" : {
        "type" : "Point",
        "coordinates" : [
          139.77936,
          35.627130000000079
        ]
      },
      "properties" : {
        "OBJECTID" : 231,
        "name" : "東京テレポート駅",
        "lon" : 139.77936,
        "lat" : 35.627130000000001
      }
    },
    {
      "type" : "Feature",
      "id" : 232,
      "geometry" : {
        "type" : "Point",
        "coordinates" : [
          139.77936,
          35.627130000000079
        ]
      },
      "properties" : {
        "OBJECTID" : 232,
        "name" : "東京テレポート駅",
        "lon" : 139.77936,
        "lat" : 35.627130000000001
      }
    },
    {
      "type" : "Feature",
      "id" : 233,
      "geometry" : {
        "type" : "Point",
        "coordinates" : [
          139.77936,
          35.627130000000079
        ]
      },
      "properties" : {
        "OBJECTID" : 233,
        "name" : "東京テレポート駅",
        "lon" : 139.77936,
        "lat" : 35.627130000000001
      }
    },
    {
      "type" : "Feature",
      "id" : 234,
      "geometry" : {
        "type" : "Point",
        "coordinates" : [
          139.77936,
          35.627130000000079
        ]
      },
      "properties" : {
        "OBJECTID" : 234,
        "name" : "東京テレポート駅",
        "lon" : 139.77936,
        "lat" : 35.627130000000001
      }
    },
    {
      "type" : "Feature",
      "id" : 235,
      "geometry" : {
        "type" : "Point",
        "coordinates" : [
          139.77936,
          35.627130000000079
        ]
      },
      "properties" : {
        "OBJECTID" : 235,
        "name" : "東京テレポート駅",
        "lon" : 139.77936,
        "lat" : 35.627130000000001
      }
    },
    {
      "type" : "Feature",
      "id" : 236,
      "geometry" : {
        "type" : "Point",
        "coordinates" : [
          139.77936,
          35.627130000000079
        ]
      },
      "properties" : {
        "OBJECTID" : 236,
        "name" : "東京テレポート駅",
        "lon" : 139.77936,
        "lat" : 35.627130000000001
      }
    },
    {
      "type" : "Feature",
      "id" : 237,
      "geometry" : {
        "type" : "Point",
        "coordinates" : [
          139.77936,
          35.627130000000079
        ]
      },
      "properties" : {
        "OBJECTID" : 237,
        "name" : "東京テレポート駅",
        "lon" : 139.77936,
        "lat" : 35.627130000000001
      }
    },
    {
      "type" : "Feature",
      "id" : 238,
      "geometry" : {
        "type" : "Point",
        "coordinates" : [
          139.77936,
          35.627130000000079
        ]
      },
      "properties" : {
        "OBJECTID" : 238,
        "name" : "東京テレポート駅",
        "lon" : 139.77936,
        "lat" : 35.627130000000001
      }
    },
    {
      "type" : "Feature",
      "id" : 239,
      "geometry" : {
        "type" : "Point",
        "coordinates" : [
          139.77936,
          35.627130000000079
        ]
      },
      "properties" : {
        "OBJECTID" : 239,
        "name" : "東京テレポート駅",
        "lon" : 139.77936,
        "lat" : 35.627130000000001
      }
    },
    {
      "type" : "Feature",
      "id" : 240,
      "geometry" : {
        "type" : "Point",
        "coordinates" : [
          139.77936,
          35.627130000000079
        ]
      },
      "properties" : {
        "OBJECTID" : 240,
        "name" : "東京テレポート駅",
        "lon" : 139.77936,
        "lat" : 35.627130000000001
      }
    },
    {
      "type" : "Feature",
      "id" : 241,
      "geometry" : {
        "type" : "Point",
        "coordinates" : [
          139.77936,
          35.627130000000079
        ]
      },
      "properties" : {
        "OBJECTID" : 241,
        "name" : "東京テレポート駅",
        "lon" : 139.77936,
        "lat" : 35.627130000000001
      }
    },
    {
      "type" : "Feature",
      "id" : 242,
      "geometry" : {
        "type" : "Point",
        "coordinates" : [
          139.77936,
          35.627130000000079
        ]
      },
      "properties" : {
        "OBJECTID" : 242,
        "name" : "東京テレポート駅",
        "lon" : 139.77936,
        "lat" : 35.627130000000001
      }
    },
    {
      "type" : "Feature",
      "id" : 243,
      "geometry" : {
        "type" : "Point",
        "coordinates" : [
          139.78144000000009,
          35.624850000000038
        ]
      },
      "properties" : {
        "OBJECTID" : 243,
        "name" : "パレットタウン前",
        "lon" : 139.78144,
        "lat" : 35.624850000000002
      }
    },
    {
      "type" : "Feature",
      "id" : 244,
      "geometry" : {
        "type" : "Point",
        "coordinates" : [
          139.78144000000009,
          35.624850000000038
        ]
      },
      "properties" : {
        "OBJECTID" : 244,
        "name" : "パレットタウン前",
        "lon" : 139.78144,
        "lat" : 35.624850000000002
      }
    },
    {
      "type" : "Feature",
      "id" : 245,
      "geometry" : {
        "type" : "Point",
        "coordinates" : [
          139.78144000000009,
          35.624850000000038
        ]
      },
      "properties" : {
        "OBJECTID" : 245,
        "name" : "パレットタウン前",
        "lon" : 139.78144,
        "lat" : 35.624850000000002
      }
    },
    {
      "type" : "Feature",
      "id" : 246,
      "geometry" : {
        "type" : "Point",
        "coordinates" : [
          139.78024000000005,
          35.624410000000069
        ]
      },
      "properties" : {
        "OBJECTID" : 246,
        "name" : "ヴィーナスフォート［パレットタウン］",
        "lon" : 139.78023999999999,
        "lat" : 35.624409999999997
      }
    },
    {
      "type" : "Feature",
      "id" : 247,
      "geometry" : {
        "type" : "Point",
        "coordinates" : [
          139.77489000000003,
          35.621130000000051
        ]
      },
      "properties" : {
        "OBJECTID" : 247,
        "name" : "東京国際クルーズターミナル駅前",
        "lon" : 139.77489,
        "lat" : 35.621130000000001
      }
    },
    {
      "type" : "Feature",
      "id" : 248,
      "geometry" : {
        "type" : "Point",
        "coordinates" : [
          139.77489000000003,
          35.621130000000051
        ]
      },
      "properties" : {
        "OBJECTID" : 248,
        "name" : "東京国際クルーズターミナル駅前",
        "lon" : 139.77489,
        "lat" : 35.621130000000001
      }
    },
    {
      "type" : "Feature",
      "id" : 249,
      "geometry" : {
        "type" : "Point",
        "coordinates" : [
          139.77489000000003,
          35.621130000000051
        ]
      },
      "properties" : {
        "OBJECTID" : 249,
        "name" : "東京国際クルーズターミナル駅前",
        "lon" : 139.77489,
        "lat" : 35.621130000000001
      }
    },
    {
      "type" : "Feature",
      "id" : 250,
      "geometry" : {
        "type" : "Point",
        "coordinates" : [
          139.77489000000003,
          35.621130000000051
        ]
      },
      "properties" : {
        "OBJECTID" : 250,
        "name" : "東京国際クルーズターミナル駅前",
        "lon" : 139.77489,
        "lat" : 35.621130000000001
      }
    },
    {
      "type" : "Feature",
      "id" : 251,
      "geometry" : {
        "type" : "Point",
        "coordinates" : [
          139.77489000000003,
          35.621130000000051
        ]
      },
      "properties" : {
        "OBJECTID" : 251,
        "name" : "東京国際クルーズターミナル駅前",
        "lon" : 139.77489,
        "lat" : 35.621130000000001
      }
    },
    {
      "type" : "Feature",
      "id" : 252,
      "geometry" : {
        "type" : "Point",
        "coordinates" : [
          139.77489000000003,
          35.621130000000051
        ]
      },
      "properties" : {
        "OBJECTID" : 252,
        "name" : "東京国際クルーズターミナル駅前",
        "lon" : 139.77489,
        "lat" : 35.621130000000001
      }
    },
    {
      "type" : "Feature",
      "id" : 253,
      "geometry" : {
        "type" : "Point",
        "coordinates" : [
          139.77489000000003,
          35.621130000000051
        ]
      },
      "properties" : {
        "OBJECTID" : 253,
        "name" : "東京国際クルーズターミナル駅前",
        "lon" : 139.77489,
        "lat" : 35.621130000000001
      }
    },
    {
      "type" : "Feature",
      "id" : 254,
      "geometry" : {
        "type" : "Point",
        "coordinates" : [
          139.77489000000003,
          35.621130000000051
        ]
      },
      "properties" : {
        "OBJECTID" : 254,
        "name" : "東京国際クルーズターミナル駅前",
        "lon" : 139.77489,
        "lat" : 35.621130000000001
      }
    },
    {
      "type" : "Feature",
      "id" : 255,
      "geometry" : {
        "type" : "Point",
        "coordinates" : [
          139.77700000000004,
          35.620530000000088
        ]
      },
      "properties" : {
        "OBJECTID" : 255,
        "name" : "シンボルプロムナード公園前",
        "lon" : 139.77699999999999,
        "lat" : 35.620530000000002
      }
    },
    {
      "type" : "Feature",
      "id" : 256,
      "geometry" : {
        "type" : "Point",
        "coordinates" : [
          139.77524000000005,
          35.619070000000079
        ]
      },
      "properties" : {
        "OBJECTID" : 256,
        "name" : "日本科学未来館前",
        "lon" : 139.77524,
        "lat" : 35.619070000000001
      }
    },
    {
      "type" : "Feature",
      "id" : 257,
      "geometry" : {
        "type" : "Point",
        "coordinates" : [
          139.77524000000005,
          35.619070000000079
        ]
      },
      "properties" : {
        "OBJECTID" : 257,
        "name" : "日本科学未来館前",
        "lon" : 139.77524,
        "lat" : 35.619070000000001
      }
    },
    {
      "type" : "Feature",
      "id" : 258,
      "geometry" : {
        "type" : "Point",
        "coordinates" : [
          139.77524000000005,
          35.619070000000079
        ]
      },
      "properties" : {
        "OBJECTID" : 258,
        "name" : "日本科学未来館前",
        "lon" : 139.77524,
        "lat" : 35.619070000000001
      }
    },
    {
      "type" : "Feature",
      "id" : 259,
      "geometry" : {
        "type" : "Point",
        "coordinates" : [
          139.77524000000005,
          35.619070000000079
        ]
      },
      "properties" : {
        "OBJECTID" : 259,
        "name" : "日本科学未来館前",
        "lon" : 139.77524,
        "lat" : 35.619070000000001
      }
    },
    {
      "type" : "Feature",
      "id" : 260,
      "geometry" : {
        "type" : "Point",
        "coordinates" : [
          139.77625,
          35.619390000000067
        ]
      },
      "properties" : {
        "OBJECTID" : 260,
        "name" : "日本科学未来館",
        "lon" : 139.77625,
        "lat" : 35.619390000000003
      }
    },
    {
      "type" : "Feature",
      "id" : 261,
      "geometry" : {
        "type" : "Point",
        "coordinates" : [
          139.77625,
          35.619390000000067
        ]
      },
      "properties" : {
        "OBJECTID" : 261,
        "name" : "日本科学未来館",
        "lon" : 139.77625,
        "lat" : 35.619390000000003
      }
    },
    {
      "type" : "Feature",
      "id" : 262,
      "geometry" : {
        "type" : "Point",
        "coordinates" : [
          139.7788700000001,
          35.617460000000051
        ]
      },
      "properties" : {
        "OBJECTID" : 262,
        "name" : "テレコムセンター駅前",
        "lon" : 139.77887000000001,
        "lat" : 35.617460000000001
      }
    },
    {
      "type" : "Feature",
      "id" : 263,
      "geometry" : {
        "type" : "Point",
        "coordinates" : [
          139.7788700000001,
          35.617460000000051
        ]
      },
      "properties" : {
        "OBJECTID" : 263,
        "name" : "テレコムセンター駅前",
        "lon" : 139.77887000000001,
        "lat" : 35.617460000000001
      }
    },
    {
      "type" : "Feature",
      "id" : 264,
      "geometry" : {
        "type" : "Point",
        "coordinates" : [
          139.7788700000001,
          35.617460000000051
        ]
      },
      "properties" : {
        "OBJECTID" : 264,
        "name" : "テレコムセンター駅前",
        "lon" : 139.77887000000001,
        "lat" : 35.617460000000001
      }
    },
    {
      "type" : "Feature",
      "id" : 265,
      "geometry" : {
        "type" : "Point",
        "coordinates" : [
          139.7788700000001,
          35.617460000000051
        ]
      },
      "properties" : {
        "OBJECTID" : 265,
        "name" : "テレコムセンター駅前",
        "lon" : 139.77887000000001,
        "lat" : 35.617460000000001
      }
    },
    {
      "type" : "Feature",
      "id" : 266,
      "geometry" : {
        "type" : "Point",
        "coordinates" : [
          139.7788700000001,
          35.617460000000051
        ]
      },
      "properties" : {
        "OBJECTID" : 266,
        "name" : "テレコムセンター駅前",
        "lon" : 139.77887000000001,
        "lat" : 35.617460000000001
      }
    },
    {
      "type" : "Feature",
      "id" : 267,
      "geometry" : {
        "type" : "Point",
        "coordinates" : [
          139.7788700000001,
          35.617460000000051
        ]
      },
      "properties" : {
        "OBJECTID" : 267,
        "name" : "テレコムセンター駅前",
        "lon" : 139.77887000000001,
        "lat" : 35.617460000000001
      }
    },
    {
      "type" : "Feature",
      "id" : 268,
      "geometry" : {
        "type" : "Point",
        "coordinates" : [
          139.7788700000001,
          35.617460000000051
        ]
      },
      "properties" : {
        "OBJECTID" : 268,
        "name" : "テレコムセンター駅前",
        "lon" : 139.77887000000001,
        "lat" : 35.617460000000001
      }
    },
    {
      "type" : "Feature",
      "id" : 269,
      "geometry" : {
        "type" : "Point",
        "coordinates" : [
          139.7788700000001,
          35.617460000000051
        ]
      },
      "properties" : {
        "OBJECTID" : 269,
        "name" : "テレコムセンター駅前",
        "lon" : 139.77887000000001,
        "lat" : 35.617460000000001
      }
    },
    {
      "type" : "Feature",
      "id" : 270,
      "geometry" : {
        "type" : "Point",
        "coordinates" : [
          139.77640000000008,
          35.617510000000038
        ]
      },
      "properties" : {
        "OBJECTID" : 270,
        "name" : "東京港湾合同庁舎前",
        "lon" : 139.7764,
        "lat" : 35.617510000000003
      }
    },
    {
      "type" : "Feature",
      "id" : 271,
      "geometry" : {
        "type" : "Point",
        "coordinates" : [
          139.77640000000008,
          35.617510000000038
        ]
      },
      "properties" : {
        "OBJECTID" : 271,
        "name" : "東京港湾合同庁舎前",
        "lon" : 139.7764,
        "lat" : 35.617510000000003
      }
    },
    {
      "type" : "Feature",
      "id" : 272,
      "geometry" : {
        "type" : "Point",
        "coordinates" : [
          139.77640000000008,
          35.617510000000038
        ]
      },
      "properties" : {
        "OBJECTID" : 272,
        "name" : "東京港湾合同庁舎前",
        "lon" : 139.7764,
        "lat" : 35.617510000000003
      }
    },
    {
      "type" : "Feature",
      "id" : 273,
      "geometry" : {
        "type" : "Point",
        "coordinates" : [
          139.77640000000008,
          35.617510000000038
        ]
      },
      "properties" : {
        "OBJECTID" : 273,
        "name" : "東京港湾合同庁舎前",
        "lon" : 139.7764,
        "lat" : 35.617510000000003
      }
    },
    {
      "type" : "Feature",
      "id" : 274,
      "geometry" : {
        "type" : "Point",
        "coordinates" : [
          139.77640000000008,
          35.617510000000038
        ]
      },
      "properties" : {
        "OBJECTID" : 274,
        "name" : "東京港湾合同庁舎前",
        "lon" : 139.7764,
        "lat" : 35.617510000000003
      }
    },
    {
      "type" : "Feature",
      "id" : 275,
      "geometry" : {
        "type" : "Point",
        "coordinates" : [
          139.77640000000008,
          35.617510000000038
        ]
      },
      "properties" : {
        "OBJECTID" : 275,
        "name" : "東京港湾合同庁舎前",
        "lon" : 139.7764,
        "lat" : 35.617510000000003
      }
    },
    {
      "type" : "Feature",
      "id" : 276,
      "geometry" : {
        "type" : "Point",
        "coordinates" : [
          139.77640000000008,
          35.617510000000038
        ]
      },
      "properties" : {
        "OBJECTID" : 276,
        "name" : "東京港湾合同庁舎前",
        "lon" : 139.7764,
        "lat" : 35.617510000000003
      }
    },
    {
      "type" : "Feature",
      "id" : 277,
      "geometry" : {
        "type" : "Point",
        "coordinates" : [
          139.77780000000007,
          35.616210000000081
        ]
      },
      "properties" : {
        "OBJECTID" : 277,
        "name" : "大江戸温泉物語(東京都)",
        "lon" : 139.77780000000001,
        "lat" : 35.616210000000002
      }
    },
    {
      "type" : "Feature",
      "id" : 278,
      "geometry" : {
        "type" : "Point",
        "coordinates" : [
          139.77780000000007,
          35.616210000000081
        ]
      },
      "properties" : {
        "OBJECTID" : 278,
        "name" : "大江戸温泉物語(東京都)",
        "lon" : 139.77780000000001,
        "lat" : 35.616210000000002
      }
    },
    {
      "type" : "Feature",
      "id" : 279,
      "geometry" : {
        "type" : "Point",
        "coordinates" : [
          139.78164000000004,
          35.617760000000089
        ]
      },
      "properties" : {
        "OBJECTID" : 279,
        "name" : "青海二丁目",
        "lon" : 139.78164000000001,
        "lat" : 35.617759999999997
      }
    },
    {
      "type" : "Feature",
      "id" : 280,
      "geometry" : {
        "type" : "Point",
        "coordinates" : [
          139.8115600000001,
          35.680800000000033
        ]
      },
      "properties" : {
        "OBJECTID" : 280,
        "name" : "石島",
        "lon" : 139.81155999999999,
        "lat" : 35.680799999999998
      }
    },
    {
      "type" : "Feature",
      "id" : 281,
      "geometry" : {
        "type" : "Point",
        "coordinates" : [
          139.81190000000004,
          35.678270000000055
        ]
      },