{
  "type" : "FeatureCollection",
  "features" : [
    {
      "type" : "Feature",
      "id" : 1,
      "geometry" : {
        "type" : "Point",
        "coordinates" : [
          139.7369470000001,
          35.622728000000052
        ]
      },
      "properties" : {
        "OBJECTID" : 1,
        "name" : "Tokyo Marriott Hotel",
        "lon" : 139.73694699999999,
        "lat" : 35.622728000000002
      }
    },
    {
      "type" : "Feature",
      "id" : 2,
      "geometry" : {
        "type" : "Point",
        "coordinates" : [
          139.7141160000001,
          35.63681100000008
        ]
      },
      "properties" : {
        "OBJECTID" : 2,
        "name" : "Hotel Princess Garden",
        "lon" : 139.71411599999999,
        "lat" : 35.636811000000002
      }
    },
    {
      "type" : "Feature",
      "id" : 3,
      "geometry" : {
        "type" : "Point",
        "coordinates" : [
          139.75024200000007,
          35.623328000000072
        ]
      },
      "properties" : {
        "OBJECTID" : 3,
        "name" : "Daiichi Hotel Tokyo Seafort",
        "lon" : 139.75024199999999,
        "lat" : 35.623328000000001
      }
    },
    {
      "type" : "Feature",
      "id" : 4,
      "geometry" : {
        "type" : "Point",
        "coordinates" : [
          139.72411800000009,
          35.626185000000078
        ]
      },
      "properties" : {
        "OBJECTID" : 4,
        "name" : "JR-EAST HOTEL METS GOTANDA",
        "lon" : 139.724118,
        "lat" : 35.626185
      }
    },
    {
      "type" : "Feature",
      "id" : 5,
      "geometry" : {
        "type" : "Point",
        "coordinates" : [
          139.73250800000005,
          35.590731000000062
        ]
      },
      "properties" : {
        "OBJECTID" : 5,
        "name" : "HOTEL MYSTAYS PREMIER Omori",
        "lon" : 139.732508,
        "lat" : 35.590730999999998
      }
    },
    {
      "type" : "Feature",
      "id" : 6,
      "geometry" : {
        "type" : "Point",
        "coordinates" : [
          139.72515600000008,
          35.625021000000061
        ]
      },
      "properties" : {
        "OBJECTID" : 6,
        "name" : "Mitsui Garden Hotel Gotanda",
        "lon" : 139.725156,
        "lat" : 35.625020999999997
      }
    },
    {
      "type" : "Feature",
      "id" : 7,
      "geometry" : {
        "type" : "Point",
        "coordinates" : [
          139.73752200000001,
          35.613288000000068
        ]
      },
      "properties" : {
        "OBJECTID" : 7,
        "name" : "Convertel Minami-Shinagawa",
        "lon" : 139.73752200000001,
        "lat" : 35.613287999999997
      }
    },
    {
      "type" : "Feature",
      "id" : 8,
      "geometry" : {
        "type" : "Point",
        "coordinates" : [
          139.72288900000001,
          35.626322000000073
        ]
      },
      "properties" : {
        "OBJECTID" : 8,
        "name" : "Hotel MyStays Gotanda Station",
        "lon" : 139.72288900000001,
        "lat" : 35.626322000000002
      }
    },
    {
      "type" : "Feature",
      "id" : 9,
      "geometry" : {
        "type" : "Point",
        "coordinates" : [
          139.7491030000001,
          35.608804000000077
        ]
      },
      "properties" : {
        "OBJECTID" : 9,
        "name" : "SOTETSU GRAND FRESA Shinagawa Seaside",
        "lon" : 139.74910299999999,
        "lat" : 35.608803999999999
      }
    },
    {
      "type" : "Feature",
      "id" : 10,
      "geometry" : {
        "type" : "Point",
        "coordinates" : [
          139.72524800000008,
          35.626558000000045
        ]
      },
      "properties" : {
        "OBJECTID" : 10,
        "name" : "Hotel Bix - Adult only",
        "lon" : 139.72524799999999,
        "lat" : 35.626558000000003
      }
    },
    {
      "type" : "Feature",
      "id" : 11,
      "geometry" : {
        "type" : "Point",
        "coordinates" : [
          139.73839400000008,
          35.597913000000062
        ]
      },
      "properties" : {
        "OBJECTID" : 11,
        "name" : "Shinagawa family hotel in Tokyo",
        "lon" : 139.738394,
        "lat" : 35.597912999999998
      }
    },
    {
      "type" : "Feature",
      "id" : 12,
      "geometry" : {
        "type" : "Point",
        "coordinates" : [
          139.73279100000002,
          35.604318000000035
        ]
      },
      "properties" : {
        "OBJECTID" : 12,
        "name" : "eos HOTEL Oimachi",
        "lon" : 139.73279099999999,
        "lat" : 35.604317999999999
      }
    },
    {
      "type" : "Feature",
      "id" : 13,
      "geometry" : {
        "type" : "Point",
        "coordinates" : [
          139.74142000000006,
          35.617660000000058
        ]
      },
      "properties" : {
        "OBJECTID" : 13,
        "name" : "Keikyu EX Inn Shinagawa Shimbamba",
        "lon" : 139.74142000000001,
        "lat" : 35.617660000000001
      }
    },
    {
      "type" : "Feature",
      "id" : 14,
      "geometry" : {
        "type" : "Point",
        "coordinates" : [
          139.74276000000009,
          35.609530000000063
        ]
      },
      "properties" : {
        "OBJECTID" : 14,
        "name" : "Toyoko Inn Tokyo Shinagawa Aomono-yokocho-eki",
        "lon" : 139.74276,
        "lat" : 35.609529999999999
      }
    },
    {
      "type" : "Feature",
      "id" : 15,
      "geometry" : {
        "type" : "Point",
        "coordinates" : [
          139.73795700000005,
          35.614457000000073
        ]
      },
      "properties" : {
        "OBJECTID" : 15,
        "name" : "Espoir Minami-Shinagawa",
        "lon" : 139.73795699999999,
        "lat" : 35.614457000000002
      }
    },
    {
      "type" : "Feature",
      "id" : 16,
      "geometry" : {
        "type" : "Point",
        "coordinates" : [
          139.70282000000009,
          35.60439000000008
        ]
      },
      "properties" : {
        "OBJECTID" : 16,
        "name" : "Toyoko Inn Tokyo Shinagawa Hatanodai-eki Minami-guchi",
        "lon" : 139.70282,
        "lat" : 35.604390000000002
      }
    },
    {
      "type" : "Feature",
      "id" : 17,
      "geometry" : {
        "type" : "Point",
        "coordinates" : [
          139.73162000000002,
          35.606200000000058
        ]
      },
      "properties" : {
        "OBJECTID" : 17,
        "name" : "Toyoko Inn Tokyo Shinagawa Oimachi",
        "lon" : 139.73161999999999,
        "lat" : 35.606200000000001
      }
    },
    {
      "type" : "Feature",
      "id" : 18,
      "geometry" : {
        "type" : "Point",
        "coordinates" : [
          139.74421900000004,
          35.617444000000035
        ]
      },
      "properties" : {
        "OBJECTID" : 18,
        "name" : "Super Hotel Shinagawa Shimbamba",
        "lon" : 139.74421899999999,
        "lat" : 35.617443999999999
      }
    },
    {
      "type" : "Feature",
      "id" : 19,
      "geometry" : {
        "type" : "Point",
        "coordinates" : [
          139.72374200000002,
          35.614075000000071
        ]
      },
      "properties" : {
        "OBJECTID" : 19,
        "name" : "Togoshiginza Residence 201",
        "lon" : 139.72374199999999,
        "lat" : 35.614075
      }
    },
    {
      "type" : "Feature",
      "id" : 20,
      "geometry" : {
        "type" : "Point",
        "coordinates" : [
          139.72088400000007,
          35.626459000000068
        ]
      },
      "properties" : {
        "OBJECTID" : 20,
        "name" : "Keio Presso Inn Gotanda",
        "lon" : 139.72088400000001,
        "lat" : 35.626458999999997
      }
    },
    {
      "type" : "Feature",
      "id" : 21,
      "geometry" : {
        "type" : "Point",
        "coordinates" : [
          139.74781400000006,
          35.606598000000076
        ]
      },
      "properties" : {
        "OBJECTID" : 21,
        "name" : "wires hotel shinagawa seaside",
        "lon" : 139.74781400000001,
        "lat" : 35.606597999999998
      }
    },
    {
      "type" : "Feature",
      "id" : 22,
      "geometry" : {
        "type" : "Point",
        "coordinates" : [
          139.74867200000006,
          35.621895000000052
        ]
      },
      "properties" : {
        "OBJECTID" : 22,
        "name" : "Toyoko Inn Tokyo Shinagawa Konan-guchi Tennozu Isle",
        "lon" : 139.748672,
        "lat" : 35.621895000000002
      }
    },
    {
      "type" : "Feature",
      "id" : 23,
      "geometry" : {
        "type" : "Point",
        "coordinates" : [
          139.71458500000006,
          35.610577000000035
        ]
      },
      "properties" : {
        "OBJECTID" : 23,
        "name" : "Plum Ark Oriental Hotel 203",
        "lon" : 139.714585,
        "lat" : 35.610576999999999
      }
    },
    {
      "type" : "Feature",
      "id" : 24,
      "geometry" : {
        "type" : "Point",
        "coordinates" : [
          139.71458500000006,
          35.610577000000035
        ]
      },
      "properties" : {
        "OBJECTID" : 24,
        "name" : "Plum Ark Oriental Hotel 402",
        "lon" : 139.714585,
        "lat" : 35.610576999999999
      }
    },
    {
      "type" : "Feature",
      "id" : 25,
      "geometry" : {
        "type" : "Point",
        "coordinates" : [
          139.73828000000003,
          35.614715000000047
        ]
      },
      "properties" : {
        "OBJECTID" : 25,
        "name" : "MG103 Cozy and clean room SHINAGAWA",
        "lon" : 139.73828,
        "lat" : 35.614714999999997
      }
    },
    {
      "type" : "Feature",
      "id" : 26,
      "geometry" : {
        "type" : "Point",
        "coordinates" : [
          139.72595000000001,
          35.626850000000047
        ]
      },
      "properties" : {
        "OBJECTID" : 26,
        "name" : "Hills Hotel Gotanda",
        "lon" : 139.72595000000001,
        "lat" : 35.626849999999997
      }
    },
    {
      "type" : "Feature",
      "id" : 27,
      "geometry" : {
        "type" : "Point",
        "coordinates" : [
          139.74445600000001,
          35.619466000000045
        ]
      },
      "properties" : {
        "OBJECTID" : 27,
        "name" : "Masuda House",
        "lon" : 139.74445600000001,
        "lat" : 35.619466000000003
      }
    },
    {
      "type" : "Feature",
      "id" : 28,
      "geometry" : {
        "type" : "Point",
        "coordinates" : [
          139.73825600000009,
          35.614665000000059
        ]
      },
      "properties" : {
        "OBJECTID" : 28,
        "name" : "MG507 Cozy and clean room SHINAGAWA",
        "lon" : 139.73825600000001,
        "lat" : 35.614665000000002
      }
    },
    {
      "type" : "Feature",
      "id" : 29,
      "geometry" : {
        "type" : "Point",
        "coordinates" : [
          139.73454700000002,
          35.592966000000047
        ]
      },
      "properties" : {
        "OBJECTID" : 29,
        "name" : "Terasawa Minamioi Building 306",
        "lon" : 139.73454699999999,
        "lat" : 35.592965999999997
      }
    },
    {
      "type" : "Feature",
      "id" : 30,
      "geometry" : {
        "type" : "Point",
        "coordinates" : [
          139.72454600000003,
          35.627130000000079
        ]
      },
      "properties" : {
        "OBJECTID" : 30,
        "name" : "Tokyu Stay Gotanda",
        "lon" : 139.724546,
        "lat" : 35.627130000000001
      }
    },
    {
      "type" : "Feature",
      "id" : 31,
      "geometry" : {
        "type" : "Point",
        "coordinates" : [
          139.7296970000001,
          35.620745000000056
        ]
      },
      "properties" : {
        "OBJECTID" : 31,
        "name" : "New Otani Inn Tokyo",
        "lon" : 139.72969699999999,
        "lat" : 35.620744999999999
      }
    },
    {
      "type" : "Feature",
      "id" : 32,
      "geometry" : {
        "type" : "Point",
        "coordinates" : [
          139.74994500000003,
          35.610433000000057
        ]
      },
      "properties" : {
        "OBJECTID" : 32,
        "name" : "Hearton Hotel Higashishinagawa",
        "lon" : 139.749945,
        "lat" : 35.610433
      }
    },
    {
      "type" : "Feature",
      "id" : 33,
      "geometry" : {
        "type" : "Point",
        "coordinates" : [
          139.73459300000002,
          35.605347000000052
        ]
      },
      "properties" : {
        "OBJECTID" : 33,
        "name" : "OURS INN HANKYU",
        "lon" : 139.73459299999999,
        "lat" : 35.605347000000002
      }
    },
    {
      "type" : "Feature",
      "id" : 34,
      "geometry" : {
        "type" : "Point",
        "coordinates" : [
          139.74156900000003,
          35.614512000000047
        ]
      },
      "properties" : {
        "OBJECTID" : 34,
        "name" : "Bamba Hotel",
        "lon" : 139.741569,
        "lat" : 35.614511999999998
      }
    },
    {
      "type" : "Feature",
      "id" : 35,
      "geometry" : {
        "type" : "Point",
        "coordinates" : [
          139.72903600000006,
          35.607841000000064
        ]
      },
      "properties" : {
        "OBJECTID" : 35,
        "name" : "Osakaya Mansion 301",
        "lon" : 139.72903600000001,
        "lat" : 35.607841000000001
      }
    },
    {
      "type" : "Feature",
      "id" : 36,
      "geometry" : {
        "type" : "Point",
        "coordinates" : [
          139.745003,
          35.613016000000073
        ]
      },
      "properties" : {
        "OBJECTID" : 36,
        "name" : "Super Hotel Shinagawa Aomonoyokocho",
        "lon" : 139.745003,
        "lat" : 35.613016000000002
      }
    },
    {
      "type" : "Feature",
      "id" : 37,
      "geometry" : {
        "type" : "Point",
        "coordinates" : [
          139.734284,
          35.587677000000042
        ]
      },
      "properties" : {
        "OBJECTID" : 37,
        "name" : "Hotel Sunroute Patio Omori",
        "lon" : 139.734284,
        "lat" : 35.587676999999999
      }
    },
    {
      "type" : "Feature",
      "id" : 38,
      "geometry" : {
        "type" : "Point",
        "coordinates" : [
          139.73796000000004,
          35.614457000000073
        ]
      },
      "properties" : {
        "OBJECTID" : 38,
        "name" : "GrandTree Shinagawa",
        "lon" : 139.73795999999999,
        "lat" : 35.614457000000002
      }
    },
    {
      "type" : "Feature",
      "id" : 39,
      "geometry" : {
        "type" : "Point",
        "coordinates" : [
          139.72903600000006,
          35.607841000000064
        ]
      },
      "properties" : {
        "OBJECTID" : 39,
        "name" : "Osakaya Mansion 302",
        "lon" : 139.72903600000001,
        "lat" : 35.607841000000001
      }
    },
    {
      "type" : "Feature",
      "id" : 40,
      "geometry" : {
        "type" : "Point",
        "coordinates" : [
          139.72903600000006,
          35.607841000000064
        ]
      },
      "properties" : {
        "OBJECTID" : 40,
        "name" : "Osakaya Mansion 203",
        "lon" : 139.72903600000001,
        "lat" : 35.607841000000001
      }
    },
    {
      "type" : "Feature",
      "id" : 41,
      "geometry" : {
        "type" : "Point",
        "coordinates" : [
          139.73454700000002,
          35.592966000000047
        ]
      },
      "properties" : {
        "OBJECTID" : 41,
        "name" : "Terasawa Minamioi Building 305",
        "lon" : 139.73454699999999,
        "lat" : 35.592965999999997
      }
    },
    {
      "type" : "Feature",
      "id" : 42,
      "geometry" : {
        "type" : "Point",
        "coordinates" : [
          139.73454700000002,
          35.592966000000047
        ]
      },
      "properties" : {
        "OBJECTID" : 42,
        "name" : "Terasawa Minamioi Building 202",
        "lon" : 139.73454699999999,
        "lat" : 35.592965999999997
      }
    },
    {
      "type" : "Feature",
      "id" : 43,
      "geometry" : {
        "type" : "Point",
        "coordinates" : [
          139.71323600000005,
          35.608557000000076
        ]
      },
      "properties" : {
        "OBJECTID" : 43,
        "name" : "Shinagawa Wisteria Residence",
        "lon" : 139.71323599999999,
        "lat" : 35.608556999999998
      }
    },
    {
      "type" : "Feature",
      "id" : 44,
      "geometry" : {
        "type" : "Point",
        "coordinates" : [
          139.72574000000009,
          35.626906000000076
        ]
      },
      "properties" : {
        "OBJECTID" : 44,
        "name" : "Global Cabin Tokyo Gotanda",
        "lon" : 139.72574,
        "lat" : 35.626905999999998
      }
    },
    {
      "type" : "Feature",
      "id" : 45,
      "geometry" : {
        "type" : "Point",
        "coordinates" : [
          139.71728900000005,
          35.615281000000039
        ]
      },
      "properties" : {
        "OBJECTID" : 45,
        "name" : "APA Hotel Shinagawa Togoshiekimae",
        "lon" : 139.71728899999999,
        "lat" : 35.615281000000003
      }
    },
    {
      "type" : "Feature",
      "id" : 46,
      "geometry" : {
        "type" : "Point",
        "coordinates" : [
          139.7233020000001,
          35.609139000000084
        ]
      },
      "properties" : {
        "OBJECTID" : 46,
        "name" : "Shinagawa House -Ryo-",
        "lon" : 139.72330199999999,
        "lat" : 35.609138999999999
      }
    },
    {
      "type" : "Feature",
      "id" : 47,
      "geometry" : {
        "type" : "Point",
        "coordinates" : [
          139.72642200000007,
          35.61822600000005
        ]
      },
      "properties" : {
        "OBJECTID" : 47,
        "name" : "Daiwa Roynet Hotel Tokyo Osaki",
        "lon" : 139.72642200000001,
        "lat" : 35.618226
      }
    },
    {
      "type" : "Feature",
      "id" : 48,
      "geometry" : {
        "type" : "Point",
        "coordinates" : [
          139.71458500000006,
          35.610577000000035
        ]
      },
      "properties" : {
        "OBJECTID" : 48,
        "name" : "Plum Ark Oriental Hotel 205",
        "lon" : 139.714585,
        "lat" : 35.610576999999999
      }
    },
    {
      "type" : "Feature",
      "id" : 49,
      "geometry" : {
        "type" : "Point",
        "coordinates" : [
          139.73310000000004,
          35.588190000000054
        ]
      },
      "properties" : {
        "OBJECTID" : 49,
        "name" : "GOETHE HOTEL - Adult Only",
        "lon" : 139.73310000000001,
        "lat" : 35.588189999999997
      }
    },
    {
      "type" : "Feature",
      "id" : 50,
      "geometry" : {
        "type" : "Point",
        "coordinates" : [
          139.7341550000001,
          35.604416000000072
        ]
      },
      "properties" : {
        "OBJECTID" : 50,
        "name" : "Via Inn Tokyo Oimachi",
        "lon" : 139.73415499999999,
        "lat" : 35.604416000000001
      }
    },
    {
      "type" : "Feature",
      "id" : 51,
      "geometry" : {
        "type" : "Point",
        "coordinates" : [
          139.735187,
          35.587277000000086
        ]
      },
      "properties" : {
        "OBJECTID" : 51,
        "name" : "KEIKYU EX INN OMORI KAIGAN-STATION",
        "lon" : 139.735187,
        "lat" : 35.587277
      }
    },
    {
      "type" : "Feature",
      "id" : 52,
      "geometry" : {
        "type" : "Point",
        "coordinates" : [
          139.73165800000004,
          35.605237000000045
        ]
      },
      "properties" : {
        "OBJECTID" : 52,
        "name" : "Hotel Route-Inn Shinagawa Oimachi",
        "lon" : 139.73165800000001,
        "lat" : 35.605237000000002
      }
    },
    {
      "type" : "Feature",
      "id" : 53,
      "geometry" : {
        "type" : "Point",
        "coordinates" : [
          139.74477200000001,
          35.619350000000054
        ]
      },
      "properties" : {
        "OBJECTID" : 53,
        "name" : "Higashi Shinagawa 1 chome Ishibashi bldg.",
        "lon" : 139.74477200000001,
        "lat" : 35.619349999999997
      }
    },
    {
      "type" : "Feature",
      "id" : 54,
      "geometry" : {
        "type" : "Point",
        "coordinates" : [
          139.72314400000005,
          35.60120900000004
        ]
      },
      "properties" : {
        "OBJECTID" : 54,
        "name" : "Eternity HOTEL SHINAGAWA",
        "lon" : 139.72314399999999,
        "lat" : 35.601208999999997
      }
    },
    {
      "type" : "Feature",
      "id" : 55,
      "geometry" : {
        "type" : "Point",
        "coordinates" : [
          139.7146580000001,
          35.633870000000059
        ]
      },
      "properties" : {
        "OBJECTID" : 55,
        "name" : "Hotel Abest Meguro",
        "lon" : 139.71465799999999,
        "lat" : 35.633870000000002
      }
    },
    {
      "type" : "Feature",
      "id" : 56,
      "geometry" : {
        "type" : "Point",
        "coordinates" : [
          139.74180800000011,
          35.617540000000076
        ]
      },
      "properties" : {
        "OBJECTID" : 56,
        "name" : "Rengeso",
        "lon" : 139.74180799999999,
        "lat" : 35.617539999999998
      }
    },
    {
      "type" : "Feature",
      "id" : 57,
      "geometry" : {
        "type" : "Point",
        "coordinates" : [
          139.7398290000001,
          35.61143700000008
        ]
      },
      "properties" : {
        "OBJECTID" : 57,
        "name" : "WIRES HOTEL James zaka",
        "lon" : 139.73982899999999,
        "lat" : 35.611437000000002
      }
    },
    {
      "type" : "Feature",
      "id" : 58,
      "geometry" : {
        "type" : "Point",
        "coordinates" : [
          139.74451600000009,
          35.619407000000081
        ]
      },
      "properties" : {
        "OBJECTID" : 58,
        "name" : "East Shinagawa Apartment",
        "lon" : 139.744516,
        "lat" : 35.619407000000002
      }
    },
    {
      "type" : "Feature",
      "id" : 59,
      "geometry" : {
        "type" : "Point",
        "coordinates" : [
          139.71359300000006,
          35.601728000000037
        ]
      },
      "properties" : {
        "OBJECTID" : 59,
        "name" : "Flexstay Inn Nakanobu",
        "lon" : 139.713593,
        "lat" : 35.601728000000001
      }
    },
    {
      "type" : "Feature",
      "id" : 60,
      "geometry" : {
        "type" : "Point",
        "coordinates" : [
          139.72720000000004,
          35.626210000000071
        ]
      },
      "properties" : {
        "OBJECTID" : 60,
        "name" : "Tsukigime Club Higashi-Gotanda",
        "lon" : 139.72720000000001,
        "lat" : 35.62621
      }
    },
    {
      "type" : "Feature",
      "id" : 61,
      "geometry" : {
        "type" : "Point",
        "coordinates" : [
          139.72841200000005,
          35.625489000000073
        ]
      },
      "properties" : {
        "OBJECTID" : 61,
        "name" : "Hotel MyStays Gotanda",
        "lon" : 139.72841199999999,
        "lat" : 35.625489000000002
      }
    },
    {
      "type" : "Feature",
      "id" : 62,
      "geometry" : {
        "type" : "Point",
        "coordinates" : [
          139.72157100000004,
          35.634563000000071
        ]
      },
      "properties" : {
        "OBJECTID" : 62,
        "name" : "Shirokane Guest House",
        "lon" : 139.72157100000001,
        "lat" : 35.634563
      }
    },
    {
      "type" : "Feature",
      "id" : 63,
      "geometry" : {
        "type" : "Point",
        "coordinates" : [
          139.73291800000004,
          35.604517000000044
        ]
      },
      "properties" : {
        "OBJECTID" : 63,
        "name" : "Tokyo Banyan Hotel",
        "lon" : 139.73291800000001,
        "lat" : 35.604517000000001
      }
    },
    {
      "type" : "Feature",
      "id" : 64,
      "geometry" : {
        "type" : "Point",
        "coordinates" : [
          139.73404500000004,
          35.587738000000058
        ]
      },
      "properties" : {
        "OBJECTID" : 64,
        "name" : "HOTEL LiVEMAX Omori Ekimae",
        "lon" : 139.73404500000001,
        "lat" : 35.587738000000002
      }
    },
    {
      "type" : "Feature",
      "id" : 65,
      "geometry" : {
        "type" : "Point",
        "coordinates" : [
          139.72886100000005,
          35.616048000000035
        ]
      },
      "properties" : {
        "OBJECTID" : 65,
        "name" : "Japanese Modern House in Shinagawa",
        "lon" : 139.72886099999999,
        "lat" : 35.616047999999999
      }
    },
    {
      "type" : "Feature",
      "id" : 66,
      "geometry" : {
        "type" : "Point",
        "coordinates" : [
          139.73650000000009,
          35.606570000000033
        ]
      },
      "properties" : {
        "OBJECTID" : 66,
        "name" : "Apartment Sun Bright",
        "lon" : 139.73650000000001,
        "lat" : 35.606569999999998
      }
    },
    {
      "type" : "Feature",
      "id" : 67,
      "geometry" : {
        "type" : "Point",
        "coordinates" : [
          139.72570800000005,
          35.626251000000082
        ]
      },
      "properties" : {
        "OBJECTID" : 67,
        "name" : "Do-c Gotanda",
        "lon" : 139.725708,
        "lat" : 35.626251000000003
      }
    },
    {
      "type" : "Feature",
      "id" : 68,
      "geometry" : {
        "type" : "Point",
        "coordinates" : [
          139.7264100000001,
          35.626550000000066
        ]
      },
      "properties" : {
        "OBJECTID" : 68,
        "name" : "The CALM Hotel Tokyo - Adults Only",
        "lon" : 139.72640999999999,
        "lat" : 35.626550000000002
      }
    },
    {
      "type" : "Feature",
      "id" : 69,
      "geometry" : {
        "type" : "Point",
        "coordinates" : [
          139.74001700000008,
          35.622058000000038
        ]
      },
      "properties" : {
        "OBJECTID" : 69,
        "name" : "Flexstay Inn Shinagawa",
        "lon" : 139.74001699999999,
        "lat" : 35.622058000000003
      }
    },
    {
      "type" : "Feature",
      "id" : 70,
      "geometry" : {
        "type" : "Point",
        "coordinates" : [
          139.72420099999999,
          35.624731000000054
        ]
      },
      "properties" : {
        "OBJECTID" : 70,
        "name" : "Hotel Royal Oak Gotanda",
        "lon" : 139.72420099999999,
        "lat" : 35.624730999999997
      }
    },
    {
      "type" : "Feature",
      "id" : 71,
      "geometry" : {
        "type" : "Point",
        "coordinates" : [
          139.74026000000003,
          35.621802000000059
        ]
      },
      "properties" : {
        "OBJECTID" : 71,
        "name" : "Guest House Shinagawa-shuku",
        "lon" : 139.74026000000001,
        "lat" : 35.621802000000002
      }
    },
    {
      "type" : "Feature",
      "id" : 72,
      "geometry" : {
        "type" : "Point",
        "coordinates" : [
          139.72645,
          35.62453000000005
        ]
      },
      "properties" : {
        "OBJECTID" : 72,
        "name" : "Ryokan Sansuiso",
        "lon" : 139.72645,
        "lat" : 35.62453
      }
    },
    {
      "type" : "Feature",
      "id" : 73,
      "geometry" : {
        "type" : "Point",
        "coordinates" : [
          139.74202700000001,
          35.604354000000058
        ]
      },
      "properties" : {
        "OBJECTID" : 73,
        "name" : "ARTnSHELTER - Hostel",
        "lon" : 139.74202700000001,
        "lat" : 35.604354000000001
      }
    },
    {
      "type" : "Feature",
      "id" : 74,
      "geometry" : {
        "type" : "Point",
        "coordinates" : [
          139.723027,
          35.599928000000034
        ]
      },
      "properties" : {
        "OBJECTID" : 74,
        "name" : "Ryoma Nishiooi I - Hostel",
        "lon" : 139.723027,
        "lat" : 35.599927999999998
      }
    },
    {
      "type" : "Feature",
      "id" : 75,
      "geometry" : {
        "type" : "Point",
        "coordinates" : [
          139.71607700000004,
          35.619772000000069
        ]
      },
      "properties" : {
        "OBJECTID" : 75,
        "name" : "No Borders Hostel",
        "lon" : 139.71607700000001,
        "lat" : 35.619771999999998
      }
    },
    {
      "type" : "Feature",
      "id" : 76,
      "geometry" : {
        "type" : "Point",
        "coordinates" : [
          139.72801000000004,
          35.625450000000058
        ]
      },
      "properties" : {
        "OBJECTID" : 76,
        "name" : "Arietta Hotel & Trattoria Gotanda",
        "lon" : 139.72801000000001,
        "lat" : 35.625450000000001
      }
    },
    {
      "type" : "Feature",
      "id" : 77,
      "geometry" : {
        "type" : "Point",
        "coordinates" : [
          139.73024300000009,
          35.58923400000009
        ]
      },
      "properties" : {
        "OBJECTID" : 77,
        "name" : "Hotel BAR Grantios",
        "lon" : 139.730243,
        "lat" : 35.589233999999998
      }
    },
    {
      "type" : "Feature",
      "id" : 78,
      "geometry" : {
        "type" : "Point",
        "coordinates" : [
          139.71776800000009,
          35.620175000000074
        ]
      },
      "properties" : {
        "OBJECTID" : 78,
        "name" : "Hotel Route Inn Gotanda",
        "lon" : 139.71776800000001,
        "lat" : 35.620175000000003
      }
    },
    {
      "type" : "Feature",
      "id" : 79,
      "geometry" : {
        "type" : "Point",
        "coordinates" : [
          139.74257,
          35.609690000000057
        ]
      },
      "properties" : {
        "OBJECTID" : 79,
        "name" : "Toyoko Inn Tokyo Shinagawa Aomono-yokocho-eki",
        "lon" : 139.74257,
        "lat" : 35.609690000000001
      }
    },
    {
      "type" : "Feature",
      "id" : 80,
      "geometry" : {
        "type" : "Point",
        "coordinates" : [
          139.73291000000006,
          35.604591000000084
        ]
      },
      "properties" : {
        "OBJECTID" : 80,
        "name" : "Tokyo Banyan Hotel",
        "lon" : 139.73291,
        "lat" : 35.604590999999999
      }
    },
    {
      "type" : "Feature",
      "id" : 81,
      "geometry" : {
        "type" : "Point",
        "coordinates" : [
          139.73044000000004,
          35.591111000000069
        ]
      },
      "properties" : {
        "OBJECTID" : 81,
        "name" : "Omori Park Hotel",
        "lon" : 139.73043999999999,
        "lat" : 35.591110999999998
      }
    },
    {
      "type" : "Feature",
      "id" : 82,
      "geometry" : {
        "type" : "Point",
        "coordinates" : [
          139.72295900000006,
          35.599902000000043
        ]
      },
      "properties" : {
        "OBJECTID" : 82,
        "name" : "Telework and day Room Consultation is Possible / Shinagawa-ku Tokyo",
        "lon" : 139.722959,
        "lat" : 35.599902
      }
    },
    {
      "type" : "Feature",
      "id" : 83,
      "geometry" : {
        "type" : "Point",
        "coordinates" : [
          139.73279200000002,
          35.604319000000089
        ]
      },
      "properties" : {
        "OBJECTID" : 83,
        "name" : "eos Hotel Oimachi 902 - 901 / Shinagawa-ku Tokyo",
        "lon" : 139.73279199999999,
        "lat" : 35.604318999999997
      }
    },
    {
      "type" : "Feature",
      "id" : 84,
      "geometry" : {
        "type" : "Point",
        "coordinates" : [
          139.71468800000002,
          35.634136000000069
        ]
      },
      "properties" : {
        "OBJECTID" : 84,
        "name" : "Smoking Triple bed Width 120cm x 3 / Shinagawa-ku Tokyo",
        "lon" : 139.714688,
        "lat" : 35.634135999999998
      }
    },
    {
      "type" : "Feature",
      "id" : 85,
      "geometry" : {
        "type" : "Point",
        "coordinates" : [
          139.74038200000007,
          35.62182800000005
        ]
      },
      "properties" : {
        "OBJECTID" : 85,
        "name" : "Private Accommodation - Kago 34 / Shinagawa-ku Tokyo",
        "lon" : 139.74038200000001,
        "lat" : 35.621828000000001
      }
    },
    {
      "type" : "Feature",
      "id" : 86,
      "geometry" : {
        "type" : "Point",
        "coordinates" : [
          139.73279200000002,
          35.604319000000089
        ]
      },
      "properties" : {
        "OBJECTID" : 86,
        "name" : "eos Hotel Oimachi 802 - 801 / Shinagawa-ku Tokyo",
        "lon" : 139.73279199999999,
        "lat" : 35.604318999999997
      }
    },
    {
      "type" : "Feature",
      "id" : 87,
      "geometry" : {
        "type" : "Point",
        "coordinates" : [
          139.7146140000001,
          35.610506000000044
        ]
      },
      "properties" : {
        "OBJECTID" : 87,
        "name" : "Deluxe Room 51m2 max 10 People / Shinagawa-ku Tokyo",
        "lon" : 139.71461400000001,
        "lat" : 35.610506000000001
      }
    },
    {
      "type" : "Feature",
      "id" : 88,
      "geometry" : {
        "type" : "Point",
        "coordinates" : [
          139.71468800000002,
          35.634136000000069
        ]
      },
      "properties" : {
        "OBJECTID" : 88,
        "name" : "Smoking Suite bed Width 120cm x 2 / Shinagawa-ku Tokyo",
        "lon" : 139.714688,
        "lat" : 35.634135999999998
      }
    },
    {
      "type" : "Feature",
      "id" : 89,
      "geometry" : {
        "type" : "Point",
        "coordinates" : [
          139.72315400000002,
          35.601186000000041
        ]
      },
      "properties" : {
        "OBJECTID" : 89,
        "name" : "Bali Style Capacity 2 People Corona Measures / Shinagawa-ku Tokyo",
        "lon" : 139.72315399999999,
        "lat" : 35.601185999999998
      }
    },
    {
      "type" : "Feature",
      "id" : 90,
      "geometry" : {
        "type" : "Point",
        "coordinates" : [
          139.71502100000009,
          35.60176400000006
        ]
      },
      "properties" : {
        "OBJECTID" : 90,
        "name" : "NEW Open Renovated Detached House 23 Floor Ni / Shinagawa-ku Tokyo",
        "lon" : 139.71502100000001,
        "lat" : 35.601764000000003
      }
    },
    {
      "type" : "Feature",
      "id" : 91,
      "geometry" : {
        "type" : "Point",
        "coordinates" : [
          139.7146140000001,
          35.610506000000044
        ]
      },
      "properties" : {
        "OBJECTID" : 91,
        "name" : "Deluxe Room 43m2 Max 6 People / Shinagawa-ku Tokyo",
        "lon" : 139.71461400000001,
        "lat" : 35.610506000000001
      }
    },
    {
      "type" : "Feature",
      "id" : 92,
      "geometry" : {
        "type" : "Point",
        "coordinates" : [
          139.71502100000009,
          35.60176400000006
        ]
      },
      "properties" : {
        "OBJECTID" : 92,
        "name" : "NEW Open Renovated Detached House 1st Floor Ni / Shinagawa-ku Tokyo",
        "lon" : 139.71502100000001,
        "lat" : 35.601764000000003
      }
    },
    {
      "type" : "Feature",
      "id" : 93,
      "geometry" : {
        "type" : "Point",
        "coordinates" : [
          139.73752200000001,
          35.613288000000068
        ]
      },
      "properties" : {
        "OBJECTID" : 93,
        "name" : "3 Storey House Disney Up to 9 Guests Free pa / Shinagawa-ku Tokyo",
        "lon" : 139.73752200000001,
        "lat" : 35.613287999999997
      }
    },
    {
      "type" : "Feature",
      "id" : 94,
      "geometry" : {
        "type" : "Point",
        "coordinates" : [
          139.73279200000002,
          35.604319000000089
        ]
      },
      "properties" : {
        "OBJECTID" : 94,
        "name" : "eos Hotel Oimachi 502 - 501 / Shinagawa-ku Tokyo",
        "lon" : 139.73279199999999,
        "lat" : 35.604318999999997
      }
    },
    {
      "type" : "Feature",
      "id" : 95,
      "geometry" : {
        "type" : "Point",
        "coordinates" : [
          139.71565200000009,
          35.617608000000075
        ]
      },
      "properties" : {
        "OBJECTID" : 95,
        "name" : "Up to 7P, Mid-size pad Convenient and Comfortable",
        "lon" : 139.71565200000001,
        "lat" : 35.617607999999997
      }
    },
    {
      "type" : "Feature",
      "id" : 96,
      "geometry" : {
        "type" : "Point",
        "coordinates" : [
          139.73279200000002,
          35.604319000000089
        ]
      },
      "properties" : {
        "OBJECTID" : 96,
        "name" : "eos Hotel Oimachi 1003 - 1003 / Shinagawa-ku Tokyo",
        "lon" : 139.73279199999999,
        "lat" : 35.604318999999997
      }
    },
    {
      "type" : "Feature",
      "id" : 97,
      "geometry" : {
        "type" : "Point",
        "coordinates" : [
          139.73279200000002,
          35.604319000000089
        ]
      },
      "properties" : {
        "OBJECTID" : 97,
        "name" : "eos Hotel Oimachi 302 - 301 / Shinagawa-ku Tokyo",
        "lon" : 139.73279199999999,
        "lat" : 35.604318999999997
      }
    },
    {
      "type" : "Feature",
      "id" : 98,
      "geometry" : {
        "type" : "Point",
        "coordinates" : [
          139.72315400000002,
          35.601186000000041
        ]
      },
      "properties" : {
        "OBJECTID" : 98,
        "name" : "Eternity In Wonder Land Capacity 3 People / Shinagawa-ku Tokyo",
        "lon" : 139.72315399999999,
        "lat" : 35.601185999999998
      }
    },
    {
      "type" : "Feature",
      "id" : 99,
      "geometry" : {
        "type" : "Point",
        "coordinates" : [
          139.7271320000001,
          35.627785000000074
        ]
      },
      "properties" : {
        "OBJECTID" : 99,
        "name" : "94 / NEW !! Shinagawa / 2 Mins From Station / Wifi",
        "lon" : 139.72713200000001,
        "lat" : 35.627785000000003
      }
    },
    {
      "type" : "Feature",
      "id" : 100,
      "geometry" : {
        "type" : "Point",
        "coordinates" : [
          139.72885800000006,
          35.61607900000007
        ]
      },
      "properties" : {
        "OBJECTID" : 100,
        "name" : "Japanese Modern House With Parking in Shinagawa / Shinagawa-ku Tokyo",
        "lon" : 139.728858,
        "lat" : 35.616078999999999
      }
    },
    {
      "type" : "Feature",
      "id" : 101,
      "geometry" : {
        "type" : "Point",
        "coordinates" : [
          139.73279200000002,
          35.604319000000089
        ]
      },
      "properties" : {
        "OBJECTID" : 101,
        "name" : "eos Hotel Oimachi 1302 - 302 / Shinagawa-ku Tokyo",
        "lon" : 139.73279199999999,
        "lat" : 35.604318999999997
      }
    },
    {
      "type" : "Feature",
      "id" : 102,
      "geometry" : {
        "type" : "Point",
        "coordinates" : [
          139.72315400000002,
          35.601186000000041
        ]
      },
      "properties" : {
        "OBJECTID" : 102,
        "name" : "Scandinavian Modern Capacity 6 People / Shinagawa-ku Tokyo",
        "lon" : 139.72315399999999,
        "lat" : 35.601185999999998
      }
    },
    {
      "type" : "Feature",
      "id" : 103,
      "geometry" : {
        "type" : "Point",
        "coordinates" : [
          139.74908600000003,
          35.609344000000078
        ]
      },
      "properties" : {
        "OBJECTID" : 103,
        "name" : "Sotetsu Grand Fresa Shinagawa Seaside",
        "lon" : 139.74908600000001,
        "lat" : 35.609344
      }
    },
    {
      "type" : "Feature",
      "id" : 104,
      "geometry" : {
        "type" : "Point",
        "coordinates" : [
          139.73279200000002,
          35.604319000000089
        ]
      },
      "properties" : {
        "OBJECTID" : 104,
        "name" : "eos Hotel Oimachi 503 - 503 / Shinagawa-ku Tokyo",
        "lon" : 139.73279199999999,
        "lat" : 35.604318999999997
      }
    },
    {
      "type" : "Feature",
      "id" : 105,
      "geometry" : {
        "type" : "Point",
        "coordinates" : [
          139.73279200000002,
          35.604319000000089
        ]
      },
      "properties" : {
        "OBJECTID" : 105,
        "name" : "eos Hotel Oimachi 101 - 101 / Shinagawa-ku Tokyo",
        "lon" : 139.73279199999999,
        "lat" : 35.604318999999997
      }
    },
    {
      "type" : "Feature",
      "id" : 106,
      "geometry" : {
        "type" : "Point",
        "coordinates" : [
          139.71468800000002,
          35.634136000000069
        ]
      },
      "properties" : {
        "OBJECTID" : 106,
        "name" : "Nonsmoking Double bed Width 150cm With Sofa / Shinagawa-ku Tokyo",
        "lon" : 139.714688,
        "lat" : 35.634135999999998
      }
    },
    {
      "type" : "Feature",
      "id" : 107,
      "geometry" : {
        "type" : "Point",
        "coordinates" : [
          139.72315400000002,
          35.601186000000041
        ]
      },
      "properties" : {
        "OBJECTID" : 107,
        "name" : "Glamping Capacity 12 People Safe and Secure / Shinagawa-ku Tokyo",
        "lon" : 139.72315399999999,
        "lat" : 35.601185999999998
      }
    },
    {
      "type" : "Feature",
      "id" : 108,
      "geometry" : {
        "type" : "Point",
        "coordinates" : [
          139.73279200000002,
          35.604319000000089
        ]
      },
      "properties" : {
        "OBJECTID" : 108,
        "name" : "eos Hotel Oimachi 1002 - 1001 / Shinagawa-ku Tokyo",
        "lon" : 139.73279199999999,
        "lat" : 35.604318999999997
      }
    },
    {
      "type" : "Feature",
      "id" : 109,
      "geometry" : {
        "type" : "Point",
        "coordinates" : [
          139.71468800000002,
          35.634136000000069
        ]
      },
      "properties" : {
        "OBJECTID" : 109,
        "name" : "Smoking Double bed Width 150cm With Sofa / Shinagawa-ku Tokyo",
        "lon" : 139.714688,
        "lat" : 35.634135999999998
      }
    },
    {
      "type" : "Feature",
      "id" : 110,
      "geometry" : {
        "type" : "Point",
        "coordinates" : [
          139.73279200000002,
          35.604319000000089
        ]
      },
      "properties" : {
        "OBJECTID" : 110,
        "name" : "eos Hotel Oimachi 803 - 803 / Shinagawa-ku Tokyo",
        "lon" : 139.73279199999999,
        "lat" : 35.604318999999997
      }
    },
    {
      "type" : "Feature",
      "id" : 111,
      "geometry" : {
        "type" : "Point",
        "coordinates" : [
          139.73279200000002,
          35.604319000000089
        ]
      },
      "properties" : {
        "OBJECTID" : 111,
        "name" : "eos Hotel Oimachi 1401 - B1 / Shinagawa-ku Tokyo",
        "lon" : 139.73279199999999,
        "lat" : 35.604318999999997
      }
    },
    {
      "type" : "Feature",
      "id" : 112,
      "geometry" : {
        "type" : "Point",
        "coordinates" : [
          139.74558200000001,
          35.618647000000067
        ]
      },
      "properties" : {
        "OBJECTID" : 112,
        "name" : "NEW House! 1 House With a Lift Entire Home Rental] / 12 Minutes on Foot to Shinagawa Station / 5 Minutes to Shinbaba Station / Free Pocket Wifi",
        "lon" : 139.74558200000001,
        "lat" : 35.618647000000003
      }
    },
    {
      "type" : "Feature",
      "id" : 113,
      "geometry" : {
        "type" : "Point",
        "coordinates" : [
          139.7146140000001,
          35.610506000000044
        ]
      },
      "properties" : {
        "OBJECTID" : 113,
        "name" : "Deluxe Room 42m2 Max 6 People / Shinagawa-ku Tokyo",
        "lon" : 139.71461400000001,
        "lat" : 35.610506000000001
      }
    },
    {
      "type" : "Feature",
      "id" : 114,
      "geometry" : {
        "type" : "Point",
        "coordinates" : [
          139.73279200000002,
          35.604319000000089
        ]
      },
      "properties" : {
        "OBJECTID" : 114,
        "name" : "eos Hotel Oimachi 603 - 603 / Shinagawa-ku Tokyo",
        "lon" : 139.73279199999999,
        "lat" : 35.604318999999997
      }
    },
    {
      "type" : "Feature",
      "id" : 115,
      "geometry" : {
        "type" : "Point",
        "coordinates" : [
          139.7471250000001,
          35.621872000000053
        ]
      },
      "properties" : {
        "OBJECTID" : 115,
        "name" : "Chartered Building Water Cottage Superior Twin / Shinagawa-ku Tokyo",
        "lon" : 139.74712500000001,
        "lat" : 35.621872000000003
      }
    },
    {
      "type" : "Feature",
      "id" : 116,
      "geometry" : {
        "type" : "Point",
        "coordinates" : [
          139.7146140000001,
          35.610506000000044
        ]
      },
      "properties" : {
        "OBJECTID" : 116,
        "name" : "Deluxe Room 47m2 max 7 People / Shinagawa-ku Tokyo",
        "lon" : 139.71461400000001,
        "lat" : 35.610506000000001
      }
    },
    {
      "type" : "Feature",
      "id" : 117,
      "geometry" : {
        "type" : "Point",
        "coordinates" : [
          139.74157400000001,
          35.614609000000087
        ]
      },
      "properties" : {
        "OBJECTID" : 117,
        "name" : "Private Accommodation With Breakfast / Shinagawa-ku Tokyo",
        "lon" : 139.74157400000001,
        "lat" : 35.614609000000002
      }
    },
    {
      "type" : "Feature",
      "id" : 118,
      "geometry" : {
        "type" : "Point",
        "coordinates" : [
          139.71468800000002,
          35.634136000000069
        ]
      },
      "properties" : {
        "OBJECTID" : 118,
        "name" : "Smoking Single bed Width 120cm / Shinagawa-ku Tokyo",
        "lon" : 139.714688,
        "lat" : 35.634135999999998
      }
    },
    {
      "type" : "Feature",
      "id" : 119,
      "geometry" : {
        "type" : "Point",
        "coordinates" : [
          139.7233020000001,
          35.609139000000084
        ]
      },
      "properties" : {
        "OBJECTID" : 119,
        "name" : "Big 2-story House--up TO 12ppl--10 Mins to Shinagawa by Train--free High Spee",
        "lon" : 139.72330199999999,
        "lat" : 35.609138999999999
      }
    },
    {
      "type" : "Feature",
      "id" : 120,
      "geometry" : {
        "type" : "Point",
        "coordinates" : [
          139.71468800000002,
          35.634136000000069
        ]
      },
      "properties" : {
        "OBJECTID" : 120,
        "name" : "Smoking Semidouble bed Width 120cm / Shinagawa-ku Tokyo",
        "lon" : 139.714688,
        "lat" : 35.634135999999998
      }
    },
    {
      "type" : "Feature",
      "id" : 121,
      "geometry" : {
        "type" : "Point",
        "coordinates" : [
          139.73279200000002,
          35.604319000000089
        ]
      },
      "properties" : {
        "OBJECTID" : 121,
        "name" : "EOS Hotel Blue - 1301 / Shinagawa-ku Tokyo",
        "lon" : 139.73279199999999,
        "lat" : 35.604318999999997
      }
    },
    {
      "type" : "Feature",
      "id" : 122,
      "geometry" : {
        "type" : "Point",
        "coordinates" : [
          139.72975800000006,
          35.630437000000086
        ]
      },
      "properties" : {
        "OBJECTID" : 122,
        "name" : "83/shinagawa / Wifi / Max 6ppl",
        "lon" : 139.729758,
        "lat" : 35.630437000000001
      }
    },
    {
      "type" : "Feature",
      "id" : 123,
      "geometry" : {
        "type" : "Point",
        "coordinates" : [
          139.73752200000001,
          35.613288000000068
        ]
      },
      "properties" : {
        "OBJECTID" : 123,
        "name" : "ï½· 3//9/",
        "lon" : 139.73752200000001,
        "lat" : 35.613287999999997
      }
    },
    {
      "type" : "Feature",
      "id" : 124,
      "geometry" : {
        "type" : "Point",
        "coordinates" : [
          139.72315400000002,
          35.601186000000041
        ]
      },
      "properties" : {
        "OBJECTID" : 124,
        "name" : "Japanesestyle Modern Capacity 12 People / Shinagawa-ku Tokyo",
        "lon" : 139.72315399999999,
        "lat" : 35.601185999999998
      }
    },
    {
      "type" : "Feature",
      "id" : 125,
      "geometry" : {
        "type" : "Point",
        "coordinates" : [
          139.71468800000002,
          35.634136000000069
        ]
      },
      "properties" : {
        "OBJECTID" : 125,
        "name" : "Nonsmoking Semidouble bed Width 120cm / Shinagawa-ku Tokyo",
        "lon" : 139.714688,
        "lat" : 35.634135999999998
      }
    },
    {
      "type" : "Feature",
      "id" : 126,
      "geometry" : {
        "type" : "Point",
        "coordinates" : [
          139.73796700000003,
          35.614465000000052
        ]
      },
      "properties" : {
        "OBJECTID" : 126,
        "name" : "Popular Shinagawa Area 2DK 4F Station Near the Me / Shinagawa-ku Tokyo",
        "lon" : 139.737967,
        "lat" : 35.614465000000003
      }
    },
    {
      "type" : "Feature",
      "id" : 127,
      "geometry" : {
        "type" : "Point",
        "coordinates" : [
          139.73279200000002,
          35.604319000000089
        ]
      },
      "properties" : {
        "OBJECTID" : 127,
        "name" : "eos Hotel Oimachi 702 - 701 / Shinagawa-ku Tokyo",
        "lon" : 139.73279199999999,
        "lat" : 35.604318999999997
      }
    },
    {
      "type" : "Feature",
      "id" : 128,
      "geometry" : {
        "type" : "Point",
        "coordinates" : [
          139.74479500000007,
          35.619390000000067
        ]
      },
      "properties" : {
        "OBJECTID" : 128,
        "name" : "Higashi Shinagawa Apartment",
        "lon" : 139.74479500000001,
        "lat" : 35.619390000000003
      }
    },
    {
      "type" : "Feature",
      "id" : 129,
      "geometry" : {
        "type" : "Point",
        "coordinates" : [
          139.73279200000002,
          35.604319000000089
        ]
      },
      "properties" : {
        "OBJECTID" : 129,
        "name" : "eos Hotel Oimachi 703 - 703 / Shinagawa-ku Tokyo",
        "lon" : 139.73279199999999,
        "lat" : 35.604318999999997
      }
    },
    {
      "type" : "Feature",
      "id" : 130,
      "geometry" : {
        "type" : "Point",
        "coordinates" : [
          139.72315400000002,
          35.601186000000041
        ]
      },
      "properties" : {
        "OBJECTID" : 130,
        "name" : "Brooklyn Style Capacity 6 People / Shinagawa-ku Tokyo",
        "lon" : 139.72315399999999,
        "lat" : 35.601185999999998
      }
    },
    {
      "type" : "Feature",
      "id" : 131,
      "geometry" : {
        "type" : "Point",
        "coordinates" : [
          139.74165000000005,
          35.605053000000055
        ]
      },
      "properties" : {
        "OBJECTID" : 131,
        "name" : "2011 min Walk Samezu Sta 9 min Oimachi sta / Shinagawa-ku Tokyo",
        "lon" : 139.74164999999999,
        "lat" : 35.605052999999998
      }
    },
    {
      "type" : "Feature",
      "id" : 132,
      "geometry" : {
        "type" : "Point",
        "coordinates" : [
          139.74165000000005,
          35.605053000000055
        ]
      },
      "properties" : {
        "OBJECTID" : 132,
        "name" : "Room 301 Samezu Station 1 Minute Walk Oimachi S / Shinagawa-ku Tokyo",
        "lon" : 139.74164999999999,
        "lat" : 35.605052999999998
      }
    },
    {
      "type" : "Feature",
      "id" : 133,
      "geometry" : {
        "type" : "Point",
        "coordinates" : [
          139.71468800000002,
          35.634136000000069
        ]
      },
      "properties" : {
        "OBJECTID" : 133,
        "name" : "Nonsmoking Twin bed Width 110cm x 2 / Shinagawa-ku Tokyo",
        "lon" : 139.714688,
        "lat" : 35.634135999999998
      }
    },
    {
      "type" : "Feature",
      "id" : 134,
      "geometry" : {
        "type" : "Point",
        "coordinates" : [
          139.74165000000005,
          35.605053000000055
        ]
      },
      "properties" : {
        "OBJECTID" : 134,
        "name" : "Room 2021 Minute Walk From Samezu Station 9 Minu / Shinagawa-ku Tokyo",
        "lon" : 139.74164999999999,
        "lat" : 35.605052999999998
      }
    },
    {
      "type" : "Feature",
      "id" : 135,
      "geometry" : {
        "type" : "Point",
        "coordinates" : [
          139.73796700000003,
          35.614465000000052
        ]
      },
      "properties" : {
        "OBJECTID" : 135,
        "name" : "Popular Shinagawa Area Near the Station 2ldk 2F C / Shinagawa-ku Tokyo",
        "lon" : 139.737967,
        "lat" : 35.614465000000003
      }
    },
    {
      "type" : "Feature",
      "id" : 136,
      "geometry" : {
        "type" : "Point",
        "coordinates" : [
          139.73279200000002,
          35.604319000000089
        ]
      },
      "properties" : {
        "OBJECTID" : 136,
        "name" : "eos Hotel Oimachi 1102 - 1101 / Shinagawa-ku Tokyo",
        "lon" : 139.73279199999999,
        "lat" : 35.604318999999997
      }
    },
    {
      "type" : "Feature",
      "id" : 137,
      "geometry" : {
        "type" : "Point",
        "coordinates" : [
          139.73796700000003,
          35.614465000000052
        ]
      },
      "properties" : {
        "OBJECTID" : 137,
        "name" : "Mg103 Cozy and Clean Room Shinagawa",
        "lon" : 139.737967,
        "lat" : 35.614465000000003
      }
    },
    {
      "type" : "Feature",
      "id" : 138,
      "geometry" : {
        "type" : "Point",
        "coordinates" : [
          139.73892600000011,
          35.615459000000044
        ]
      },
      "properties" : {
        "OBJECTID" : 138,
        "name" : "5 Minutes to Shinagawa Station! Shinjuku and Shibuya are Just Around the Corner!",
        "lon" : 139.73892599999999,
        "lat" : 35.615459000000001
      }
    },
    {
      "type" : "Feature",
      "id" : 139,
      "geometry" : {
        "type" : "Point",
        "coordinates" : [
          139.74165000000005,
          35.605053000000055
        ]
      },
      "properties" : {
        "OBJECTID" : 139,
        "name" : "Room 20301 Minute Walk From Samezu Station 9 min / Shinagawa-ku Tokyo",
        "lon" : 139.74164999999999,
        "lat" : 35.605052999999998
      }
    },
    {
      "type" : "Feature",
      "id" : 140,
      "geometry" : {
        "type" : "Point",
        "coordinates" : [
          139.71468800000002,
          35.634136000000069
        ]
      },
      "properties" : {
        "OBJECTID" : 140,
        "name" : "Smoking Twin bed Width 110cm x 2 / Shinagawa-ku Tokyo",
        "lon" : 139.714688,
        "lat" : 35.634135999999998
      }
    },
    {
      "type" : "Feature",
      "id" : 141,
      "geometry" : {
        "type" : "Point",
        "coordinates" : [
          139.73279200000002,
          35.604319000000089
        ]
      },
      "properties" : {
        "OBJECTID" : 141,
        "name" : "eos Hotel Oimachi 1202 - 1201 / Shinagawa-ku Tokyo",
        "lon" : 139.73279199999999,
        "lat" : 35.604318999999997
      }
    },
    {
      "type" : "Feature",
      "id" : 142,
      "geometry" : {
        "type" : "Point",
        "coordinates" : [
          139.71468800000002,
          35.634136000000069
        ]
      },
      "properties" : {
        "OBJECTID" : 142,
        "name" : "Triple Nonsmoking bed Width 120cm x 3 / Shinagawa-ku Tokyo",
        "lon" : 139.714688,
        "lat" : 35.634135999999998
      }
    },
    {
      "type" : "Feature",
      "id" : 143,
      "geometry" : {
        "type" : "Point",
        "coordinates" : [
          139.72315400000002,
          35.601186000000041
        ]
      },
      "properties" : {
        "OBJECTID" : 143,
        "name" : "2D Hotel Capacity 3 People / Shinagawa-ku Tokyo",
        "lon" : 139.72315399999999,
        "lat" : 35.601185999999998
      }
    },
    {
      "type" : "Feature",
      "id" : 144,
      "geometry" : {
        "type" : "Point",
        "coordinates" : [
          139.74443800000006,
          35.619499000000076
        ]
      },
      "properties" : {
        "OBJECTID" : 144,
        "name" : "NEW Cozy House With Elevator Max8ppl / Shinagawa-ku Tokyo",
        "lon" : 139.744438,
        "lat" : 35.619498999999998
      }
    },
    {
      "type" : "Feature",
      "id" : 145,
      "geometry" : {
        "type" : "Point",
        "coordinates" : [
          139.71468800000002,
          35.634136000000069
        ]
      },
      "properties" : {
        "OBJECTID" : 145,
        "name" : "Nonsmoking Single bed Width 120cm / Shinagawa-ku Tokyo",
        "lon" : 139.714688,
        "lat" : 35.634135999999998
      }
    },
    {
      "type" : "Feature",
      "id" : 146,
      "geometry" : {
        "type" : "Point",
        "coordinates" : [
          139.74165000000005,
          35.605053000000055
        ]
      },
      "properties" : {
        "OBJECTID" : 146,
        "name" : "Room 3021 Minute Walk From Samezu Station 9 Minu / Shinagawa-ku Tokyo",
        "lon" : 139.74164999999999,
        "lat" : 35.605052999999998
      }
    },
    {
      "type" : "Feature",
      "id" : 147,
      "geometry" : {
        "type" : "Point",
        "coordinates" : [
          139.71468800000002,
          35.634136000000069
        ]
      },
      "properties" : {
        "OBJECTID" : 147,
        "name" : "Nonsmoking Suite bed Width 120cm x 2 / Shinagawa-ku Tokyo",
        "lon" : 139.714688,
        "lat" : 35.634135999999998
      }
    },
    {
      "type" : "Feature",
      "id" : 148,
      "geometry" : {
        "type" : "Point",
        "coordinates" : [
          139.7471250000001,
          35.621872000000053
        ]
      },
      "properties" : {
        "OBJECTID" : 148,
        "name" : "Chartered Building Water Cottage Superior Double / Shinagawa-ku Tokyo",
        "lon" : 139.74712500000001,
        "lat" : 35.621872000000003
      }
    },
    {
      "type" : "Feature",
      "id" : 149,
      "geometry" : {
        "type" : "Point",
        "coordinates" : [
          139.7199730000001,
          35.622435000000053
        ]
      },
      "properties" : {
        "OBJECTID" : 149,
        "name" : "New Openshibuya 7 Minsonsenwifi",
        "lon" : 139.71997300000001,
        "lat" : 35.622435000000003
      }
    },
    {
      "type" : "Feature",
      "id" : 150,
      "geometry" : {
        "type" : "Point",
        "coordinates" : [
          139.71468800000002,
          35.634136000000069
        ]
      },
      "properties" : {
        "OBJECTID" : 150,
        "name" : "Small Nonsmoking DX Single bed Width 150cm wi / Shinagawa-ku Tokyo",
        "lon" : 139.714688,
        "lat" : 35.634135999999998
      }
    },
    {
      "type" : "Feature",
      "id" : 151,
      "geometry" : {
        "type" : "Point",
        "coordinates" : [
          139.71468800000002,
          35.634136000000069
        ]
      },
      "properties" : {
        "OBJECTID" : 151,
        "name" : "Smoking Spacious DX Single bed Width 150cm wit / Shinagawa-ku Tokyo",
        "lon" : 139.714688,
        "lat" : 35.634135999999998
      }
    },
    {
      "type" : "Feature",
      "id" : 152,
      "geometry" : {
        "type" : "Point",
        "coordinates" : [
          139.767428,
          35.677994000000069
        ]
      },
      "properties" : {
        "OBJECTID" : 152,
        "name" : "Four Seasons Hotel Tokyo at Marunouchi",
        "lon" : 139.767428,
        "lat" : 35.677993999999998
      }
    },
    {
      "type" : "Feature",
      "id" : 153,
      "geometry" : {
        "type" : "Point",
        "coordinates" : [
          139.77303700000004,
          35.687420000000088
        ]
      },
      "properties" : {
        "OBJECTID" : 153,
        "name" : "Mandarin Oriental Tokyo",
        "lon" : 139.77303699999999,
        "lat" : 35.687420000000003
      }
    },
    {
      "type" : "Feature",
      "id" : 154,
      "geometry" : {
        "type" : "Point",
        "coordinates" : [
          139.76966300000004,
          35.677711000000045
        ]
      },
      "properties" : {
        "OBJECTID" : 154,
        "name" : "Courtyard by Marriott Tokyo Station",
        "lon" : 139.76966300000001,
        "lat" : 35.677711000000002
      }
    },
    {
      "type" : "Feature",
      "id" : 155,
      "geometry" : {
        "type" : "Point",
        "coordinates" : [
          139.766347,
          35.669957000000068
        ]
      },
      "properties" : {
        "OBJECTID" : 155,
        "name" : "Millennium Mitsui Garden Hotel Tokyo",
        "lon" : 139.766347,
        "lat" : 35.669956999999997
      }
    },
    {
      "type" : "Feature",
      "id" : 156,
      "geometry" : {
        "type" : "Point",
        "coordinates" : [
          139.76339000000007,
          35.666920000000061
        ]
      },
      "properties" : {
        "OBJECTID" : 156,
        "name" : "Mitsui Garden Hotel Ginza Premier",
        "lon" : 139.76338999999999,
        "lat" : 35.666919999999998
      }
    },
    {
      "type" : "Feature",
      "id" : 157,
      "geometry" : {
        "type" : "Point",
        "coordinates" : [
          139.78608000000008,
          35.682070000000067
        ]
      },
      "properties" : {
        "OBJECTID" : 157,
        "name" : "Royal Park Hotel Tokyo Nihonbashi",
        "lon" : 139.78608,
        "lat" : 35.682070000000003
      }
    },
    {
      "type" : "Feature",
      "id" : 158,
      "geometry" : {
        "type" : "Point",
        "coordinates" : [
          139.762474,
          35.670679000000064
        ]
      },
      "properties" : {
        "OBJECTID" : 158,
        "name" : "Hyatt Centric Ginza Tokyo",
        "lon" : 139.762474,
        "lat" : 35.670679
      }
    },
    {
      "type" : "Feature",
      "id" : 159,
      "geometry" : {
        "type" : "Point",
        "coordinates" : [
          139.75953200000004,
          35.669201000000044
        ]
      },
      "properties" : {
        "OBJECTID" : 159,
        "name" : "Hotel The Celestine Ginza",
        "lon" : 139.75953200000001,
        "lat" : 35.669201000000001
      }
    },
    {
      "type" : "Feature",
      "id" : 160,
      "geometry" : {
        "type" : "Point",
        "coordinates" : [
          139.76497000000006,
          35.668300000000045
        ]
      },
      "properties" : {
        "OBJECTID" : 160,
        "name" : "Courtyard by Marriott Tokyo Ginza",
        "lon" : 139.76497000000001,
        "lat" : 35.668300000000002
      }
    },
    {
      "type" : "Feature",
      "id" : 161,
      "geometry" : {
        "type" : "Point",
        "coordinates" : [
          139.77029800000003,
          35.676965000000052
        ]
      },
      "properties" : {
        "OBJECTID" : 161,
        "name" : "remm Tokyo Kyobashi",
        "lon" : 139.770298,
        "lat" : 35.676965000000003
      }
    },
    {
      "type" : "Feature",
      "id" : 162,
      "geometry" : {
        "type" : "Point",
        "coordinates" : [
          139.77086400000007,
          35.683137000000045
        ]
      },
      "properties" : {
        "OBJECTID" : 162,
        "name" : "Hotel Ryumeikan Tokyo",
        "lon" : 139.77086399999999,
        "lat" : 35.683137000000002
      }
    },
    {
      "type" : "Feature",
      "id" : 163,
      "geometry" : {
        "type" : "Point",
        "coordinates" : [
          139.76922100000002,
          35.673969000000056
        ]
      },
      "properties" : {
        "OBJECTID" : 163,
        "name" : "Hotel Monterey La Soeur Ginza",
        "lon" : 139.76922099999999,
        "lat" : 35.673969
      }
    },
    {
      "type" : "Feature",
      "id" : 164,
      "geometry" : {
        "type" : "Point",
        "coordinates" : [
          139.76359200000002,
          35.667740000000038
        ]
      },
      "properties" : {
        "OBJECTID" : 164,
        "name" : "HOTEL MUSSE GINZA MEITETSU",
        "lon" : 139.76359199999999,
        "lat" : 35.667740000000002
      }
    },
    {
      "type" : "Feature",
      "id" : 165,
      "geometry" : {
        "type" : "Point",
        "coordinates" : [
          139.77147400000001,
          35.688907000000086
        ]
      },
      "properties" : {
        "OBJECTID" : 165,
        "name" : "GATE STAY Premium Nihonbashi",
        "lon" : 139.77147400000001,
        "lat" : 35.688907
      }
    },
    {
      "type" : "Feature",
      "id" : 166,
      "geometry" : {
        "type" : "Point",
        "coordinates" : [
          139.76927000000001,
          35.672202000000084
        ]
      },
      "properties" : {
        "OBJECTID" : 166,
        "name" : "the square hotel GINZA",
        "lon" : 139.76927000000001,
        "lat" : 35.672201999999999
      }
    },
    {
      "type" : "Feature",
      "id" : 167,
      "geometry" : {
        "type" : "Point",
        "coordinates" : [
          139.76982400000009,
          35.673545000000047
        ]
      },
      "properties" : {
        "OBJECTID" : 167,
        "name" : "Hotel Sunroute Ginza",
        "lon" : 139.769824,
        "lat" : 35.673544999999997
      }
    },
    {
      "type" : "Feature",
      "id" : 168,
      "geometry" : {
        "type" : "Point",
        "coordinates" : [
          139.77761400000009,
          35.67232000000007
        ]
      },
      "properties" : {
        "OBJECTID" : 168,
        "name" : "GATE STAY TOKYO Sta. HATCHOBORI",
        "lon" : 139.777614,
        "lat" : 35.672319999999999
      }
    },
    {
      "type" : "Feature",
      "id" : 169,
      "geometry" : {
        "type" : "Point",
        "coordinates" : [
          139.76363900000001,
          35.669052000000079
        ]
      },
      "properties" : {
        "OBJECTID" : 169,
        "name" : "Hotel Gracery Ginza",
        "lon" : 139.76363900000001,
        "lat" : 35.669052000000001
      }
    },
    {
      "type" : "Feature",
      "id" : 170,
      "geometry" : {
        "type" : "Point",
        "coordinates" : [
          139.76673000000005,
          35.669132000000047
        ]
      },
      "properties" : {
        "OBJECTID" : 170,
        "name" : "Mitsui Garden Hotel Ginza-gochome",
        "lon" : 139.76673,
        "lat" : 35.669131999999998
      }
    },
    {
      "type" : "Feature",
      "id" : 171,
      "geometry" : {
        "type" : "Point",
        "coordinates" : [
          139.78637400000002,
          35.680289000000073
        ]
      },
      "properties" : {
        "OBJECTID" : 171,
        "name" : "HOTEL AXAS NIHONBASHI",
        "lon" : 139.786374,
        "lat" : 35.680289000000002
      }
    },
    {
      "type" : "Feature",
      "id" : 172,
      "geometry" : {
        "type" : "Point",
        "coordinates" : [
          139.77096700000004,
          35.678288000000066
        ]
      },
      "properties" : {
        "OBJECTID" : 172,
        "name" : "Mitsui Garden Hotel Kyobashi",
        "lon" : 139.77096700000001,
        "lat" : 35.678288000000002
      }
    },
    {
      "type" : "Feature",
      "id" : 173,
      "geometry" : {
        "type" : "Point",
        "coordinates" : [
          139.77305699999999,
          35.688353000000063
        ]
      },
      "properties" : {
        "OBJECTID" : 173,
        "name" : "Mitsui Garden Hotel Nihonbashi Premier",
        "lon" : 139.77305699999999,
        "lat" : 35.688352999999999
      }
    },
    {
      "type" : "Feature",
      "id" : 174,
      "geometry" : {
        "type" : "Point",
        "coordinates" : [
          139.76854000000003,
          35.672791000000075
        ]
      },
      "properties" : {
        "OBJECTID" : 174,
        "name" : "Mercure Hotel Ginza Tokyo",
        "lon" : 139.76854,
        "lat" : 35.672790999999997
      }
    },
    {
      "type" : "Feature",
      "id" : 175,
      "geometry" : {
        "type" : "Point",
        "coordinates" : [
          139.76241000000005,
          35.668300000000045
        ]
      },
      "properties" : {
        "OBJECTID" : 175,
        "name" : "The Royal Park Canvas - Ginza 8",
        "lon" : 139.76240999999999,
        "lat" : 35.668300000000002
      }
    },
    {
      "type" : "Feature",
      "id" : 176,
      "geometry" : {
        "type" : "Point",
        "coordinates" : [
          139.76889500000004,
          35.673249000000055
        ]
      },
      "properties" : {
        "OBJECTID" : 176,
        "name" : "Daiwa Roynet Hotel Ginza",
        "lon" : 139.76889499999999,
        "lat" : 35.673248999999998
      }
    },
    {
      "type" : "Feature",
      "id" : 177,
      "geometry" : {
        "type" : "Point",
        "coordinates" : [
          139.76275500000008,
          35.667330000000049
        ]
      },
      "properties" : {
        "OBJECTID" : 177,
        "name" : "the b ginza",
        "lon" : 139.762755,
        "lat" : 35.66733
      }
    },
    {
      "type" : "Feature",
      "id" : 178,
      "geometry" : {
        "type" : "Point",
        "coordinates" : [
          139.77099200000009,
          35.675631000000067
        ]
      },
      "properties" : {
        "OBJECTID" : 178,
        "name" : "HOTEL INTERGATE TOKYO KYOBASHI",
        "lon" : 139.77099200000001,
        "lat" : 35.675631000000003
      }
    },
    {
      "type" : "Feature",
      "id" : 179,
      "geometry" : {
        "type" : "Point",
        "coordinates" : [
          139.777961,
          35.667057000000057
        ]
      },
      "properties" : {
        "OBJECTID" : 179,
        "name" : "Ginza Creston",
        "lon" : 139.777961,
        "lat" : 35.667057
      }
    },
    {
      "type" : "Feature",
      "id" : 180,
      "geometry" : {
        "type" : "Point",
        "coordinates" : [
          139.78934200000003,
          35.684675000000084
        ]
      },
      "properties" : {
        "OBJECTID" : 180,
        "name" : "HAMACHO HOTEL TOKYO NIHONBASHI",
        "lon" : 139.789342,
        "lat" : 35.684674999999999
      }
    },
    {
      "type" : "Feature",
      "id" : 181,
      "geometry" : {
        "type" : "Point",
        "coordinates" : [
          139.76911600000005,
          35.672854000000086
        ]
      },
      "properties" : {
        "OBJECTID" : 181,
        "name" : "Hotel Monterey Ginza",
        "lon" : 139.769116,
        "lat" : 35.672854000000001
      }
    },
    {
      "type" : "Feature",
      "id" : 182,
      "geometry" : {
        "type" : "Point",
        "coordinates" : [
          139.78502100000003,
          35.681595000000073
        ]
      },
      "properties" : {
        "OBJECTID" : 182,
        "name" : "GATE STAY Nihonbashi Suitengumae",
        "lon" : 139.785021,
        "lat" : 35.681595000000002
      }
    },
    {
      "type" : "Feature",
      "id" : 183,
      "geometry" : {
        "type" : "Point",
        "coordinates" : [
          139.76745200000005,
          35.670941000000084
        ]
      },
      "properties" : {
        "OBJECTID" : 183,
        "name" : "Solaria Nishitetsu Hotel Ginza",
        "lon" : 139.76745199999999,
        "lat" : 35.670940999999999
      }
    },
    {
      "type" : "Feature",
      "id" : 184,
      "geometry" : {
        "type" : "Point",
        "coordinates" : [
          139.7598230000001,
          35.66810600000008
        ]
      },
      "properties" : {
        "OBJECTID" : 184,
        "name" : "Ginza Grand Hotel",
        "lon" : 139.75982300000001,
        "lat" : 35.668106000000002
      }
    },
    {
      "type" : "Feature",
      "id" : 185,
      "geometry" : {
        "type" : "Point",
        "coordinates" : [
          139.78721500000006,
          35.687003000000061
        ]
      },
      "properties" : {
        "OBJECTID" : 185,
        "name" : "Hotel Trusty Premier Nihonbashi Hamacho",
        "lon" : 139.787215,
        "lat" : 35.687002999999997
      }
    },
    {
      "type" : "Feature",
      "id" : 186,
      "geometry" : {
        "type" : "Point",
        "coordinates" : [
          139.77166800000009,
          35.669231000000082
        ]
      },
      "properties" : {
        "OBJECTID" : 186,
        "name" : "TSUKI Tokyo",
        "lon" : 139.77166800000001,
        "lat" : 35.669231000000003
      }
    },
    {
      "type" : "Feature",
      "id" : 187,
      "geometry" : {
        "type" : "Point",
        "coordinates" : [
          139.77501200000006,
          35.669236000000069
        ]
      },
      "properties" : {
        "OBJECTID" : 187,
        "name" : "HOTEL KEIHAN TSUKIJI GINZA GRANDE",
        "lon" : 139.775012,
        "lat" : 35.669235999999998
      }
    },
    {
      "type" : "Feature",
      "id" : 188,
      "geometry" : {
        "type" : "Point",
        "coordinates" : [
          139.78394300000002,
          35.684975000000065
        ]
      },
      "properties" : {
        "OBJECTID" : 188,
        "name" : "Condominium KEYAKI-AN Tokyo Nihonbashi",
        "lon" : 139.78394299999999,
        "lat" : 35.684975000000001
      }
    },
    {
      "type" : "Feature",
      "id" : 189,
      "geometry" : {
        "type" : "Point",
        "coordinates" : [
          139.77299400000004,
          35.665953000000059
        ]
      },
      "properties" : {
        "OBJECTID" : 189,
        "name" : "intheHood: Tsukiji",
        "lon" : 139.77299400000001,
        "lat" : 35.665953000000002
      }
    },
    {
      "type" : "Feature",
      "id" : 190,
      "geometry" : {
        "type" : "Point",
        "coordinates" : [
          139.77554300000008,
          35.665512000000035
        ]
      },
      "properties" : {
        "OBJECTID" : 190,
        "name" : "Spatium Ginza",
        "lon" : 139.775543,
        "lat" : 35.665512
      }
    },
    {
      "type" : "Feature",
      "id" : 191,
      "geometry" : {
        "type" : "Point",
        "coordinates" : [
          139.76234100000011,
          35.667444000000046
        ]
      },
      "properties" : {
        "OBJECTID" : 191,
        "name" : "remm plus Ginza",
        "lon" : 139.76234099999999,
        "lat" : 35.667444000000003
      }
    },
    {
      "type" : "Feature",
      "id" : 192,
      "geometry" : {
        "type" : "Point",
        "coordinates" : [
          139.77601200000004,
          35.677175000000034
        ]
      },
      "properties" : {
        "OBJECTID" : 192,
        "name" : "Hotel Yae no Midori Tokyo",
        "lon" : 139.77601200000001,
        "lat" : 35.677174999999998
      }
    },
    {
      "type" : "Feature",
      "id" : 193,
      "geometry" : {
        "type" : "Point",
        "coordinates" : [
          139.77440100000001,
          35.673215000000084
        ]
      },
      "properties" : {
        "OBJECTID" : 193,
        "name" : "APA Hotel Shintomicho-Ekikita",
        "lon" : 139.77440100000001,
        "lat" : 35.673214999999999
      }
    },
    {
      "type" : "Feature",
      "id" : 194,
      "geometry" : {
        "type" : "Point",
        "coordinates" : [
          139.77457700000002,
          35.689773000000059
        ]
      },
      "properties" : {
        "OBJECTID" : 194,
        "name" : "HOTEL Kazusaya",
        "lon" : 139.77457699999999,
        "lat" : 35.689773000000002
      }
    },
    {
      "type" : "Feature",
      "id" : 195,
      "geometry" : {
        "type" : "Point",
        "coordinates" : [
          139.77334400000007,
          35.664871000000062
        ]
      },
      "properties" : {
        "OBJECTID" : 195,
        "name" : "hotel MONday Premium GINZA-TSUKIJI",
        "lon" : 139.77334400000001,
        "lat" : 35.664870999999998
      }
    },
    {
      "type" : "Feature",
      "id" : 196,
      "geometry" : {
        "type" : "Point",
        "coordinates" : [
          139.78031600000008,
          35.680790000000059
        ]
      },
      "properties" : {
        "OBJECTID" : 196,
        "name" : "Keio Presso Inn Nihonbashi Kayabacho",
        "lon" : 139.780316,
        "lat" : 35.680790000000002
      }
    },
    {
      "type" : "Feature",
      "id" : 197,
      "geometry" : {
        "type" : "Point",
        "coordinates" : [
          139.77618000000007,
          35.686063000000047
        ]
      },
      "properties" : {
        "OBJECTID" : 197,
        "name" : "Smile Hotel Nihombashi-Mitsukoshimae",
        "lon" : 139.77618000000001,
        "lat" : 35.686062999999997
      }
    },
    {
      "type" : "Feature",
      "id" : 198,
      "geometry" : {
        "type" : "Point",
        "coordinates" : [
          139.78282000000002,
          35.694320000000062
        ]
      },
      "properties" : {
        "OBJECTID" : 198,
        "name" : "LY INN Tokyo Nihonbashi",
        "lon" : 139.78281999999999,
        "lat" : 35.694319999999998
      }
    },
    {
      "type" : "Feature",
      "id" : 199,
      "geometry" : {
        "type" : "Point",
        "coordinates" : [
          139.77731400000005,
          35.686104000000057
        ]
      },
      "properties" : {
        "OBJECTID" : 199,
        "name" : "Hotel Villa Fontaine Tokyo-Nihombashi Mitsukoshimae",
        "lon" : 139.77731399999999,
        "lat" : 35.686104
      }
    },
    {
      "type" : "Feature",
      "id" : 200,
      "geometry" : {
        "type" : "Point",
        "coordinates" : [
          139.78612200000009,
          35.680508000000088
        ]
      },
      "properties" : {
        "OBJECTID" : 200,
        "name" : "Hotel Villa Fontaine Tokyo-Nihombashi Hakozaki",
        "lon" : 139.78612200000001,
        "lat" : 35.680508000000003
      }
    },
    {
      "type" : "Feature",
      "id" : 201,
      "geometry" : {
        "type" : "Point",
        "coordinates" : [
          139.77177500000005,
          35.67440600000009
        ]
      },
      "properties" : {
        "OBJECTID" : 201,
        "name" : "APA Hotel Ginza-Takaracho",
        "lon" : 139.77177499999999,
        "lat" : 35.674405999999998
      }
    },
    {
      "type" : "Feature",
      "id" : 202,
      "geometry" : {
        "type" : "Point",
        "coordinates" : [
          139.782782,
          35.678470000000061
        ]
      },
      "properties" : {
        "OBJECTID" : 202,
        "name" : "Hotel Villa Fontaine Tokyo-Kayabacho",
        "lon" : 139.782782,
        "lat" : 35.678469999999997
      }
    },
    {
      "type" : "Feature",
      "id" : 203,
      "geometry" : {
        "type" : "Point",
        "coordinates" : [
          139.77792900000009,
          35.677864000000056
        ]
      },
      "properties" : {
        "OBJECTID" : 203,
        "name" : "Hotel Villa Fontaine Tokyo-Hatchobori",
        "lon" : 139.777929,
        "lat" : 35.677864
      }
    },
    {
      "type" : "Feature",
      "id" : 204,
      "geometry" : {
        "type" : "Point",
        "coordinates" : [
          139.77021100000002,
          35.666924000000051
        ]
      },
      "properties" : {
        "OBJECTID" : 204,
        "name" : "Via Inn Higashi Ginza",
        "lon" : 139.77021099999999,
        "lat" : 35.666924000000002
      }
    },
    {
      "type" : "Feature",
      "id" : 205,
      "geometry" : {
        "type" : "Point",
        "coordinates" : [
          139.77083600000003,
          35.677394000000049
        ]
      },
      "properties" : {
        "OBJECTID" : 205,
        "name" : "DaiwaRoynetHotel Tokyo Kyobashi",
        "lon" : 139.770836,
        "lat" : 35.677394
      }
    },
    {
      "type" : "Feature",
      "id" : 206,
      "geometry" : {
        "type" : "Point",
        "coordinates" : [
          139.78547900000001,
          35.689203000000077
        ]
      },
      "properties" : {
        "OBJECTID" : 206,
        "name" : "Toyoko Inn Tokyo Nihombashi Hamacho Meijiza Mae",
        "lon" : 139.78547900000001,
        "lat" : 35.689202999999999
      }
    },
    {
      "type" : "Feature",
      "id" : 207,
      "geometry" : {
        "type" : "Point",
        "coordinates" : [
          139.78105700000003,
          35.691162000000077
        ]
      },
      "properties" : {
        "OBJECTID" : 207,
        "name" : "Toyoko Inn Tokyo Nihombashi",
        "lon" : 139.781057,
        "lat" : 35.691161999999998
      }
    },
    {
      "type" : "Feature",
      "id" : 208,
      "geometry" : {
        "type" : "Point",
        "coordinates" : [
          139.78102100000001,
          35.683288000000061
        ]
      },
      "properties" : {
        "OBJECTID" : 208,
        "name" : "Toyoko Inn Tokyo Nihombashi Ningyocho",
        "lon" : 139.78102100000001,
        "lat" : 35.683287999999997
      }
    },
    {
      "type" : "Feature",
      "id" : 209,
      "geometry" : {
        "type" : "Point",
        "coordinates" : [
          139.79055900000003,
          35.687396000000035
        ]
      },
      "properties" : {
        "OBJECTID" : 209,
        "name" : "Toyoko Inn Tokyo-eki Shin-ohashi Mae",
        "lon" : 139.790559,
        "lat" : 35.687396
      }
    },
    {
      "type" : "Feature",
      "id" : 210,
      "geometry" : {
        "type" : "Point",
        "coordinates" : [
          139.77870200000007,
          35.658855000000074
        ]
      },
      "properties" : {
        "OBJECTID" : 210,
        "name" : "Tokyo BUC Nakagin",
        "lon" : 139.77870200000001,
        "lat" : 35.658855000000003
      }
    },
    {
      "type" : "Feature",
      "id" : 211,
      "geometry" : {
        "type" : "Point",
        "coordinates" : [
          139.78315100000009,
          35.695170000000076
        ]
      },
      "properties" : {
        "OBJECTID" : 211,
        "name" : "Toyoko Inn Tokyo Kanda Akihabara",
        "lon" : 139.783151,
        "lat" : 35.695169999999997
      }
    },
    {
      "type" : "Feature",
      "id" : 212,
      "geometry" : {
        "type" : "Point",
        "coordinates" : [
          139.78150300000004,
          35.689903000000072
        ]
      },
      "properties" : {
        "OBJECTID" : 212,
        "name" : "Toyoko Inn Tokyo Nihombashi Zeimusho Mae",
        "lon" : 139.78150299999999,
        "lat" : 35.689903000000001
      }
    },
    {
      "type" : "Feature",
      "id" : 213,
      "geometry" : {
        "type" : "Point",
        "coordinates" : [
          139.78334600000005,
          35.695083000000068
        ]
      },
      "properties" : {
        "OBJECTID" : 213,
        "name" : "DDD HOTEL",
        "lon" : 139.78334599999999,
        "lat" : 35.695082999999997
      }
    },
    {
      "type" : "Feature",
      "id" : 214,
      "geometry" : {
        "type" : "Point",
        "coordinates" : [
          139.79034900000011,
          35.683063000000061
        ]
      },
      "properties" : {
        "OBJECTID" : 214,
        "name" : "S-PERIA-INN NIHOMBASHI HAKOZAKI",
        "lon" : 139.79034899999999,
        "lat" : 35.683062999999997
      }
    },
    {
      "type" : "Feature",
      "id" : 215,
      "geometry" : {
        "type" : "Point",
        "coordinates" : [
          139.77872300000001,
          35.687111000000073
        ]
      },
      "properties" : {
        "OBJECTID" : 215,
        "name" : "Toyoko Inn Tokyo Nihombashi Mitsukoshi Mae A4",
        "lon" : 139.77872300000001,
        "lat" : 35.687111000000002
      }
    },
    {
      "type" : "Feature",
      "id" : 216,
      "geometry" : {
        "type" : "Point",
        "coordinates" : [
          139.7699990000001,
          35.67204200000009
        ]
      },
      "properties" : {
        "OBJECTID" : 216,
        "name" : "Lang Hotel",
        "lon" : 139.76999900000001,
        "lat" : 35.672041999999998
      }
    },
    {
      "type" : "Feature",
      "id" : 217,
      "geometry" : {
        "type" : "Point",
        "coordinates" : [
          139.7735990000001,
          35.671678000000043
        ]
      },
      "properties" : {
        "OBJECTID" : 217,
        "name" : "APA Hotel Shintomicho-Ekimae",
        "lon" : 139.77359899999999,
        "lat" : 35.671678
      }
    },
    {
      "type" : "Feature",
      "id" : 218,
      "geometry" : {
        "type" : "Point",
        "coordinates" : [
          139.77486600000009,
          35.666142000000036
        ]
      },
      "properties" : {
        "OBJECTID" : 218,
        "name" : "APA Hotel Tsukiji-Eki-Minami",
        "lon" : 139.774866,
        "lat" : 35.666142000000001
      }
    },
    {
      "type" : "Feature",
      "id" : 219,
      "geometry" : {
        "type" : "Point",
        "coordinates" : [
          139.76327100000003,
          35.668288000000075
        ]
      },
      "properties" : {
        "OBJECTID" : 219,
        "name" : "Sotetsu Fresa Inn Ginza-Nanachome",
        "lon" : 139.763271,
        "lat" : 35.668287999999997
      }
    },
    {
      "type" : "Feature",
      "id" : 220,
      "geometry" : {
        "type" : "Point",
        "coordinates" : [
          139.78150300000004,
          35.688360000000046
        ]
      },
      "properties" : {
        "OBJECTID" : 220,
        "name" : "APA Hotel Ningyocho-Eki-Kita",
        "lon" : 139.78150299999999,
        "lat" : 35.688360000000003
      }
    },
    {
      "type" : "Feature",
      "id" : 221,
      "geometry" : {
        "type" : "Point",
        "coordinates" : [
          139.77862700000003,
          35.668913000000089
        ]
      },
      "properties" : {
        "OBJECTID" : 221,
        "name" : "GH One More Heart TSUKIJI 1",
        "lon" : 139.778627,
        "lat" : 35.668913000000003
      }
    },
    {
      "type" : "Feature",
      "id" : 222,
      "geometry" : {
        "type" : "Point",
        "coordinates" : [
          139.76966000000004,
          35.687938000000088
        ]
      },
      "properties" : {
        "OBJECTID" : 222,
        "name" : "Keio Presso Inn Otemachi",
        "lon" : 139.76965999999999,
        "lat" : 35.687938000000003
      }
    },
    {
      "type" : "Feature",
      "id" : 223,
      "geometry" : {
        "type" : "Point",
        "coordinates" : [
          139.77881100000002,
          35.687598000000037
        ]
      },
      "properties" : {
        "OBJECTID" : 223,
        "name" : "Super Hotel Tokyo Nihonbashi Mitsukoshimae",
        "lon" : 139.77881099999999,
        "lat" : 35.687598000000001
      }
    },
    {
      "type" : "Feature",
      "id" : 224,
      "geometry" : {
        "type" : "Point",
        "coordinates" : [
          139.76774900000009,
          35.671806000000061
        ]
      },
      "properties" : {
        "OBJECTID" : 224,
        "name" : "Sotetsu Fresa Inn Ginza-Sanchome",
        "lon" : 139.76774900000001,
        "lat" : 35.671805999999997
      }
    },
    {
      "type" : "Feature",
      "id" : 225,
      "geometry" : {
        "type" : "Point",
        "coordinates" : [
          139.77114800000004,
          35.675078000000042
        ]
      },
      "properties" : {
        "OBJECTID" : 225,
        "name" : "Hotel SUI Ginza Kyobashi by ABEST",
        "lon" : 139.77114800000001,
        "lat" : 35.675077999999999
      }
    },
    {
      "type" : "Feature",
      "id" : 226,
      "geometry" : {
        "type" : "Point",
        "coordinates" : [
          139.77172800000005,
          35.676526000000081
        ]
      },
      "properties" : {
        "OBJECTID" : 226,
        "name" : "Sotetsu Fresa Inn Tokyo Kyobashi",
        "lon" : 139.771728,
        "lat" : 35.676526000000003
      }
    },
    {
      "type" : "Feature",
      "id" : 227,
      "geometry" : {
        "type" : "Point",
        "coordinates" : [
          139.77849800000001,
          35.676559000000054
        ]
      },
      "properties" : {
        "OBJECTID" : 227,
        "name" : "Hotel Sardonyx Tokyo",
        "lon" : 139.77849800000001,
        "lat" : 35.676558999999997
      }
    },
    {
      "type" : "Feature",
      "id" : 228,
      "geometry" : {
        "type" : "Point",
        "coordinates" : [
          139.78488300000004,
          35.692760000000078
        ]
      },
      "properties" : {
        "OBJECTID" : 228,
        "name" : "APA Hotel Higashi-Nihombashi-Ekimae",
        "lon" : 139.78488300000001,
        "lat" : 35.69276
      }
    },
    {
      "type" : "Feature",
      "id" : 229,
      "geometry" : {
        "type" : "Point",
        "coordinates" : [
          139.774225,
          35.669189000000074
        ]
      },
      "properties" : {
        "OBJECTID" : 229,
        "name" : "Ginza Capital Hotel Moegi",
        "lon" : 139.774225,
        "lat" : 35.669189000000003
      }
    },
    {
      "type" : "Feature",
      "id" : 230,
      "geometry" : {
        "type" : "Point",
        "coordinates" : [
          139.77514600000006,
          35.671799000000078
        ]
      },
      "properties" : {
        "OBJECTID" : 230,
        "name" : "APA Hotel Hatchobori Shintomicho",
        "lon" : 139.77514600000001,
        "lat" : 35.671799
      }
    },
    {
      "type" : "Feature",
      "id" : 231,
      "geometry" : {
        "type" : "Point",
        "coordinates" : [
          139.78234400000008,
          35.693149000000062
        ]
      },
      "properties" : {
        "OBJECTID" : 231,
        "name" : "APA Hotel Nihombashi Bakurocho-Ekimae",
        "lon" : 139.78234399999999,
        "lat" : 35.693148999999998
      }
    },
    {
      "type" : "Feature",
      "id" : 232,
      "geometry" : {
        "type" : "Point",
        "coordinates" : [
          139.77095400000007,
          35.665733000000046
        ]
      },
      "properties" : {
        "OBJECTID" : 232,
        "name" : "Tokyu Stay Tsukiji",
        "lon" : 139.77095399999999,
        "lat" : 35.665733000000003
      }
    },
    {
      "type" : "Feature",
      "id" : 233,
      "geometry" : {
        "type" : "Point",
        "coordinates" : [
          139.77523700000006,
          35.690157000000056
        ]
      },
      "properties" : {
        "OBJECTID" : 233,
        "name" : "Tokyu Stay Nihombashi",
        "lon" : 139.775237,
        "lat" : 35.690156999999999
      }
    },
    {
      "type" : "Feature",
      "id" : 234,
      "geometry" : {
        "type" : "Point",
        "coordinates" : [
          139.7803530000001,
          35.685453000000052
        ]
      },
      "properties" : {
        "OBJECTID" : 234,
        "name" : "Hotel Nihonbashi Saibo",
        "lon" : 139.78035299999999,
        "lat" : 35.685453000000003
      }
    },
    {
      "type" : "Feature",
      "id" : 235,
      "geometry" : {
        "type" : "Point",
        "coordinates" : [
          139.76938200000006,
          35.680434000000048
        ]
      },
      "properties" : {
        "OBJECTID" : 235,
        "name" : "Ramue 203",
        "lon" : 139.76938200000001,
        "lat" : 35.680433999999998
      }
    },
    {
      "type" : "Feature",
      "id" : 236,
      "geometry" : {
        "type" : "Point",
        "coordinates" : [
          139.78351400000008,
          35.689549000000056
        ]
      },
      "properties" : {
        "OBJECTID" : 236,
        "name" : "MONday Apart NIHONBASHI NINGYOCHO",
        "lon" : 139.783514,
        "lat" : 35.689549
      }
    },
    {
      "type" : "Feature",
      "id" : 237,
      "geometry" : {
        "type" : "Point",
        "coordinates" : [
          139.76987800000006,
          35.678963000000067
        ]
      },
      "properties" : {
        "OBJECTID" : 237,
        "name" : "Keio Presso Inn Tokyo Station Yaesu",
        "lon" : 139.76987800000001,
        "lat" : 35.678963000000003
      }
    },
    {
      "type" : "Feature",
      "id" : 238,
      "geometry" : {
        "type" : "Point",
        "coordinates" : [
          139.78091700000004,
          35.674520000000086
        ]
      },
      "properties" : {
        "OBJECTID" : 238,
        "name" : "Dormy Inn Tokyo-Hatchobori Natural Hot Spring",
        "lon" : 139.78091699999999,
        "lat" : 35.674520000000001
      }
    },
    {
      "type" : "Feature",
      "id" : 239,
      "geometry" : {
        "type" : "Point",
        "coordinates" : [
          139.7705850000001,
          35.67530400000004
        ]
      },
      "properties" : {
        "OBJECTID" : 239,
        "name" : "APA Hotel Ginza-Kyobashi",
        "lon" : 139.77058500000001,
        "lat" : 35.675303999999997
      }
    },
    {
      "type" : "Feature",
      "id" : 240,
      "geometry" : {
        "type" : "Point",
        "coordinates" : [
          139.77940700000011,
          35.654919000000064
        ]
      },
      "properties" : {
        "OBJECTID" : 240,
        "name" : "HOTEL FUKURACIA Harumi",
        "lon" : 139.77940699999999,
        "lat" : 35.654919
      }
    },
    {
      "type" : "Feature",
      "id" : 241,
      "geometry" : {
        "type" : "Point",
        "coordinates" : [
          139.78243200000009,
          35.683200000000056
        ]
      },
      "properties" : {
        "OBJECTID" : 241,
        "name" : "Sotetsu Fresa Inn Nihombashi-Ningyocho",
        "lon" : 139.782432,
        "lat" : 35.683199999999999
      }
    },
    {
      "type" : "Feature",
      "id" : 242,
      "geometry" : {
        "type" : "Point",
        "coordinates" : [
          139.77496900000006,
          35.684408000000076
        ]
      },
      "properties" : {
        "OBJECTID" : 242,
        "name" : "Tenmatsu Building",
        "lon" : 139.774969,
        "lat" : 35.684407999999998
      }
    },
    {
      "type" : "Feature",
      "id" : 243,
      "geometry" : {
        "type" : "Point",
        "coordinates" : [
          139.77752500000008,
          35.671064000000058
        ]
      },
      "properties" : {
        "OBJECTID" : 243,
        "name" : "Moonoka Hotel Ginza",
        "lon" : 139.777525,
        "lat" : 35.671064000000001
      }
    },
    {
      "type" : "Feature",
      "id" : 244,
      "geometry" : {
        "type" : "Point",
        "coordinates" : [
          139.77558600000009,
          35.673254000000043
        ]
      },
      "properties" : {
        "OBJECTID" : 244,
        "name" : "Section L Ginza East",
        "lon" : 139.775586,
        "lat" : 35.673254
      }
    },
    {
      "type" : "Feature",
      "id" : 245,
      "geometry" : {
        "type" : "Point",
        "coordinates" : [
          139.77146200000004,
          35.665824000000043
        ]
      },
      "properties" : {
        "OBJECTID" : 245,
        "name" : "OYO Tsukiji Business Hotel BAN",
        "lon" : 139.77146200000001,
        "lat" : 35.665824000000001
      }
    },
    {
      "type" : "Feature",
      "id" : 246,
      "geometry" : {
        "type" : "Point",
        "coordinates" : [
          139.77807500000006,
          35.678547000000037
        ]
      },
      "properties" : {
        "OBJECTID" : 246,
        "name" : "KEIKYU EX INN TOKYO NIHOMBASHI / Opening on April 7th 2020",
        "lon" : 139.778075,
        "lat" : 35.678547000000002
      }
    },
    {
      "type" : "Feature",
      "id" : 247,
      "geometry" : {
        "type" : "Point",
        "coordinates" : [
          139.78164300000003,
          35.688760000000059
        ]
      },
      "properties" : {
        "OBJECTID" : 247,
        "name" : "APA Hotel Ningyocho Ekihigashi",
        "lon" : 139.781643,
        "lat" : 35.688760000000002
      }
    },
    {
      "type" : "Feature",
      "id" : 248,
      "geometry" : {
        "type" : "Point",
        "coordinates" : [
          139.78004700000008,
          35.685219000000075
        ]
      },
      "properties" : {
        "OBJECTID" : 248,
        "name" : "VIA INN Nihonbashi Ningyocho",
        "lon" : 139.780047,
        "lat" : 35.685218999999996
      }
    },
    {
      "type" : "Feature",
      "id" : 249,
      "geometry" : {
        "type" : "Point",
        "coordinates" : [
          139.7682880000001,
          35.666727000000037
        ]
      },
      "properties" : {
        "OBJECTID" : 249,
        "name" : "Hotel Vista Tokyo Tsukiji",
        "lon" : 139.76828800000001,
        "lat" : 35.666727000000002
      }
    },
    {
      "type" : "Feature",
      "id" : 250,
      "geometry" : {
        "type" : "Point",
        "coordinates" : [
          139.78400000000011,
          35.682400000000086
        ]
      },
      "properties" : {
        "OBJECTID" : 250,
        "name" : "Hotel Corest â Adults Only",
        "lon" : 139.78399999999999,
        "lat" : 35.682400000000001
      }
    },
    {
      "type" : "Feature",
      "id" : 251,
      "geometry" : {
        "type" : "Point",
        "coordinates" : [
          139.77973800000007,
          35.679110000000037
        ]
      },
      "properties" : {
        "OBJECTID" : 251,
        "name" : "Smile Hotel Tokyo Nihonbashi",
        "lon" : 139.77973800000001,
        "lat" : 35.679110000000001
      }
    },
    {
      "type" : "Feature",
      "id" : 252,
      "geometry" : {
        "type" : "Point",
        "coordinates" : [
          139.77300600000001,
          35.667658000000074
        ]
      },
      "properties" : {
        "OBJECTID" : 252,
        "name" : "HOTEL ANN TSUKIJI",
        "lon" : 139.77300600000001,
        "lat" : 35.667658000000003
      }
    },
    {
      "type" : "Feature",
      "id" : 253,
      "geometry" : {
        "type" : "Point",
        "coordinates" : [
          139.78212500000006,
          35.681990000000042
        ]
      },
      "properties" : {
        "OBJECTID" : 253,
        "name" : "Almont Inn Nihonbashi",
        "lon" : 139.78212500000001,
        "lat" : 35.681989999999999
      }
    },
    {
      "type" : "Feature",
      "id" : 254,
      "geometry" : {
        "type" : "Point",
        "coordinates" : [
          139.77989300000002,
          35.680706000000043
        ]
      },
      "properties" : {
        "OBJECTID" : 254,
        "name" : "Sotetsu Fresa Inn Nihombashi-Kayabacho",
        "lon" : 139.77989299999999,
        "lat" : 35.680706000000001
      }
    },
    {
      "type" : "Feature",
      "id" : 255,
      "geometry" : {
        "type" : "Point",
        "coordinates" : [
          139.77938900000004,
          35.685518000000059
        ]
      },
      "properties" : {
        "OBJECTID" : 255,
        "name" : "Sumisho Hotel",
        "lon" : 139.77938900000001,
        "lat" : 35.685518000000002
      }
    },
    {
      "type" : "Feature",
      "id" : 256,
      "geometry" : {
        "type" : "Point",
        "coordinates" : [
          139.78318899999999,
          35.693981000000065
        ]
      },
      "properties" : {
        "OBJECTID" : 256,
        "name" : "Comfort Hotel Tokyo Higashi Nihombashi",
        "lon" : 139.78318899999999,
        "lat" : 35.693981000000001
      }
    },
    {
      "type" : "Feature",
      "id" : 257,
      "geometry" : {
        "type" : "Point",
        "coordinates" : [
          139.78751099999999,
          35.683854000000053
        ]
      },
      "properties" : {
        "OBJECTID" : 257,
        "name" : "City Pension Zem",
        "lon" : 139.78751099999999,
        "lat" : 35.683853999999997
      }
    },
    {
      "type" : "Feature",
      "id" : 258,
      "geometry" : {
        "type" : "Point",
        "coordinates" : [
          139.77119400000004,
          35.682116000000065
        ]
      },
      "properties" : {
        "OBJECTID" : 258,
        "name" : "karaksa hotel TOKYO STATION",
        "lon" : 139.77119400000001,
        "lat" : 35.682116000000001
      }
    },