{
  "type" : "FeatureCollection",
  "features" : [
    {
      "type" : "Feature",
      "id" : 1,
      "geometry" : {
        "type" : "Point",
        "coordinates" : [
          139.77276600000005,
          35.702695000000062
        ]
      },
      "properties" : {
        "OBJECTID" : 1,
        "name" : "ほっぺるランド外神田",
        "lon" : 139.77276599999999,
        "lat" : 35.702694999999999
      }
    },
    {
      "type" : "Feature",
      "id" : 2,
      "geometry" : {
        "type" : "Point",
        "coordinates" : [
          139.76985999999999,
          35.702460000000087
        ]
      },
      "properties" : {
        "OBJECTID" : 2,
        "name" : "外神田かなりや保育園",
        "lon" : 139.76985999999999,
        "lat" : 35.702460000000002
      }
    },
    {
      "type" : "Feature",
      "id" : 3,
      "geometry" : {
        "type" : "Point",
        "coordinates" : [
          139.77847400000007,
          35.699154000000078
        ]
      },
      "properties" : {
        "OBJECTID" : 3,
        "name" : "いずみこども園",
        "lon" : 139.77847399999999,
        "lat" : 35.699154
      }
    },
    {
      "type" : "Feature",
      "id" : 4,
      "geometry" : {
        "type" : "Point",
        "coordinates" : [
          139.78028500000005,
          35.695855000000051
        ]
      },
      "properties" : {
        "OBJECTID" : 4,
        "name" : "あい保育園東神田",
        "lon" : 139.78028499999999,
        "lat" : 35.695855000000002
      }
    },
    {
      "type" : "Feature",
      "id" : 5,
      "geometry" : {
        "type" : "Point",
        "coordinates" : [
          139.77671000000009,
          35.693687000000068
        ]
      },
      "properties" : {
        "OBJECTID" : 5,
        "name" : "岩本町ちとせ保育園",
        "lon" : 139.77671000000001,
        "lat" : 35.693686999999997
      }
    },
    {
      "type" : "Feature",
      "id" : 6,
      "geometry" : {
        "type" : "Point",
        "coordinates" : [
          139.77509200000009,
          35.696679000000074
        ]
      },
      "properties" : {
        "OBJECTID" : 6,
        "name" : "千代田せいが保育園",
        "lon" : 139.775092,
        "lat" : 35.696679000000003
      }
    },
    {
      "type" : "Feature",
      "id" : 7,
      "geometry" : {
        "type" : "Point",
        "coordinates" : [
          139.774452,
          35.690838000000042
        ]
      },
      "properties" : {
        "OBJECTID" : 7,
        "name" : "保育園神田ベアーズ",
        "lon" : 139.774452,
        "lat" : 35.690837999999999
      }
    },
    {
      "type" : "Feature",
      "id" : 8,
      "geometry" : {
        "type" : "Point",
        "coordinates" : [
          139.76839500000006,
          35.68901100000005
        ]
      },
      "properties" : {
        "OBJECTID" : 8,
        "name" : "ベネッセ内神田保育園",
        "lon" : 139.768395,
        "lat" : 35.689011000000001
      }
    },
    {
      "type" : "Feature",
      "id" : 9,
      "geometry" : {
        "type" : "Point",
        "coordinates" : [
          139.76876400000003,
          35.697841000000039
        ]
      },
      "properties" : {
        "OBJECTID" : 9,
        "name" : "神田淡路町保育園大きなおうち",
        "lon" : 139.768764,
        "lat" : 35.697840999999997
      }
    },
    {
      "type" : "Feature",
      "id" : 10,
      "geometry" : {
        "type" : "Point",
        "coordinates" : [
          139.76700900000003,
          35.696812000000079
        ]
      },
      "properties" : {
        "OBJECTID" : 10,
        "name" : "神田保育園",
        "lon" : 139.767009,
        "lat" : 35.696812000000001
      }
    },
    {
      "type" : "Feature",
      "id" : 11,
      "geometry" : {
        "type" : "Point",
        "coordinates" : [
          139.75318900000002,
          35.69827900000007
        ]
      },
      "properties" : {
        "OBJECTID" : 11,
        "name" : "ほっぺるランド西神田",
        "lon" : 139.75318899999999,
        "lat" : 35.698278999999999
      }
    },
    {
      "type" : "Feature",
      "id" : 12,
      "geometry" : {
        "type" : "Point",
        "coordinates" : [
          139.75488000000007,
          35.698880000000088
        ]
      },
      "properties" : {
        "OBJECTID" : 12,
        "name" : "西神田保育園",
        "lon" : 139.75488000000001,
        "lat" : 35.698880000000003
      }
    },
    {
      "type" : "Feature",
      "id" : 13,
      "geometry" : {
        "type" : "Point",
        "coordinates" : [
          139.74621300000001,
          35.696941000000038
        ]
      },
      "properties" : {
        "OBJECTID" : 13,
        "name" : "ふじみこども園",
        "lon" : 139.74621300000001,
        "lat" : 35.696941000000002
      }
    },
    {
      "type" : "Feature",
      "id" : 14,
      "geometry" : {
        "type" : "Point",
        "coordinates" : [
          139.74382100000003,
          35.697163000000046
        ]
      },
      "properties" : {
        "OBJECTID" : 14,
        "name" : "グローバルキッズ飯田橋園",
        "lon" : 139.743821,
        "lat" : 35.697163000000003
      }
    },
    {
      "type" : "Feature",
      "id" : 15,
      "geometry" : {
        "type" : "Point",
        "coordinates" : [
          139.73846600000002,
          35.692525000000046
        ]
      },
      "properties" : {
        "OBJECTID" : 15,
        "name" : "クレアナーサリー市ヶ谷",
        "lon" : 139.73846599999999,
        "lat" : 35.692525000000003
      }
    },
    {
      "type" : "Feature",
      "id" : 16,
      "geometry" : {
        "type" : "Point",
        "coordinates" : [
          139.74200900000005,
          35.690682000000038
        ]
      },
      "properties" : {
        "OBJECTID" : 16,
        "name" : "あい・あい保育園　三番町園",
        "lon" : 139.742009,
        "lat" : 35.690682000000002
      }
    },
    {
      "type" : "Feature",
      "id" : 17,
      "geometry" : {
        "type" : "Point",
        "coordinates" : [
          139.73660500000005,
          35.688301000000081
        ]
      },
      "properties" : {
        "OBJECTID" : 17,
        "name" : "四番町保育園",
        "lon" : 139.736605,
        "lat" : 35.688301000000003
      }
    },
    {
      "type" : "Feature",
      "id" : 18,
      "geometry" : {
        "type" : "Point",
        "coordinates" : [
          139.73977600000001,
          35.686586000000034
        ]
      },
      "properties" : {
        "OBJECTID" : 18,
        "name" : "ポピンズナーサリースクール一番町",
        "lon" : 139.73977600000001,
        "lat" : 35.686585999999998
      }
    },
    {
      "type" : "Feature",
      "id" : 19,
      "geometry" : {
        "type" : "Point",
        "coordinates" : [
          139.74263000000008,
          35.688001000000042
        ]
      },
      "properties" : {
        "OBJECTID" : 19,
        "name" : "麹町保育園",
        "lon" : 139.74262999999999,
        "lat" : 35.688001
      }
    },
    {
      "type" : "Feature",
      "id" : 20,
      "geometry" : {
        "type" : "Point",
        "coordinates" : [
          139.73797100000002,
          35.686959000000058
        ]
      },
      "properties" : {
        "OBJECTID" : 20,
        "name" : "アスク二番町保育園",
        "lon" : 139.73797099999999,
        "lat" : 35.686959000000002
      }
    },
    {
      "type" : "Feature",
      "id" : 21,
      "geometry" : {
        "type" : "Point",
        "coordinates" : [
          139.73517400000003,
          35.685498000000052
        ]
      },
      "properties" : {
        "OBJECTID" : 21,
        "name" : "二番町ちとせ保育園",
        "lon" : 139.735174,
        "lat" : 35.685498000000003
      }
    },
    {
      "type" : "Feature",
      "id" : 22,
      "geometry" : {
        "type" : "Point",
        "coordinates" : [
          139.73469800000009,
          35.686907000000076
        ]
      },
      "properties" : {
        "OBJECTID" : 22,
        "name" : "グローバルキッズ六番町園",
        "lon" : 139.73469800000001,
        "lat" : 35.686906999999998
      }
    },
    {
      "type" : "Feature",
      "id" : 23,
      "geometry" : {
        "type" : "Point",
        "coordinates" : [
          139.74029500000006,
          35.680806000000075
        ]
      },
      "properties" : {
        "OBJECTID" : 23,
        "name" : "平河町ちとせ保育園",
        "lon" : 139.740295,
        "lat" : 35.680805999999997
      }
    },
    {
      "type" : "Feature",
      "id" : 24,
      "geometry" : {
        "type" : "Point",
        "coordinates" : [
          139.77698300000009,
          35.690940000000069
        ]
      },
      "properties" : {
        "OBJECTID" : 24,
        "name" : "十思保育園",
        "lon" : 139.776983,
        "lat" : 35.690939999999998
      }
    },
    {
      "type" : "Feature",
      "id" : 25,
      "geometry" : {
        "type" : "Point",
        "coordinates" : [
          139.77960800000005,
          35.691162000000077
        ]
      },
      "properties" : {
        "OBJECTID" : 25,
        "name" : "にじいろ保育園小伝馬町",
        "lon" : 139.779608,
        "lat" : 35.691161999999998
      }
    },
    {
      "type" : "Feature",
      "id" : 26,
      "geometry" : {
        "type" : "Point",
        "coordinates" : [
          139.78595700000005,
          35.691133000000036
        ]
      },
      "properties" : {
        "OBJECTID" : 26,
        "name" : "ミアヘルサ保育園ひびき東日本橋",
        "lon" : 139.785957,
        "lat" : 35.691133000000001
      }
    },
    {
      "type" : "Feature",
      "id" : 27,
      "geometry" : {
        "type" : "Point",
        "coordinates" : [
          139.78618200000005,
          35.691021000000035
        ]
      },
      "properties" : {
        "OBJECTID" : 27,
        "name" : "テンダーラビング保育園東日本橋",
        "lon" : 139.786182,
        "lat" : 35.691020999999999
      }
    },
    {
      "type" : "Feature",
      "id" : 28,
      "geometry" : {
        "type" : "Point",
        "coordinates" : [
          139.77259500000002,
          35.679482000000064
        ]
      },
      "properties" : {
        "OBJECTID" : 28,
        "name" : "さくらさくみらい　東日本橋",
        "lon" : 139.772595,
        "lat" : 35.679482
      }
    },
    {
      "type" : "Feature",
      "id" : 29,
      "geometry" : {
        "type" : "Point",
        "coordinates" : [
          139.782194,
          35.691226000000086
        ]
      },
      "properties" : {
        "OBJECTID" : 29,
        "name" : "ほっぺるランド東日本橋",
        "lon" : 139.782194,
        "lat" : 35.691226
      }
    },
    {
      "type" : "Feature",
      "id" : 30,
      "geometry" : {
        "type" : "Point",
        "coordinates" : [
          139.78541800000005,
          35.68878200000006
        ]
      },
      "properties" : {
        "OBJECTID" : 30,
        "name" : "ナーサリールーム　ベリーベアー日本橋",
        "lon" : 139.78541799999999,
        "lat" : 35.688782000000003
      }
    },
    {
      "type" : "Feature",
      "id" : 31,
      "geometry" : {
        "type" : "Point",
        "coordinates" : [
          139.78282100000001,
          35.689499000000069
        ]
      },
      "properties" : {
        "OBJECTID" : 31,
        "name" : "あい保育園日本橋",
        "lon" : 139.78282100000001,
        "lat" : 35.689498999999998
      }
    },
    {
      "type" : "Feature",
      "id" : 32,
      "geometry" : {
        "type" : "Point",
        "coordinates" : [
          139.78376000000003,
          35.687920000000076
        ]
      },
      "properties" : {
        "OBJECTID" : 32,
        "name" : "さくらさくみらい人形町",
        "lon" : 139.78376,
        "lat" : 35.687919999999998
      }
    },
    {
      "type" : "Feature",
      "id" : 33,
      "geometry" : {
        "type" : "Point",
        "coordinates" : [
          139.78194300000007,
          35.689506000000051
        ]
      },
      "properties" : {
        "OBJECTID" : 33,
        "name" : "かふう保育園日本橋",
        "lon" : 139.78194300000001,
        "lat" : 35.689506000000002
      }
    },
    {
      "type" : "Feature",
      "id" : 34,
      "geometry" : {
        "type" : "Point",
        "coordinates" : [
          139.78286900000001,
          35.687785000000076
        ]
      },
      "properties" : {
        "OBJECTID" : 34,
        "name" : "まちのてらこや保育園",
        "lon" : 139.78286900000001,
        "lat" : 35.687784999999998
      }
    },
    {
      "type" : "Feature",
      "id" : 35,
      "geometry" : {
        "type" : "Point",
        "coordinates" : [
          139.77263200000004,
          35.667663000000061
        ]
      },
      "properties" : {
        "OBJECTID" : 35,
        "name" : "さくらさくみらい築地",
        "lon" : 139.77263199999999,
        "lat" : 35.667662999999997
      }
    },
    {
      "type" : "Feature",
      "id" : 36,
      "geometry" : {
        "type" : "Point",
        "coordinates" : [
          139.79128400000002,
          35.685474000000056
        ]
      },
      "properties" : {
        "OBJECTID" : 36,
        "name" : "浜町保育園",
        "lon" : 139.79128399999999,
        "lat" : 35.685473999999999
      }
    },
    {
      "type" : "Feature",
      "id" : 37,
      "geometry" : {
        "type" : "Point",
        "coordinates" : [
          139.78812400000004,
          35.68758500000007
        ]
      },
      "properties" : {
        "OBJECTID" : 37,
        "name" : "キッズハウス浜町公園",
        "lon" : 139.78812400000001,
        "lat" : 35.687584999999999
      }
    },
    {
      "type" : "Feature",
      "id" : 38,
      "geometry" : {
        "type" : "Point",
        "coordinates" : [
          139.78785500000004,
          35.690225000000055
        ]
      },
      "properties" : {
        "OBJECTID" : 38,
        "name" : "あい・あい保育園日本橋浜町園",
        "lon" : 139.78785500000001,
        "lat" : 35.690224999999998
      }
    },
    {
      "type" : "Feature",
      "id" : 39,
      "geometry" : {
        "type" : "Point",
        "coordinates" : [
          139.77899600000001,
          35.687408000000062
        ]
      },
      "properties" : {
        "OBJECTID" : 39,
        "name" : "堀留町保育園",
        "lon" : 139.77899600000001,
        "lat" : 35.687407999999998
      }
    },
    {
      "type" : "Feature",
      "id" : 40,
      "geometry" : {
        "type" : "Point",
        "coordinates" : [
          139.78138799999999,
          35.688488000000063
        ]
      },
      "properties" : {
        "OBJECTID" : 40,
        "name" : "ほっぺるランド日本橋堀留町",
        "lon" : 139.78138799999999,
        "lat" : 35.688488
      }
    },
    {
      "type" : "Feature",
      "id" : 41,
      "geometry" : {
        "type" : "Point",
        "coordinates" : [
          139.78482600000007,
          35.684603000000038
        ]
      },
      "properties" : {
        "OBJECTID" : 41,
        "name" : "人形町保育園",
        "lon" : 139.78482600000001,
        "lat" : 35.684603000000003
      }
    },
    {
      "type" : "Feature",
      "id" : 42,
      "geometry" : {
        "type" : "Point",
        "coordinates" : [
          139.78141100000005,
          35.686625000000049
        ]
      },
      "properties" : {
        "OBJECTID" : 42,
        "name" : "モニカ人形町園",
        "lon" : 139.78141099999999,
        "lat" : 35.686624999999999
      }
    },
    {
      "type" : "Feature",
      "id" : 43,
      "geometry" : {
        "type" : "Point",
        "coordinates" : [
          139.78349400000002,
          35.68085700000006
        ]
      },
      "properties" : {
        "OBJECTID" : 43,
        "name" : "日本橋保育園",
        "lon" : 139.78349399999999,
        "lat" : 35.680857000000003
      }
    },
    {
      "type" : "Feature",
      "id" : 44,
      "geometry" : {
        "type" : "Point",
        "coordinates" : [
          139.78258700000004,
          35.683098000000086
        ]
      },
      "properties" : {
        "OBJECTID" : 44,
        "name" : "グローバルキッズかきがら園",
        "lon" : 139.78258700000001,
        "lat" : 35.683098000000001
      }
    },
    {
      "type" : "Feature",
      "id" : 45,
      "geometry" : {
        "type" : "Point",
        "coordinates" : [
          139.78394000000003,
          35.683132000000057
        ]
      },
      "properties" : {
        "OBJECTID" : 45,
        "name" : "あい保育園水天宮",
        "lon" : 139.78394,
        "lat" : 35.683132000000001
      }
    },
    {
      "type" : "Feature",
      "id" : 46,
      "geometry" : {
        "type" : "Point",
        "coordinates" : [
          139.78689600000007,
          35.684316000000081
        ]
      },
      "properties" : {
        "OBJECTID" : 46,
        "name" : "学栄ナーサリー日本橋蛎殻町保育園",
        "lon" : 139.78689600000001,
        "lat" : 35.684316000000003
      }
    },
    {
      "type" : "Feature",
      "id" : 47,
      "geometry" : {
        "type" : "Point",
        "coordinates" : [
          139.78607700000009,
          35.681745000000035
        ]
      },
      "properties" : {
        "OBJECTID" : 47,
        "name" : "キッズラボ水天宮前園",
        "lon" : 139.78607700000001,
        "lat" : 35.681744999999999
      }
    },
    {
      "type" : "Feature",
      "id" : 48,
      "geometry" : {
        "type" : "Point",
        "coordinates" : [
          139.78508700000009,
          35.680607000000066
        ]
      },
      "properties" : {
        "OBJECTID" : 48,
        "name" : "コビープリスクールはこざき",
        "lon" : 139.785087,
        "lat" : 35.680607000000002
      }
    },
    {
      "type" : "Feature",
      "id" : 49,
      "geometry" : {
        "type" : "Point",
        "coordinates" : [
          139.77992400000005,
          35.67816600000009
        ]
      },
      "properties" : {
        "OBJECTID" : 49,
        "name" : "ほっぺるランド茅場町",
        "lon" : 139.77992399999999,
        "lat" : 35.678165999999997
      }
    },
    {
      "type" : "Feature",
      "id" : 50,
      "geometry" : {
        "type" : "Point",
        "coordinates" : [
          139.77503300000001,
          35.678738000000067
        ]
      },
      "properties" : {
        "OBJECTID" : 50,
        "name" : "ＥＤＯ日本橋保育園",
        "lon" : 139.77503300000001,
        "lat" : 35.678738000000003
      }
    },
    {
      "type" : "Feature",
      "id" : 51,
      "geometry" : {
        "type" : "Point",
        "coordinates" : [
          139.77586500000007,
          35.673996000000045
        ]
      },
      "properties" : {
        "OBJECTID" : 51,
        "name" : "八丁堀保育園",
        "lon" : 139.77586500000001,
        "lat" : 35.673996000000002
      }
    },
    {
      "type" : "Feature",
      "id" : 52,
      "geometry" : {
        "type" : "Point",
        "coordinates" : [
          139.78520000000003,
          35.676814000000036
        ]
      },
      "properties" : {
        "OBJECTID" : 52,
        "name" : "太陽の子新川保育園",
        "lon" : 139.7852,
        "lat" : 35.676814
      }
    },
    {
      "type" : "Feature",
      "id" : 53,
      "geometry" : {
        "type" : "Point",
        "coordinates" : [
          139.78425300000004,
          35.676085000000057
        ]
      },
      "properties" : {
        "OBJECTID" : 53,
        "name" : "あい保育園新川",
        "lon" : 139.78425300000001,
        "lat" : 35.676085
      }
    },
    {
      "type" : "Feature",
      "id" : 54,
      "geometry" : {
        "type" : "Point",
        "coordinates" : [
          139.78297700000007,
          35.672820000000058
        ]
      },
      "properties" : {
        "OBJECTID" : 54,
        "name" : "ミアヘルサ保育園ひびき八丁堀",
        "lon" : 139.78297699999999,
        "lat" : 35.672820000000002
      }
    },
    {
      "type" : "Feature",
      "id" : 55,
      "geometry" : {
        "type" : "Point",
        "coordinates" : [
          139.77822100000003,
          35.673746000000051
        ]
      },
      "properties" : {
        "OBJECTID" : 55,
        "name" : "桜川保育園",
        "lon" : 139.778221,
        "lat" : 35.673746000000001
      }
    },
    {
      "type" : "Feature",
      "id" : 56,
      "geometry" : {
        "type" : "Point",
        "coordinates" : [
          139.77627100000007,
          35.670803000000035
        ]
      },
      "properties" : {
        "OBJECTID" : 56,
        "name" : "ブライト保育園東京入船",
        "lon" : 139.77627100000001,
        "lat" : 35.670802999999999
      }
    },
    {
      "type" : "Feature",
      "id" : 57,
      "geometry" : {
        "type" : "Point",
        "coordinates" : [
          139.77884700000004,
          35.672965000000033
        ]
      },
      "properties" : {
        "OBJECTID" : 57,
        "name" : "ＴＫチルドレンズファーム湊校",
        "lon" : 139.77884700000001,
        "lat" : 35.672964999999998
      }
    },
    {
      "type" : "Feature",
      "id" : 58,
      "geometry" : {
        "type" : "Point",
        "coordinates" : [
          139.77673900000002,
          35.666635000000042
        ]
      },
      "properties" : {
        "OBJECTID" : 58,
        "name" : "明石町保育園",
        "lon" : 139.77673899999999,
        "lat" : 35.666634999999999
      }
    },
    {
      "type" : "Feature",
      "id" : 59,
      "geometry" : {
        "type" : "Point",
        "coordinates" : [
          139.77483300000006,
          35.667069000000083
        ]
      },
      "properties" : {
        "OBJECTID" : 59,
        "name" : "ぽけっとランド明石町保育園",
        "lon" : 139.774833,
        "lat" : 35.667068999999998
      }
    },
    {
      "type" : "Feature",
      "id" : 60,
      "geometry" : {
        "type" : "Point",
        "coordinates" : [
          139.77159800000004,
          35.664087000000052
        ]
      },
      "properties" : {
        "OBJECTID" : 60,
        "name" : "築地保育園",
        "lon" : 139.77159800000001,
        "lat" : 35.664087000000002
      }
    },
    {
      "type" : "Feature",
      "id" : 61,
      "geometry" : {
        "type" : "Point",
        "coordinates" : [
          139.7869750000001,
          35.666852000000063
        ]
      },
      "properties" : {
        "OBJECTID" : 61,
        "name" : "つくだ保育園",
        "lon" : 139.78697500000001,
        "lat" : 35.666851999999999
      }
    },
    {
      "type" : "Feature",
      "id" : 62,
      "geometry" : {
        "type" : "Point",
        "coordinates" : [
          139.7867480000001,
          35.666499000000044
        ]
      },
      "properties" : {
        "OBJECTID" : 62,
        "name" : "みちてる保育園",
        "lon" : 139.78674799999999,
        "lat" : 35.666499000000002
      }
    },
    {
      "type" : "Feature",
      "id" : 63,
      "geometry" : {
        "type" : "Point",
        "coordinates" : [
          139.78445900000008,
          35.666154000000063
        ]
      },
      "properties" : {
        "OBJECTID" : 63,
        "name" : "保育所まぁむ月島駅前園",
        "lon" : 139.784459,
        "lat" : 35.666153999999999
      }
    },
    {
      "type" : "Feature",
      "id" : 64,
      "geometry" : {
        "type" : "Point",
        "coordinates" : [
          139.78442200000006,
          35.669705000000079
        ]
      },
      "properties" : {
        "OBJECTID" : 64,
        "name" : "ほっぺるランド佃",
        "lon" : 139.78442200000001,
        "lat" : 35.669705
      }
    },
    {
      "type" : "Feature",
      "id" : 65,
      "geometry" : {
        "type" : "Point",
        "coordinates" : [
          139.78392200000008,
          35.663248000000067
        ]
      },
      "properties" : {
        "OBJECTID" : 65,
        "name" : "月島保育園",
        "lon" : 139.78392199999999,
        "lat" : 35.663248000000003
      }
    },
    {
      "type" : "Feature",
      "id" : 66,
      "geometry" : {
        "type" : "Point",
        "coordinates" : [
          139.78369500000008,
          35.66416200000009
        ]
      },
      "properties" : {
        "OBJECTID" : 66,
        "name" : "太陽の子月島保育園",
        "lon" : 139.78369499999999,
        "lat" : 35.664161999999997
      }
    },
    {
      "type" : "Feature",
      "id" : 67,
      "geometry" : {
        "type" : "Point",
        "coordinates" : [
          139.78359399999999,
          35.662773000000072
        ]
      },
      "properties" : {
        "OBJECTID" : 67,
        "name" : "アンジェリカ月島保育園",
        "lon" : 139.78359399999999,
        "lat" : 35.662773000000001
      }
    },
    {
      "type" : "Feature",
      "id" : 68,
      "geometry" : {
        "type" : "Point",
        "coordinates" : [
          139.78182300000003,
          35.663590000000056
        ]
      },
      "properties" : {
        "OBJECTID" : 68,
        "name" : "月島聖ルカ保育園",
        "lon" : 139.781823,
        "lat" : 35.663589999999999
      }
    },
    {
      "type" : "Feature",
      "id" : 69,
      "geometry" : {
        "type" : "Point",
        "coordinates" : [
          139.778907,
          35.661956000000089
        ]
      },
      "properties" : {
        "OBJECTID" : 69,
        "name" : "月島雲母保育園",
        "lon" : 139.778907,
        "lat" : 35.661956000000004
      }
    },
    {
      "type" : "Feature",
      "id" : 70,
      "geometry" : {
        "type" : "Point",
        "coordinates" : [
          139.78342200000009,
          35.660878000000082
        ]
      },
      "properties" : {
        "OBJECTID" : 70,
        "name" : "さくらさくみらい　月の岬",
        "lon" : 139.783422,
        "lat" : 35.660877999999997
      }
    },
    {
      "type" : "Feature",
      "id" : 71,
      "geometry" : {
        "type" : "Point",
        "coordinates" : [
          139.78182300000003,
          35.663590000000056
        ]
      },
      "properties" : {
        "OBJECTID" : 71,
        "name" : "さくらさくみらい東仲通り",
        "lon" : 139.781823,
        "lat" : 35.663589999999999
      }
    },
    {
      "type" : "Feature",
      "id" : 72,
      "geometry" : {
        "type" : "Point",
        "coordinates" : [
          139.78444300000001,
          35.659658000000036
        ]
      },
      "properties" : {
        "OBJECTID" : 72,
        "name" : "晴海保育園",
        "lon" : 139.78444300000001,
        "lat" : 35.659658
      }
    },
    {
      "type" : "Feature",
      "id" : 73,
      "geometry" : {
        "type" : "Point",
        "coordinates" : [
          139.7840010000001,
          35.65590300000008
        ]
      },
      "properties" : {
        "OBJECTID" : 73,
        "name" : "ポピンズナーサリースクール晴海",
        "lon" : 139.78400099999999,
        "lat" : 35.655903000000002
      }
    },
    {
      "type" : "Feature",
      "id" : 74,
      "geometry" : {
        "type" : "Point",
        "coordinates" : [
          139.77922599999999,
          35.654046000000051
        ]
      },
      "properties" : {
        "OBJECTID" : 74,
        "name" : "アスク晴海３丁目保育園",
        "lon" : 139.77922599999999,
        "lat" : 35.654046000000001
      }
    },
    {
      "type" : "Feature",
      "id" : 75,
      "geometry" : {
        "type" : "Point",
        "coordinates" : [
          139.78286100000003,
          35.655466000000047
        ]
      },
      "properties" : {
        "OBJECTID" : 75,
        "name" : "さくらさくみらい晴海",
        "lon" : 139.782861,
        "lat" : 35.655465999999997
      }
    },
    {
      "type" : "Feature",
      "id" : 76,
      "geometry" : {
        "type" : "Point",
        "coordinates" : [
          139.778907,
          35.65578400000004
        ]
      },
      "properties" : {
        "OBJECTID" : 76,
        "name" : "小学館アカデミー晴海保育園",
        "lon" : 139.778907,
        "lat" : 35.655783999999997
      }
    },
    {
      "type" : "Feature",
      "id" : 77,
      "geometry" : {
        "type" : "Point",
        "coordinates" : [
          139.776884,
          35.659620000000075
        ]
      },
      "properties" : {
        "OBJECTID" : 77,
        "name" : "かちどき西保育園",
        "lon" : 139.776884,
        "lat" : 35.659619999999997
      }
    },
    {
      "type" : "Feature",
      "id" : 78,
      "geometry" : {
        "type" : "Point",
        "coordinates" : [
          139.77720600000009,
          35.66031200000009
        ]
      },
      "properties" : {
        "OBJECTID" : 78,
        "name" : "勝どき保育園",
        "lon" : 139.77720600000001,
        "lat" : 35.660311999999998
      }
    },
    {
      "type" : "Feature",
      "id" : 79,
      "geometry" : {
        "type" : "Point",
        "coordinates" : [
          139.77492700000005,
          35.659255000000087
        ]
      },
      "properties" : {
        "OBJECTID" : 79,
        "name" : "まなびの森保育園勝どき",
        "lon" : 139.77492699999999,
        "lat" : 35.659255000000002
      }
    },
    {
      "type" : "Feature",
      "id" : 80,
      "geometry" : {
        "type" : "Point",
        "coordinates" : [
          139.77559400000007,
          35.656884000000048
        ]
      },
      "properties" : {
        "OBJECTID" : 80,
        "name" : "アスク勝どき保育園",
        "lon" : 139.77559400000001,
        "lat" : 35.656883999999998
      }
    },
    {
      "type" : "Feature",
      "id" : 81,
      "geometry" : {
        "type" : "Point",
        "coordinates" : [
          139.77574600000003,
          35.659064000000058
        ]
      },
      "properties" : {
        "OBJECTID" : 81,
        "name" : "ほっぺるランド勝どき",
        "lon" : 139.775746,
        "lat" : 35.659064000000001
      }
    },
    {
      "type" : "Feature",
      "id" : 82,
      "geometry" : {
        "type" : "Point",
        "coordinates" : [
          139.772516,
          35.658032000000048
        ]
      },
      "properties" : {
        "OBJECTID" : 82,
        "name" : "ベネッセ勝どき保育園",
        "lon" : 139.772516,
        "lat" : 35.658031999999999
      }
    },
    {
      "type" : "Feature",
      "id" : 83,
      "geometry" : {
        "type" : "Point",
        "coordinates" : [
          139.77339500000005,
          35.657236000000069
        ]
      },
      "properties" : {
        "OBJECTID" : 83,
        "name" : "ほっぺるランド新島橋かちどき",
        "lon" : 139.77339499999999,
        "lat" : 35.657235999999997
      }
    },
    {
      "type" : "Feature",
      "id" : 84,
      "geometry" : {
        "type" : "Point",
        "coordinates" : [
          139.77456300000006,
          35.655955000000063
        ]
      },
      "properties" : {
        "OBJECTID" : 84,
        "name" : "勝どきえほん保育園",
        "lon" : 139.774563,
        "lat" : 35.655954999999999
      }
    },
    {
      "type" : "Feature",
      "id" : 85,
      "geometry" : {
        "type" : "Point",
        "coordinates" : [
          139.77355,
          35.65576400000009
        ]
      },
      "properties" : {
        "OBJECTID" : 85,
        "name" : "ニチイキッズさわやか勝どき６丁目保育園",
        "lon" : 139.77355,
        "lat" : 35.655763999999998
      }
    },
    {
      "type" : "Feature",
      "id" : 86,
      "geometry" : {
        "type" : "Point",
        "coordinates" : [
          139.77847200000008,
          35.657795000000078
        ]
      },
      "properties" : {
        "OBJECTID" : 86,
        "name" : "勝どきちとせ保育園",
        "lon" : 139.77847199999999,
        "lat" : 35.657795
      }
    },
    {
      "type" : "Feature",
      "id" : 87,
      "geometry" : {
        "type" : "Point",
        "coordinates" : [
          139.76996000000008,
          35.67437300000006
        ]
      },
      "properties" : {
        "OBJECTID" : 87,
        "name" : "まなびの森保育園銀座",
        "lon" : 139.76996,
        "lat" : 35.674373000000003
      }
    },
    {
      "type" : "Feature",
      "id" : 88,
      "geometry" : {
        "type" : "Point",
        "coordinates" : [
          139.746801,
          35.663080000000036
        ]
      },
      "properties" : {
        "OBJECTID" : 88,
        "name" : "グローバルキッズ虎ノ門保育園",
        "lon" : 139.746801,
        "lat" : 35.663080000000001
      }
    },
    {
      "type" : "Feature",
      "id" : 89,
      "geometry" : {
        "type" : "Point",
        "coordinates" : [
          139.75404000000003,
          35.662278000000072
        ]
      },
      "properties" : {
        "OBJECTID" : 89,
        "name" : "こころ新橋保育園",
        "lon" : 139.75404,
        "lat" : 35.662278000000001
      }
    },
    {
      "type" : "Feature",
      "id" : 90,
      "geometry" : {
        "type" : "Point",
        "coordinates" : [
          139.75065400000005,
          35.65420400000005
        ]
      },
      "properties" : {
        "OBJECTID" : 90,
        "name" : "芝公園保育園",
        "lon" : 139.750654,
        "lat" : 35.654204
      }
    },
    {
      "type" : "Feature",
      "id" : 91,
      "geometry" : {
        "type" : "Point",
        "coordinates" : [
          139.75762200000008,
          35.658702000000062
        ]
      },
      "properties" : {
        "OBJECTID" : 91,
        "name" : "神明保育園",
        "lon" : 139.757622,
        "lat" : 35.658701999999998
      }
    },
    {
      "type" : "Feature",
      "id" : 92,
      "geometry" : {
        "type" : "Point",
        "coordinates" : [
          139.75699300000008,
          35.659878000000049
        ]
      },
      "properties" : {
        "OBJECTID" : 92,
        "name" : "小鳩ナーサリースクール浜離宮",
        "lon" : 139.75699299999999,
        "lat" : 35.659877999999999
      }
    },
    {
      "type" : "Feature",
      "id" : 93,
      "geometry" : {
        "type" : "Point",
        "coordinates" : [
          139.74987500000009,
          35.649640000000034
        ]
      },
      "properties" : {
        "OBJECTID" : 93,
        "name" : "アスク芝公園保育園",
        "lon" : 139.749875,
        "lat" : 35.649639999999998
      }
    },
    {
      "type" : "Feature",
      "id" : 94,
      "geometry" : {
        "type" : "Point",
        "coordinates" : [
          139.75119600000005,
          35.653349000000048
        ]
      },
      "properties" : {
        "OBJECTID" : 94,
        "name" : "ニチイキッズ芝公園保育園",
        "lon" : 139.75119599999999,
        "lat" : 35.653348999999999
      }
    },
    {
      "type" : "Feature",
      "id" : 95,
      "geometry" : {
        "type" : "Point",
        "coordinates" : [
          139.76167800000007,
          35.654328000000078
        ]
      },
      "properties" : {
        "OBJECTID" : 95,
        "name" : "にじいろ保育園竹芝",
        "lon" : 139.76167799999999,
        "lat" : 35.654328
      }
    },
    {
      "type" : "Feature",
      "id" : 96,
      "geometry" : {
        "type" : "Point",
        "coordinates" : [
          139.75348900000006,
          35.648128000000042
        ]
      },
      "properties" : {
        "OBJECTID" : 96,
        "name" : "太陽の子芝浦一丁目保育園",
        "lon" : 139.753489,
        "lat" : 35.648128
      }
    },
    {
      "type" : "Feature",
      "id" : 97,
      "geometry" : {
        "type" : "Point",
        "coordinates" : [
          139.75638800000002,
          35.649863000000039
        ]
      },
      "properties" : {
        "OBJECTID" : 97,
        "name" : "太陽の子シーバンス保育園",
        "lon" : 139.75638799999999,
        "lat" : 35.649863000000003
      }
    },
    {
      "type" : "Feature",
      "id" : 98,
      "geometry" : {
        "type" : "Point",
        "coordinates" : [
          139.75517400000001,
          35.647544000000039
        ]
      },
      "properties" : {
        "OBJECTID" : 98,
        "name" : "アンジェリカ田町保育園",
        "lon" : 139.75517400000001,
        "lat" : 35.647544000000003
      }
    },
    {
      "type" : "Feature",
      "id" : 99,
      "geometry" : {
        "type" : "Point",
        "coordinates" : [
          139.72279000000003,
          35.660892000000047
        ]
      },
      "properties" : {
        "OBJECTID" : 99,
        "name" : "西麻布保育園",
        "lon" : 139.72279,
        "lat" : 35.660891999999997
      }
    },
    {
      "type" : "Feature",
      "id" : 100,
      "geometry" : {
        "type" : "Point",
        "coordinates" : [
          139.72062900000003,
          35.661220000000071
        ]
      },
      "properties" : {
        "OBJECTID" : 100,
        "name" : "コスモス西麻布保育園",
        "lon" : 139.720629,
        "lat" : 35.66122
      }
    },
    {
      "type" : "Feature",
      "id" : 101,
      "geometry" : {
        "type" : "Point",
        "coordinates" : [
          139.73514299999999,
          35.661228000000051
        ]
      },
      "properties" : {
        "OBJECTID" : 101,
        "name" : "麻布保育園",
        "lon" : 139.73514299999999,
        "lat" : 35.661228000000001
      }
    },
    {
      "type" : "Feature",
      "id" : 102,
      "geometry" : {
        "type" : "Point",
        "coordinates" : [
          139.74176300000011,
          35.663662000000045
        ]
      },
      "properties" : {
        "OBJECTID" : 102,
        "name" : "まちの保育園六本木",
        "lon" : 139.74176299999999,
        "lat" : 35.663662000000002
      }
    },
    {
      "type" : "Feature",
      "id" : 103,
      "geometry" : {
        "type" : "Point",
        "coordinates" : [
          139.73245100000008,
          35.664766000000043
        ]
      },
      "properties" : {
        "OBJECTID" : 103,
        "name" : "sakura保育園六本木",
        "lon" : 139.732451,
        "lat" : 35.664766
      }
    },
    {
      "type" : "Feature",
      "id" : 104,
      "geometry" : {
        "type" : "Point",
        "coordinates" : [
          139.73454700000002,
          35.661859000000049
        ]
      },
      "properties" : {
        "OBJECTID" : 104,
        "name" : "リトルパルズ保育園六本木",
        "lon" : 139.73454699999999,
        "lat" : 35.661859
      }
    },
    {
      "type" : "Feature",
      "id" : 105,
      "geometry" : {
        "type" : "Point",
        "coordinates" : [
          139.74223100000006,
          35.65563300000008
        ]
      },
      "properties" : {
        "OBJECTID" : 105,
        "name" : "飯倉保育園",
        "lon" : 139.742231,
        "lat" : 35.655633000000002
      }
    },
    {
      "type" : "Feature",
      "id" : 106,
      "geometry" : {
        "type" : "Point",
        "coordinates" : [
          139.74157200000002,
          35.656068000000062
        ]
      },
      "properties" : {
        "OBJECTID" : 106,
        "name" : "東麻布保育園",
        "lon" : 139.74157199999999,
        "lat" : 35.656067999999998
      }
    },
    {
      "type" : "Feature",
      "id" : 107,
      "geometry" : {
        "type" : "Point",
        "coordinates" : [
          139.74049400000001,
          35.655958000000055
        ]
      },
      "properties" : {
        "OBJECTID" : 107,
        "name" : "あい・あい保育園麻布十番園",
        "lon" : 139.74049400000001,
        "lat" : 35.655957999999998
      }
    },
    {
      "type" : "Feature",
      "id" : 108,
      "geometry" : {
        "type" : "Point",
        "coordinates" : [
          139.74223100000006,
          35.65563300000008
        ]
      },
      "properties" : {
        "OBJECTID" : 108,
        "name" : "ふたばクラブ東麻布保育園",
        "lon" : 139.742231,
        "lat" : 35.655633000000002
      }
    },
    {
      "type" : "Feature",
      "id" : 109,
      "geometry" : {
        "type" : "Point",
        "coordinates" : [
          139.73583600000006,
          35.656991000000062
        ]
      },
      "properties" : {
        "OBJECTID" : 109,
        "name" : "麻布十番ちとせ保育園",
        "lon" : 139.73583600000001,
        "lat" : 35.656990999999998
      }
    },
    {
      "type" : "Feature",
      "id" : 110,
      "geometry" : {
        "type" : "Point",
        "coordinates" : [
          139.72732300000007,
          35.657418000000064
        ]
      },
      "properties" : {
        "OBJECTID" : 110,
        "name" : "あい保育園元麻布",
        "lon" : 139.72732300000001,
        "lat" : 35.657418
      }
    },
    {
      "type" : "Feature",
      "id" : 111,
      "geometry" : {
        "type" : "Point",
        "coordinates" : [
          139.73038000000008,
          35.652968000000044
        ]
      },
      "properties" : {
        "OBJECTID" : 111,
        "name" : "元麻布保育園",
        "lon" : 139.73038,
        "lat" : 35.652968000000001
      }
    },
    {
      "type" : "Feature",
      "id" : 112,
      "geometry" : {
        "type" : "Point",
        "coordinates" : [
          139.72412900000006,
          35.647745000000043
        ]
      },
      "properties" : {
        "OBJECTID" : 112,
        "name" : "南麻布保育園",
        "lon" : 139.724129,
        "lat" : 35.647745
      }
    },
    {
      "type" : "Feature",
      "id" : 113,
      "geometry" : {
        "type" : "Point",
        "coordinates" : [
          139.73071500000003,
          35.649991000000057
        ]
      },
      "properties" : {
        "OBJECTID" : 113,
        "name" : "本村保育園",
        "lon" : 139.730715,
        "lat" : 35.649991
      }
    },
    {
      "type" : "Feature",
      "id" : 114,
      "geometry" : {
        "type" : "Point",
        "coordinates" : [
          139.73583300000007,
          35.650871000000052
        ]
      },
      "properties" : {
        "OBJECTID" : 114,
        "name" : "まなびの森保育園麻布",
        "lon" : 139.73583300000001,
        "lat" : 35.650871000000002
      }
    },
    {
      "type" : "Feature",
      "id" : 115,
      "geometry" : {
        "type" : "Point",
        "coordinates" : [
          139.72716300000002,
          35.647023000000047
        ]
      },
      "properties" : {
        "OBJECTID" : 115,
        "name" : "太陽の子南麻布保育園",
        "lon" : 139.72716299999999,
        "lat" : 35.647022999999997
      }
    },
    {
      "type" : "Feature",
      "id" : 116,
      "geometry" : {
        "type" : "Point",
        "coordinates" : [
          139.73578400000008,
          35.647684000000083
        ]
      },
      "properties" : {
        "OBJECTID" : 116,
        "name" : "あい保育園南麻布",
        "lon" : 139.735784,
        "lat" : 35.647683999999998
      }
    },
    {
      "type" : "Feature",
      "id" : 117,
      "geometry" : {
        "type" : "Point",
        "coordinates" : [
          139.73408600000005,
          35.651137000000062
        ]
      },
      "properties" : {
        "OBJECTID" : 117,
        "name" : "まなびの森保育園麻布十番",
        "lon" : 139.73408599999999,
        "lat" : 35.651136999999999
      }
    },
    {
      "type" : "Feature",
      "id" : 118,
      "geometry" : {
        "type" : "Point",
        "coordinates" : [
          139.73402500000009,
          35.671049000000039
        ]
      },
      "properties" : {
        "OBJECTID" : 118,
        "name" : "赤坂保育園",
        "lon" : 139.734025,
        "lat" : 35.671048999999996
      }
    },
    {
      "type" : "Feature",
      "id" : 119,
      "geometry" : {
        "type" : "Point",
        "coordinates" : [
          139.73402900000008,
          35.675465000000088
        ]
      },
      "properties" : {
        "OBJECTID" : 119,
        "name" : "赤坂ちとせ保育園",
        "lon" : 139.73402899999999,
        "lat" : 35.675465000000003
      }
    },
    {
      "type" : "Feature",
      "id" : 120,
      "geometry" : {
        "type" : "Point",
        "coordinates" : [
          139.73058000000003,
          35.669910000000073
        ]
      },
      "properties" : {
        "OBJECTID" : 120,
        "name" : "太陽の子赤坂保育園",
        "lon" : 139.73058,
        "lat" : 35.669910000000002
      }
    },
    {
      "type" : "Feature",
      "id" : 121,
      "geometry" : {
        "type" : "Point",
        "coordinates" : [
          139.73470200000008,
          35.676397000000065
        ]
      },
      "properties" : {
        "OBJECTID" : 121,
        "name" : "赤坂山王保育園",
        "lon" : 139.734702,
        "lat" : 35.676397000000001
      }
    },
    {
      "type" : "Feature",
      "id" : 122,
      "geometry" : {
        "type" : "Point",
        "coordinates" : [
          139.73298700000009,
          35.67547200000007
        ]
      },
      "properties" : {
        "OBJECTID" : 122,
        "name" : "赤坂クレア保育園",
        "lon" : 139.73298700000001,
        "lat" : 35.675471999999999
      }
    },
    {
      "type" : "Feature",
      "id" : 123,
      "geometry" : {
        "type" : "Point",
        "coordinates" : [
          139.712444,
          35.666948000000048
        ]
      },
      "properties" : {
        "OBJECTID" : 123,
        "name" : "青山保育園",
        "lon" : 139.712444,
        "lat" : 35.666947999999998
      }
    },
    {
      "type" : "Feature",
      "id" : 124,
      "geometry" : {
        "type" : "Point",
        "coordinates" : [
          139.7133510000001,
          35.667575000000056
        ]
      },
      "properties" : {
        "OBJECTID" : 124,
        "name" : "おはよう保育園　ののあおやま",
        "lon" : 139.71335099999999,
        "lat" : 35.667574999999999
      }
    },
    {
      "type" : "Feature",
      "id" : 125,
      "geometry" : {
        "type" : "Point",
        "coordinates" : [
          139.72546,
          35.671088000000054
        ]
      },
      "properties" : {
        "OBJECTID" : 125,
        "name" : "南青山保育園",
        "lon" : 139.72546,
        "lat" : 35.671087999999997
      }
    },
    {
      "type" : "Feature",
      "id" : 126,
      "geometry" : {
        "type" : "Point",
        "coordinates" : [
          139.725371,
          35.671587000000045
        ]
      },
      "properties" : {
        "OBJECTID" : 126,
        "name" : "あい保育園青山一丁目",
        "lon" : 139.725371,
        "lat" : 35.671587000000002
      }
    },
    {
      "type" : "Feature",
      "id" : 127,
      "geometry" : {
        "type" : "Point",
        "coordinates" : [
          139.7191620000001,
          35.66732200000007
        ]
      },
      "properties" : {
        "OBJECTID" : 127,
        "name" : "太陽の子南青山保育園",
        "lon" : 139.71916200000001,
        "lat" : 35.667321999999999
      }
    },
    {
      "type" : "Feature",
      "id" : 128,
      "geometry" : {
        "type" : "Point",
        "coordinates" : [
          139.7183040000001,
          35.664916000000062
        ]
      },
      "properties" : {
        "OBJECTID" : 128,
        "name" : "小学館アカデミー南青山保育園",
        "lon" : 139.71830399999999,
        "lat" : 35.664915999999998
      }
    },
    {
      "type" : "Feature",
      "id" : 129,
      "geometry" : {
        "type" : "Point",
        "coordinates" : [
          139.74776500000007,
          35.648302000000058
        ]
      },
      "properties" : {
        "OBJECTID" : 129,
        "name" : "芝保育園",
        "lon" : 139.74776499999999,
        "lat" : 35.648302000000001
      }
    },
    {
      "type" : "Feature",
      "id" : 130,
      "geometry" : {
        "type" : "Point",
        "coordinates" : [
          139.75586400000009,
          35.642496000000051
        ]
      },
      "properties" : {
        "OBJECTID" : 130,
        "name" : "にじいろ保育園海岸三丁目",
        "lon" : 139.755864,
        "lat" : 35.642496000000001
      }
    },
    {
      "type" : "Feature",
      "id" : 131,
      "geometry" : {
        "type" : "Point",
        "coordinates" : [
          139.75454400000001,
          35.644118000000049
        ]
      },
      "properties" : {
        "OBJECTID" : 131,
        "name" : "にじのいるか保育園芝浦",
        "lon" : 139.75454400000001,
        "lat" : 35.644117999999999
      }
    },
    {
      "type" : "Feature",
      "id" : 132,
      "geometry" : {
        "type" : "Point",
        "coordinates" : [
          139.75271000000009,
          35.645143000000076
        ]
      },
      "properties" : {
        "OBJECTID" : 132,
        "name" : "太陽の子芝浦二丁目保育園",
        "lon" : 139.75271000000001,
        "lat" : 35.645142999999997
      }
    },
    {
      "type" : "Feature",
      "id" : 133,
      "geometry" : {
        "type" : "Point",
        "coordinates" : [
          139.74654200000009,
          35.642222000000061
        ]
      },
      "properties" : {
        "OBJECTID" : 133,
        "name" : "太陽の子芝浦三丁目保育園",
        "lon" : 139.74654200000001,
        "lat" : 35.642221999999997
      }
    },
    {
      "type" : "Feature",
      "id" : 134,
      "geometry" : {
        "type" : "Point",
        "coordinates" : [
          139.74907200000007,
          35.639562000000069
        ]
      },
      "properties" : {
        "OBJECTID" : 134,
        "name" : "アスク芝浦４丁目保育園",
        "lon" : 139.74907200000001,
        "lat" : 35.639561999999998
      }
    },
    {
      "type" : "Feature",
      "id" : 135,
      "geometry" : {
        "type" : "Point",
        "coordinates" : [
          139.75021200000003,
          35.64514900000006
        ]
      },
      "properties" : {
        "OBJECTID" : 135,
        "name" : "しばうら保育園",
        "lon" : 139.750212,
        "lat" : 35.645149000000004
      }
    },
    {
      "type" : "Feature",
      "id" : 136,
      "geometry" : {
        "type" : "Point",
        "coordinates" : [
          139.74712700000009,
          35.637015000000076
        ]
      },
      "properties" : {
        "OBJECTID" : 136,
        "name" : "デイジー保育園芝浦",
        "lon" : 139.74712700000001,
        "lat" : 35.637014999999998
      }
    },
    {
      "type" : "Feature",
      "id" : 137,
      "geometry" : {
        "type" : "Point",
        "coordinates" : [
          139.73003900000003,
          35.63174500000008
        ]
      },
      "properties" : {
        "OBJECTID" : 137,
        "name" : "ニチイキッズ白金台保育園",
        "lon" : 139.730039,
        "lat" : 35.631745000000002
      }
    },
    {
      "type" : "Feature",
      "id" : 138,
      "geometry" : {
        "type" : "Point",
        "coordinates" : [
          139.7307320000001,
          35.63319400000006
        ]
      },
      "properties" : {
        "OBJECTID" : 138,
        "name" : "えほんのもり白金台保育園",
        "lon" : 139.73073199999999,
        "lat" : 35.633194000000003
      }
    },
    {
      "type" : "Feature",
      "id" : 139,
      "geometry" : {
        "type" : "Point",
        "coordinates" : [
          139.72560700000008,
          35.638758000000053
        ]
      },
      "properties" : {
        "OBJECTID" : 139,
        "name" : "あい保育園白金台",
        "lon" : 139.725607,
        "lat" : 35.638758000000003
      }
    },
    {
      "type" : "Feature",
      "id" : 140,
      "geometry" : {
        "type" : "Point",
        "coordinates" : [
          139.73110200000008,
          35.644902000000059
        ]
      },
      "properties" : {
        "OBJECTID" : 140,
        "name" : "白金保育園",
        "lon" : 139.73110199999999,
        "lat" : 35.644902000000002
      }
    },
    {
      "type" : "Feature",
      "id" : 141,
      "geometry" : {
        "type" : "Point",
        "coordinates" : [
          139.73323700000003,
          35.643931000000066
        ]
      },
      "properties" : {
        "OBJECTID" : 141,
        "name" : "ゆらりん白金保育園",
        "lon" : 139.733237,
        "lat" : 35.643931000000002
      }
    },
    {
      "type" : "Feature",
      "id" : 142,
      "geometry" : {
        "type" : "Point",
        "coordinates" : [
          139.72728300000006,
          35.642664000000082
        ]
      },
      "properties" : {
        "OBJECTID" : 142,
        "name" : "みつばち保育園",
        "lon" : 139.727283,
        "lat" : 35.642664000000003
      }
    },
    {
      "type" : "Feature",
      "id" : 143,
      "geometry" : {
        "type" : "Point",
        "coordinates" : [
          139.73128300000008,
          35.646560000000079
        ]
      },
      "properties" : {
        "OBJECTID" : 143,
        "name" : "ミアヘルサ保育園ひびき白金高輪",
        "lon" : 139.73128299999999,
        "lat" : 35.646560000000001
      }
    },
    {
      "type" : "Feature",
      "id" : 144,
      "geometry" : {
        "type" : "Point",
        "coordinates" : [
          139.740589,
          35.65499600000004
        ]
      },
      "properties" : {
        "OBJECTID" : 144,
        "name" : "太陽の子三田保育園",
        "lon" : 139.740589,
        "lat" : 35.654995999999997
      }
    },
    {
      "type" : "Feature",
      "id" : 145,
      "geometry" : {
        "type" : "Point",
        "coordinates" : [
          139.74353900000006,
          35.654577000000074
        ]
      },
      "properties" : {
        "OBJECTID" : 145,
        "name" : "あい保育園赤羽橋",
        "lon" : 139.743539,
        "lat" : 35.654577000000003
      }
    },
    {
      "type" : "Feature",
      "id" : 146,
      "geometry" : {
        "type" : "Point",
        "coordinates" : [
          139.7387950000001,
          35.640324000000078
        ]
      },
      "properties" : {
        "OBJECTID" : 146,
        "name" : "伊皿子坂保育園",
        "lon" : 139.73879500000001,
        "lat" : 35.640324
      }
    },
    {
      "type" : "Feature",
      "id" : 147,
      "geometry" : {
        "type" : "Point",
        "coordinates" : [
          139.73897900000009,
          35.647675000000049
        ]
      },
      "properties" : {
        "OBJECTID" : 147,
        "name" : "太陽の子三田五丁目保育園",
        "lon" : 139.738979,
        "lat" : 35.647675
      }
    },
    {
      "type" : "Feature",
      "id" : 148,
      "geometry" : {
        "type" : "Point",
        "coordinates" : [
          139.73696200000006,
          35.645161000000087
        ]
      },
      "properties" : {
        "OBJECTID" : 148,
        "name" : "うれしい保育園白金高輪",
        "lon" : 139.73696200000001,
        "lat" : 35.645161000000002
      }
    },
    {
      "type" : "Feature",
      "id" : 149,
      "geometry" : {
        "type" : "Point",
        "coordinates" : [
          139.73570800000005,
          35.633188000000075
        ]
      },
      "properties" : {
        "OBJECTID" : 149,
        "name" : "高輪保育園",
        "lon" : 139.73570799999999,
        "lat" : 35.633187999999997
      }
    },
    {
      "type" : "Feature",
      "id" : 150,
      "geometry" : {
        "type" : "Point",
        "coordinates" : [
          139.73454700000002,
          35.63430800000009
        ]
      },
      "properties" : {
        "OBJECTID" : 150,
        "name" : "みなと保育園",
        "lon" : 139.73454699999999,
        "lat" : 35.634307999999997
      }
    },
    {
      "type" : "Feature",
      "id" : 151,
      "geometry" : {
        "type" : "Point",
        "coordinates" : [
          139.73454700000002,
          35.63430800000009
        ]
      },
      "properties" : {
        "OBJECTID" : 151,
        "name" : "愛星保育園",
        "lon" : 139.73454699999999,
        "lat" : 35.634307999999997
      }
    },
    {
      "type" : "Feature",
      "id" : 152,
      "geometry" : {
        "type" : "Point",
        "coordinates" : [
          139.73794000000009,
          35.631973000000073
        ]
      },
      "properties" : {
        "OBJECTID" : 152,
        "name" : "高輪夢保育園",
        "lon" : 139.73794000000001,
        "lat" : 35.631973000000002
      }
    },
    {
      "type" : "Feature",
      "id" : 153,
      "geometry" : {
        "type" : "Point",
        "coordinates" : [
          139.73667399999999,
          35.64167400000008
        ]
      },
      "properties" : {
        "OBJECTID" : 153,
        "name" : "ゆらりん高輪保育園",
        "lon" : 139.73667399999999,
        "lat" : 35.641674000000002
      }
    },
    {
      "type" : "Feature",
      "id" : 154,
      "geometry" : {
        "type" : "Point",
        "coordinates" : [
          139.73346900000001,
          35.640944000000047
        ]
      },
      "properties" : {
        "OBJECTID" : 154,
        "name" : "高輪さつき保育園",
        "lon" : 139.73346900000001,
        "lat" : 35.640943999999998
      }
    },
    {
      "type" : "Feature",
      "id" : 155,
      "geometry" : {
        "type" : "Point",
        "coordinates" : [
          139.73454700000002,
          35.63430800000009
        ]
      },
      "properties" : {
        "OBJECTID" : 155,
        "name" : "さくらさくみらい高輪",
        "lon" : 139.73454699999999,
        "lat" : 35.634307999999997
      }
    },
    {
      "type" : "Feature",
      "id" : 156,
      "geometry" : {
        "type" : "Point",
        "coordinates" : [
          139.73454700000002,
          35.63430800000009
        ]
      },
      "properties" : {
        "OBJECTID" : 156,
        "name" : "ほっぺるランド高輪二丁目",
        "lon" : 139.73454699999999,
        "lat" : 35.634307999999997
      }
    },
    {
      "type" : "Feature",
      "id" : 157,
      "geometry" : {
        "type" : "Point",
        "coordinates" : [
          139.74795400000005,
          35.629739000000086
        ]
      },
      "properties" : {
        "OBJECTID" : 157,
        "name" : "こうなん保育園",
        "lon" : 139.74795399999999,
        "lat" : 35.629739000000001
      }
    },
    {
      "type" : "Feature",
      "id" : 158,
      "geometry" : {
        "type" : "Point",
        "coordinates" : [
          139.74548400000003,
          35.62958000000009
        ]
      },
      "properties" : {
        "OBJECTID" : 158,
        "name" : "ゆらりん港南保育園",
        "lon" : 139.745484,
        "lat" : 35.629579999999997
      }
    },
    {
      "type" : "Feature",
      "id" : 159,
      "geometry" : {
        "type" : "Point",
        "coordinates" : [
          139.75061400000004,
          35.627605000000074
        ]
      },
      "properties" : {
        "OBJECTID" : 159,
        "name" : "ベネッセ港南保育園",
        "lon" : 139.75061400000001,
        "lat" : 35.627605000000003
      }
    },
    {
      "type" : "Feature",
      "id" : 160,
      "geometry" : {
        "type" : "Point",
        "coordinates" : [
          139.74967000000004,
          35.630968000000053
        ]
      },
      "properties" : {
        "OBJECTID" : 160,
        "name" : "たかはま保育園",
        "lon" : 139.74967000000001,
        "lat" : 35.630968000000003
      }
    },
    {
      "type" : "Feature",
      "id" : 161,
      "geometry" : {
        "type" : "Point",
        "coordinates" : [
          139.74660200000005,
          35.629737000000034
        ]
      },
      "properties" : {
        "OBJECTID" : 161,
        "name" : "グローバルキッズ港南保育園",
        "lon" : 139.746602,
        "lat" : 35.629736999999999
      }
    },
    {
      "type" : "Feature",
      "id" : 162,
      "geometry" : {
        "type" : "Point",
        "coordinates" : [
          139.74032200000011,
          35.625628000000063
        ]
      },
      "properties" : {
        "OBJECTID" : 162,
        "name" : "ふたばクラブ港南保育園",
        "lon" : 139.74032199999999,
        "lat" : 35.625627999999999
      }
    },
    {
      "type" : "Feature",
      "id" : 163,
      "geometry" : {
        "type" : "Point",
        "coordinates" : [
          139.74454800000001,
          35.629643000000044
        ]
      },
      "properties" : {
        "OBJECTID" : 163,
        "name" : "ゆらりんはぁと保育園",
        "lon" : 139.74454800000001,
        "lat" : 35.629643000000002
      }
    },
    {
      "type" : "Feature",
      "id" : 164,
      "geometry" : {
        "type" : "Point",
        "coordinates" : [
          139.75132800000006,
          35.628630000000044
        ]
      },
      "properties" : {
        "OBJECTID" : 164,
        "name" : "ゆらりん港南緑水保育園",
        "lon" : 139.751328,
        "lat" : 35.628630000000001
      }
    },
    {
      "type" : "Feature",
      "id" : 165,
      "geometry" : {
        "type" : "Point",
        "coordinates" : [
          139.77712200000008,
          35.630009000000086
        ]
      },
      "properties" : {
        "OBJECTID" : 165,
        "name" : "台場保育園",
        "lon" : 139.77712199999999,
        "lat" : 35.630009000000001
      }
    },
    {
      "type" : "Feature",
      "id" : 166,
      "geometry" : {
        "type" : "Point",
        "coordinates" : [
          139.72922000000005,
          35.687574000000041
        ]
      },
      "properties" : {
        "OBJECTID" : 166,
        "name" : "にじいろ保育園四ツ谷",
        "lon" : 139.72922,
        "lat" : 35.687573999999998
      }
    },
    {
      "type" : "Feature",
      "id" : 167,
      "geometry" : {
        "type" : "Point",
        "coordinates" : [
          139.71954100000005,
          35.689974000000063
        ]
      },
      "properties" : {
        "OBJECTID" : 167,
        "name" : "グローバルキッズ愛住町園",
        "lon" : 139.71954099999999,
        "lat" : 35.689973999999999
      }
    },
    {
      "type" : "Feature",
      "id" : 168,
      "geometry" : {
        "type" : "Point",
        "coordinates" : [
          139.72633200000007,
          35.686315000000036
        ]
      },
      "properties" : {
        "OBJECTID" : 168,
        "name" : "グローバルキッズ若葉園",
        "lon" : 139.72633200000001,
        "lat" : 35.686315
      }
    },
    {
      "type" : "Feature",
      "id" : 169,
      "geometry" : {
        "type" : "Point",
        "coordinates" : [
          139.72340900000006,
          35.682165000000055
        ]
      },
      "properties" : {
        "OBJECTID" : 169,
        "name" : "二葉南元保育園",
        "lon" : 139.723409,
        "lat" : 35.682164999999998
      }
    },
    {
      "type" : "Feature",
      "id" : 170,
      "geometry" : {
        "type" : "Point",
        "coordinates" : [
          139.71549200000004,
          35.682199000000082
        ]
      },
      "properties" : {
        "OBJECTID" : 170,
        "name" : "新宿三つの木保育園もりさんかくしかく",
        "lon" : 139.71549200000001,
        "lat" : 35.682198999999997
      }
    },
    {
      "type" : "Feature",
      "id" : 171,
      "geometry" : {
        "type" : "Point",
        "coordinates" : [
          139.70976600000006,
          35.697053000000039
        ]
      },
      "properties" : {
        "OBJECTID" : 171,
        "name" : "フロンティアキッズ新宿",
        "lon" : 139.709766,
        "lat" : 35.697052999999997
      }
    },
    {
      "type" : "Feature",
      "id" : 172,
      "geometry" : {
        "type" : "Point",
        "coordinates" : [
          139.70900800000004,
          35.69291300000009
        ]
      },
      "properties" : {
        "OBJECTID" : 172,
        "name" : "きゃんばす東新宿保育園",
        "lon" : 139.70900800000001,
        "lat" : 35.692912999999997
      }
    },
    {
      "type" : "Feature",
      "id" : 173,
      "geometry" : {
        "type" : "Point",
        "coordinates" : [
          139.69369000000006,
          35.691346000000067
        ]
      },
      "properties" : {
        "OBJECTID" : 173,
        "name" : "新宿成子坂愛育園",
        "lon" : 139.69369,
        "lat" : 35.691346000000003
      }
    },
    {
      "type" : "Feature",
      "id" : 174,
      "geometry" : {
        "type" : "Point",
        "coordinates" : [
          139.68694300000004,
          35.693753000000072
        ]
      },
      "properties" : {
        "OBJECTID" : 174,
        "name" : "グローバルキッズ西新宿園",
        "lon" : 139.68694300000001,
        "lat" : 35.693753000000001
      }
    },
    {
      "type" : "Feature",
      "id" : 175,
      "geometry" : {
        "type" : "Point",
        "coordinates" : [
          139.68991200000005,
          35.694811000000072
        ]
      },
      "properties" : {
        "OBJECTID" : 175,
        "name" : "あい保育園西新宿",
        "lon" : 139.68991199999999,
        "lat" : 35.694811000000001
      }
    },
    {
      "type" : "Feature",
      "id" : 176,
      "geometry" : {
        "type" : "Point",
        "coordinates" : [
          139.67934200000002,
          35.725619000000052
        ]
      },
      "properties" : {
        "OBJECTID" : 176,
        "name" : "グローバルキッズ西落合保育園",
        "lon" : 139.67934199999999,
        "lat" : 35.725619000000002
      }
    },
    {
      "type" : "Feature",
      "id" : 177,
      "geometry" : {
        "type" : "Point",
        "coordinates" : [
          139.67852700000003,
          35.720209000000068
        ]
      },
      "properties" : {
        "OBJECTID" : 177,
        "name" : "キッズガーデン新宿西落合",
        "lon" : 139.678527,
        "lat" : 35.720208999999997
      }
    },
    {
      "type" : "Feature",
      "id" : 178,
      "geometry" : {
        "type" : "Point",
        "coordinates" : [
          139.69398000000001,
          35.717940000000056
        ]
      },
      "properties" : {
        "OBJECTID" : 178,
        "name" : "中落合第ニ保育園",
        "lon" : 139.69398000000001,
        "lat" : 35.717939999999999
      }
    },
    {
      "type" : "Feature",
      "id" : 179,
      "geometry" : {
        "type" : "Point",
        "coordinates" : [
          139.68215600000008,
          35.719061000000067
        ]
      },
      "properties" : {
        "OBJECTID" : 179,
        "name" : "新宿こだま保育園",
        "lon" : 139.68215599999999,
        "lat" : 35.719061000000004
      }
    },
    {
      "type" : "Feature",
      "id" : 180,
      "geometry" : {
        "type" : "Point",
        "coordinates" : [
          139.69459900000004,
          35.717894000000058
        ]
      },
      "properties" : {
        "OBJECTID" : 180,
        "name" : "下落合そらいろ保育園",
        "lon" : 139.69459900000001,
        "lat" : 35.717894000000001
      }
    },
    {
      "type" : "Feature",
      "id" : 181,
      "geometry" : {
        "type" : "Point",
        "coordinates" : [
          139.68691000000001,
          35.720942000000036
        ]
      },
      "properties" : {
        "OBJECTID" : 181,
        "name" : "ウィズブック保育園中落合",
        "lon" : 139.68691000000001,
        "lat" : 35.720942000000001
      }
    },
    {
      "type" : "Feature",
      "id" : 182,
      "geometry" : {
        "type" : "Point",
        "coordinates" : [
          139.70007200000009,
          35.71799400000009
        ]
      },
      "properties" : {
        "OBJECTID" : 182,
        "name" : "キッズタウン下落合保育園",
        "lon" : 139.70007200000001,
        "lat" : 35.717993999999997
      }
    },
    {
      "type" : "Feature",
      "id" : 183,
      "geometry" : {
        "type" : "Point",
        "coordinates" : [
          139.69113400000003,
          35.712729000000081
        ]
      },
      "properties" : {
        "OBJECTID" : 183,
        "name" : "八幡神社愛育園",
        "lon" : 139.69113400000001,
        "lat" : 35.712729000000003
      }
    },
    {
      "type" : "Feature",
      "id" : 184,
      "geometry" : {
        "type" : "Point",
        "coordinates" : [
          139.69131700000003,
          35.710980000000063
        ]
      },
      "properties" : {
        "OBJECTID" : 184,
        "name" : "あい保育園落合",
        "lon" : 139.691317,
        "lat" : 35.710979999999999
      }
    },
    {
      "type" : "Feature",
      "id" : 185,
      "geometry" : {
        "type" : "Point",
        "coordinates" : [
          139.69319200000007,
          35.715640000000064
        ]
      },
      "properties" : {
        "OBJECTID" : 185,
        "name" : "ほっぺるランド上落合",
        "lon" : 139.69319200000001,
        "lat" : 35.71564
      }
    },
    {
      "type" : "Feature",
      "id" : 186,
      "geometry" : {
        "type" : "Point",
        "coordinates" : [
          139.6861550000001,
          35.717675000000042
        ]
      },
      "properties" : {
        "OBJECTID" : 186,
        "name" : "獅子吼保育園",
        "lon" : 139.68615500000001,
        "lat" : 35.717675
      }
    },
    {
      "type" : "Feature",
      "id" : 187,
      "geometry" : {
        "type" : "Point",
        "coordinates" : [
          139.727802,
          35.708885000000066
        ]
      },
      "properties" : {
        "OBJECTID" : 187,
        "name" : "ほっぺるランド早稲田鶴巻町",
        "lon" : 139.727802,
        "lat" : 35.708885000000002
      }
    },
    {
      "type" : "Feature",
      "id" : 188,
      "geometry" : {
        "type" : "Point",
        "coordinates" : [
          139.72228200000006,
          35.705126000000064
        ]
      },
      "properties" : {
        "OBJECTID" : 188,
        "name" : "早稲田南町保育園",
        "lon" : 139.72228200000001,
        "lat" : 35.705126
      }
    },
    {
      "type" : "Feature",
      "id" : 189,
      "geometry" : {
        "type" : "Point",
        "coordinates" : [
          139.71228300000007,
          35.702114000000051
        ]
      },
      "properties" : {
        "OBJECTID" : 189,
        "name" : "戸山第ニ保育園",
        "lon" : 139.71228300000001,
        "lat" : 35.702114000000002
      }
    },
    {
      "type" : "Feature",
      "id" : 190,
      "geometry" : {
        "type" : "Point",
        "coordinates" : [
          139.72371900000007,
          35.698879000000034
        ]
      },
      "properties" : {
        "OBJECTID" : 190,
        "name" : "原町みゆき保育園",
        "lon" : 139.72371899999999,
        "lat" : 35.698878999999998
      }
    },
    {
      "type" : "Feature",
      "id" : 191,
      "geometry" : {
        "type" : "Point",
        "coordinates" : [
          139.7178110000001,
          35.697511000000077
        ]
      },
      "properties" : {
        "OBJECTID" : 191,
        "name" : "至誠会保育園",
        "lon" : 139.71781100000001,
        "lat" : 35.697510999999999
      }
    },
    {
      "type" : "Feature",
      "id" : 192,
      "geometry" : {
        "type" : "Point",
        "coordinates" : [
          139.72148900000002,
          35.696557000000041
        ]
      },
      "properties" : {
        "OBJECTID" : 192,
        "name" : "フロンティアキッズ曙橋",
        "lon" : 139.72148899999999,
        "lat" : 35.696556999999999
      }
    },
    {
      "type" : "Feature",
      "id" : 193,
      "geometry" : {
        "type" : "Point",
        "coordinates" : [
          139.72470600000008,
          35.696136000000081
        ]
      },
      "properties" : {
        "OBJECTID" : 193,
        "name" : "アスク薬王寺保育園",
        "lon" : 139.724706,
        "lat" : 35.696136000000003
      }
    },
    {
      "type" : "Feature",
      "id" : 194,
      "geometry" : {
        "type" : "Point",
        "coordinates" : [
          139.72061900000006,
          35.693167000000074
        ]
      },
      "properties" : {
        "OBJECTID" : 194,
        "name" : "ニチイキッズ曙橋保育園",
        "lon" : 139.720619,
        "lat" : 35.693167000000003
      }
    },
    {
      "type" : "Feature",
      "id" : 195,
      "geometry" : {
        "type" : "Point",
        "coordinates" : [
          139.71570000000008,
          35.694026000000065
        ]
      },
      "properties" : {
        "OBJECTID" : 195,
        "name" : "富久町保育園",
        "lon" : 139.7157,
        "lat" : 35.694026000000001
      }
    },
    {
      "type" : "Feature",
      "id" : 196,
      "geometry" : {
        "type" : "Point",
        "coordinates" : [
          139.73448700000006,
          35.702302000000088
        ]
      },
      "properties" : {
        "OBJECTID" : 196,
        "name" : "アスク神楽坂保育園",
        "lon" : 139.734487,
        "lat" : 35.702302000000003
      }
    },
    {
      "type" : "Feature",
      "id" : 197,
      "geometry" : {
        "type" : "Point",
        "coordinates" : [
          139.72865200000001,
          35.704544000000055
        ]
      },
      "properties" : {
        "OBJECTID" : 197,
        "name" : "ほっぺるランド神楽坂",
        "lon" : 139.72865200000001,
        "lat" : 35.704543999999999
      }
    },
    {
      "type" : "Feature",
      "id" : 198,
      "geometry" : {
        "type" : "Point",
        "coordinates" : [
          139.74013500000001,
          35.706783000000087
        ]
      },
      "properties" : {
        "OBJECTID" : 198,
        "name" : "東五軒町保育園",
        "lon" : 139.74013500000001,
        "lat" : 35.706783000000001
      }
    },
    {
      "type" : "Feature",
      "id" : 199,
      "geometry" : {
        "type" : "Point",
        "coordinates" : [
          139.743289,
          35.704490000000078
        ]
      },
      "properties" : {
        "OBJECTID" : 199,
        "name" : "太陽の子新小川町保育園",
        "lon" : 139.743289,
        "lat" : 35.70449
      }
    },
    {
      "type" : "Feature",
      "id" : 200,
      "geometry" : {
        "type" : "Point",
        "coordinates" : [
          139.74336800000003,
          35.705599000000063
        ]
      },
      "properties" : {
        "OBJECTID" : 200,
        "name" : "小学館アカデミー飯田橋ガーデン保育園",
        "lon" : 139.743368,
        "lat" : 35.705598999999999
      }
    },
    {
      "type" : "Feature",
      "id" : 201,
      "geometry" : {
        "type" : "Point",
        "coordinates" : [
          139.73961600000007,
          35.702586000000053
        ]
      },
      "properties" : {
        "OBJECTID" : 201,
        "name" : "グローバルキッズ神楽坂園",
        "lon" : 139.73961600000001,
        "lat" : 35.702585999999997
      }
    },
    {
      "type" : "Feature",
      "id" : 202,
      "geometry" : {
        "type" : "Point",
        "coordinates" : [
          139.73975400000006,
          35.69722500000006
        ]
      },
      "properties" : {
        "OBJECTID" : 202,
        "name" : "ぽけっとランド市ヶ谷保育園",
        "lon" : 139.739754,
        "lat" : 35.697225000000003
      }
    },
    {
      "type" : "Feature",
      "id" : 203,
      "geometry" : {
        "type" : "Point",
        "coordinates" : [
          139.73504600000001,
          35.698331000000053
        ]
      },
      "properties" : {
        "OBJECTID" : 203,
        "name" : "アスク新宿南町保育園",
        "lon" : 139.73504600000001,
        "lat" : 35.698331000000003
      }
    },
    {
      "type" : "Feature",
      "id" : 204,
      "geometry" : {
        "type" : "Point",
        "coordinates" : [
          139.734826,
          35.696648000000039
        ]
      },
      "properties" : {
        "OBJECTID" : 204,
        "name" : "ポピンズナーサリースクール市ヶ谷",
        "lon" : 139.734826,
        "lat" : 35.696648000000003
      }
    },
    {
      "type" : "Feature",
      "id" : 205,
      "geometry" : {
        "type" : "Point",
        "coordinates" : [
          139.73155700000007,
          35.690241000000071
        ]
      },
      "properties" : {
        "OBJECTID" : 205,
        "name" : "ポピンズナーサリースクール四ッ谷",
        "lon" : 139.73155700000001,
        "lat" : 35.690241
      }
    },
    {
      "type" : "Feature",
      "id" : 206,
      "geometry" : {
        "type" : "Point",
        "coordinates" : [
          139.73428200000001,
          35.694052000000056
        ]
      },
      "properties" : {
        "OBJECTID" : 206,
        "name" : "長延保育園",
        "lon" : 139.73428200000001,
        "lat" : 35.694051999999999
      }
    },
    {
      "type" : "Feature",
      "id" : 207,
      "geometry" : {
        "type" : "Point",
        "coordinates" : [
          139.7233930000001,
          35.70617400000009
        ]
      },
      "properties" : {
        "OBJECTID" : 207,
        "name" : "弁天町保育園",
        "lon" : 139.72339299999999,
        "lat" : 35.706173999999997
      }
    },
    {
      "type" : "Feature",
      "id" : 208,
      "geometry" : {
        "type" : "Point",
        "coordinates" : [
          139.73197100000004,
          35.699714000000085
        ]
      },
      "properties" : {
        "OBJECTID" : 208,
        "name" : "ほっぺるランド牛込",
        "lon" : 139.73197099999999,
        "lat" : 35.699714
      }
    },
    {
      "type" : "Feature",
      "id" : 209,
      "geometry" : {
        "type" : "Point",
        "coordinates" : [
          139.71539200000007,
          35.71038800000008
        ]
      },
      "properties" : {
        "OBJECTID" : 209,
        "name" : "西早稲田保育園",
        "lon" : 139.71539200000001,
        "lat" : 35.710388000000002
      }
    },
    {
      "type" : "Feature",
      "id" : 210,
      "geometry" : {
        "type" : "Point",
        "coordinates" : [
          139.71539200000007,
          35.71038800000008
        ]
      },
      "properties" : {
        "OBJECTID" : 210,
        "name" : "にじいろ保育園西早稲田",
        "lon" : 139.71539200000001,
        "lat" : 35.710388000000002
      }
    },
    {
      "type" : "Feature",
      "id" : 211,
      "geometry" : {
        "type" : "Point",
        "coordinates" : [
          139.71539200000007,
          35.71038800000008
        ]
      },
      "properties" : {
        "OBJECTID" : 211,
        "name" : "ぴっころきっず西早稲田",
        "lon" : 139.71539200000001,
        "lat" : 35.710388000000002
      }
    },
    {
      "type" : "Feature",
      "id" : 212,
      "geometry" : {
        "type" : "Point",
        "coordinates" : [
          139.70633000000009,
          35.708421000000044
        ]
      },
      "properties" : {
        "OBJECTID" : 212,
        "name" : "大久保第一保育園",
        "lon" : 139.70633000000001,
        "lat" : 35.708421000000001
      }
    },
    {
      "type" : "Feature",
      "id" : 213,
      "geometry" : {
        "type" : "Point",
        "coordinates" : [
          139.70688500000006,
          35.702480000000037
        ]
      },
      "properties" : {
        "OBJECTID" : 213,
        "name" : "エイビイシイ保育園",
        "lon" : 139.706885,
        "lat" : 35.702480000000001
      }
    },
    {
      "type" : "Feature",
      "id" : 214,
      "geometry" : {
        "type" : "Point",
        "coordinates" : [
          139.70285699999999,
          35.709134000000063
        ]
      },
      "properties" : {
        "OBJECTID" : 214,
        "name" : "にじいろ保育園高田馬場南",
        "lon" : 139.70285699999999,
        "lat" : 35.709133999999999
      }
    },
    {
      "type" : "Feature",
      "id" : 215,
      "geometry" : {
        "type" : "Point",
        "coordinates" : [
          139.70301000000006,
          35.700615000000084
        ]
      },
      "properties" : {
        "OBJECTID" : 215,
        "name" : "ほっぺるランド新大久保",
        "lon" : 139.70301000000001,
        "lat" : 35.700614999999999
      }
    },
    {
      "type" : "Feature",
      "id" : 216,
      "geometry" : {
        "type" : "Point",
        "coordinates" : [
          139.69751900000006,
          35.703207000000077
        ]
      },
      "properties" : {
        "OBJECTID" : 216,
        "name" : "百人町保育園",
        "lon" : 139.697519,
        "lat" : 35.703206999999999
      }
    },
    {
      "type" : "Feature",
      "id" : 217,
      "geometry" : {
        "type" : "Point",
        "coordinates" : [
          139.69983300000001,
          35.704883000000052
        ]
      },
      "properties" : {
        "OBJECTID" : 217,
        "name" : "新栄保育園",
        "lon" : 139.69983300000001,
        "lat" : 35.704883000000002
      }
    },
    {
      "type" : "Feature",
      "id" : 218,
      "geometry" : {
        "type" : "Point",
        "coordinates" : [
          139.69751900000006,
          35.703207000000077
        ]
      },
      "properties" : {
        "OBJECTID" : 218,
        "name" : "クオリスキッズおおくぼ保育園",
        "lon" : 139.697519,
        "lat" : 35.703206999999999
      }
    },
    {
      "type" : "Feature",
      "id" : 219,
      "geometry" : {
        "type" : "Point",
        "coordinates" : [
          139.6924140000001,
          35.701154000000088
        ]
      },
      "properties" : {
        "OBJECTID" : 219,
        "name" : "東京母子愛育会保育園",
        "lon" : 139.69241400000001,
        "lat" : 35.701154000000002
      }
    },
    {
      "type" : "Feature",
      "id" : 220,
      "geometry" : {
        "type" : "Point",
        "coordinates" : [
          139.69267300000001,
          35.702173000000073
        ]
      },
      "properties" : {
        "OBJECTID" : 220,
        "name" : "ほっぺるランド北新宿",
        "lon" : 139.69267300000001,
        "lat" : 35.702173000000002
      }
    },
    {
      "type" : "Feature",
      "id" : 221,
      "geometry" : {
        "type" : "Point",
        "coordinates" : [
          139.70781100000011,
          35.688919000000055
        ]
      },
      "properties" : {
        "OBJECTID" : 221,
        "name" : "アスク北新宿保育園",
        "lon" : 139.70781099999999,
        "lat" : 35.688918999999999
      }
    },
    {
      "type" : "Feature",
      "id" : 222,
      "geometry" : {
        "type" : "Point",
        "coordinates" : [
          139.70953700000007,
          35.711432000000059
        ]
      },
      "properties" : {
        "OBJECTID" : 222,
        "name" : "高田馬場第ニ保育園",
        "lon" : 139.70953700000001,
        "lat" : 35.711432000000002
      }
    },
    {
      "type" : "Feature",
      "id" : 223,
      "geometry" : {
        "type" : "Point",
        "coordinates" : [
          139.69630900000004,
          35.712946000000045
        ]
      },
      "properties" : {
        "OBJECTID" : 223,
        "name" : "オルト保育園",
        "lon" : 139.69630900000001,
        "lat" : 35.712946000000002
      }
    },
    {
      "type" : "Feature",
      "id" : 224,
      "geometry" : {
        "type" : "Point",
        "coordinates" : [
          139.70521800000006,
          35.71178400000008
        ]
      },
      "properties" : {
        "OBJECTID" : 224,
        "name" : "にじいろ保育園高田馬場西",
        "lon" : 139.705218,
        "lat" : 35.711784000000002
      }
    },
    {
      "type" : "Feature",
      "id" : 225,
      "geometry" : {
        "type" : "Point",
        "coordinates" : [
          139.70737400000007,
          35.711067000000071
        ]
      },
      "properties" : {
        "OBJECTID" : 225,
        "name" : "にじいろ保育園高田馬場東",
        "lon" : 139.70737399999999,
        "lat" : 35.711067
      }
    },
    {
      "type" : "Feature",
      "id" : 226,
      "geometry" : {
        "type" : "Point",
        "coordinates" : [
          139.70352300000002,
          35.71456100000006
        ]
      },
      "properties" : {
        "OBJECTID" : 226,
        "name" : "保育所まぁむ高田馬場駅前園",
        "lon" : 139.70352299999999,
        "lat" : 35.714561000000003
      }
    },
    {
      "type" : "Feature",
      "id" : 227,
      "geometry" : {
        "type" : "Point",
        "coordinates" : [
          139.816554,
          35.690449000000058
        ]
      },
      "properties" : {
        "OBJECTID" : 227,
        "name" : "江東区毛利保育園",
        "lon" : 139.816554,
        "lat" : 35.690449000000001
      }
    },
    {
      "type" : "Feature",
      "id" : 228,
      "geometry" : {
        "type" : "Point",
        "coordinates" : [
          139.81625000000008,
          35.687684000000047
        ]
      },
      "properties" : {
        "OBJECTID" : 228,
        "name" : "めばえ保育園",
        "lon" : 139.81625,
        "lat" : 35.687683999999997
      }
    },
    {
      "type" : "Feature",
      "id" : 229,
      "geometry" : {
        "type" : "Point",
        "coordinates" : [
          139.81126900000004,
          35.687976000000049
        ]
      },
      "properties" : {
        "OBJECTID" : 229,
        "name" : "グローバルキッズ住吉園",
        "lon" : 139.81126900000001,
        "lat" : 35.687975999999999
      }
    },
    {
      "type" : "Feature",
      "id" : 230,
      "geometry" : {
        "type" : "Point",
        "coordinates" : [
          139.81442700000002,
          35.686405000000036
        ]
      },
      "properties" : {
        "OBJECTID" : 230,
        "name" : "江東区猿江保育園",
        "lon" : 139.81442699999999,
        "lat" : 35.686405000000001
      }
    },
    {
      "type" : "Feature",
      "id" : 231,
      "geometry" : {
        "type" : "Point",
        "coordinates" : [
          139.81442700000002,
          35.686405000000036
        ]
      },
      "properties" : {
        "OBJECTID" : 231,
        "name" : "キッズスマイル江東猿江",
        "lon" : 139.81442699999999,
        "lat" : 35.686405000000001
      }
    },
    {
      "type" : "Feature",
      "id" : 232,
      "geometry" : {
        "type" : "Point",
        "coordinates" : [
          139.80303700000002,
          35.685972000000049
        ]
      },
      "properties" : {
        "OBJECTID" : 232,
        "name" : "江東区森下保育園",
        "lon" : 139.80303699999999,
        "lat" : 35.685972
      }
    },
    {
      "type" : "Feature",
      "id" : 233,
      "geometry" : {
        "type" : "Point",
        "coordinates" : [
          139.8013390000001,
          35.686530000000062
        ]
      },
      "properties" : {
        "OBJECTID" : 233,
        "name" : "神愛保育園",
        "lon" : 139.80133900000001,
        "lat" : 35.686529999999998
      }
    },
    {
      "type" : "Feature",
      "id" : 234,
      "geometry" : {
        "type" : "Point",
        "coordinates" : [
          139.80602400000009,
          35.68591500000008
        ]
      },
      "properties" : {
        "OBJECTID" : 234,
        "name" : "グローバルキッズ深川森下園",
        "lon" : 139.80602400000001,
        "lat" : 35.685915000000001
      }
    },
    {
      "type" : "Feature",
      "id" : 235,
      "geometry" : {
        "type" : "Point",
        "coordinates" : [
          139.80333700000006,
          35.687151000000085
        ]
      },
      "properties" : {
        "OBJECTID" : 235,
        "name" : "あゆみ保育園",
        "lon" : 139.803337,
        "lat" : 35.687151
      }
    },
    {
      "type" : "Feature",
      "id" : 236,
      "geometry" : {
        "type" : "Point",
        "coordinates" : [
          139.79666400000008,
          35.686560000000043
        ]
      },
      "properties" : {
        "OBJECTID" : 236,
        "name" : "ゆめの森保育園",
        "lon" : 139.79666399999999,
        "lat" : 35.68656
      }
    },
    {
      "type" : "Feature",
      "id" : 237,
      "geometry" : {
        "type" : "Point",
        "coordinates" : [
          139.801649,
          35.68678900000009
        ]
      },
      "properties" : {
        "OBJECTID" : 237,
        "name" : "太陽の子　森下三丁目保育園",
        "lon" : 139.801649,
        "lat" : 35.686788999999997
      }
    },
    {
      "type" : "Feature",
      "id" : 238,
      "geometry" : {
        "type" : "Point",
        "coordinates" : [
          139.8043560000001,
          35.671321000000034
        ]
      },
      "properties" : {
        "OBJECTID" : 238,
        "name" : "タムスわんぱく保育園木場",
        "lon" : 139.80435600000001,
        "lat" : 35.671320999999999
      }
    },
    {
      "type" : "Feature",
      "id" : 239,
      "geometry" : {
        "type" : "Point",
        "coordinates" : [
          139.79482600000006,
          35.690009000000089
        ]
      },
      "properties" : {
        "OBJECTID" : 239,
        "name" : "ワーカーズコープ　新大橋のびっこ保育園",
        "lon" : 139.794826,
        "lat" : 35.690009000000003
      }
    },
    {
      "type" : "Feature",
      "id" : 240,
      "geometry" : {
        "type" : "Point",
        "coordinates" : [
          139.81282300000009,
          35.683912000000078
        ]
      },
      "properties" : {
        "OBJECTID" : 240,
        "name" : "マミー保育園扇橋",
        "lon" : 139.81282300000001,
        "lat" : 35.683911999999999
      }
    },
    {
      "type" : "Feature",
      "id" : 241,
      "geometry" : {
        "type" : "Point",
        "coordinates" : [
          139.816551,
          35.680591000000049
        ]
      },
      "properties" : {
        "OBJECTID" : 241,
        "name" : "江東区千田保育園",
        "lon" : 139.816551,
        "lat" : 35.680591
      }
    },
    {
      "type" : "Feature",
      "id" : 242,
      "geometry" : {
        "type" : "Point",
        "coordinates" : [
          139.7994010000001,
          35.678381000000059
        ]
      },
      "properties" : {
        "OBJECTID" : 242,
        "name" : "グローバルキッズ平野園",
        "lon" : 139.79940099999999,
        "lat" : 35.678381000000002
      }
    },
    {
      "type" : "Feature",
      "id" : 243,
      "geometry" : {
        "type" : "Point",
        "coordinates" : [
          139.813716,
          35.669205000000034
        ]
      },
      "properties" : {
        "OBJECTID" : 243,
        "name" : "江東区東陽保育園",
        "lon" : 139.813716,
        "lat" : 35.669204999999998
      }
    },
    {
      "type" : "Feature",
      "id" : 244,
      "geometry" : {
        "type" : "Point",
        "coordinates" : [
          139.81935800000008,
          35.669128000000057
        ]
      },
      "properties" : {
        "OBJECTID" : 244,
        "name" : "ほっぺるランド東陽町",
        "lon" : 139.81935799999999,
        "lat" : 35.669128000000001
      }
    },
    {
      "type" : "Feature",
      "id" : 245,
      "geometry" : {
        "type" : "Point",
        "coordinates" : [
          139.81444400000009,
          35.669777000000067
        ]
      },
      "properties" : {
        "OBJECTID" : 245,
        "name" : "テンダーラビング保育園東陽",
        "lon" : 139.81444400000001,
        "lat" : 35.669777000000003
      }
    },
    {
      "type" : "Feature",
      "id" : 246,
      "geometry" : {
        "type" : "Point",
        "coordinates" : [
          139.81505700000002,
          35.666517000000056
        ]
      },
      "properties" : {
        "OBJECTID" : 246,
        "name" : "マミー保育園東陽町",
        "lon" : 139.815057,
        "lat" : 35.666516999999999
      }
    },
    {
      "type" : "Feature",
      "id" : 247,
      "geometry" : {
        "type" : "Point",
        "coordinates" : [
          139.81511399999999,
          35.66977600000007
        ]
      },
      "properties" : {
        "OBJECTID" : 247,
        "name" : "スターチス保育園",
        "lon" : 139.81511399999999,
        "lat" : 35.669775999999999
      }
    },
    {
      "type" : "Feature",
      "id" : 248,
      "geometry" : {
        "type" : "Point",
        "coordinates" : [
          139.81810400000006,
          35.668783000000076
        ]
      },
      "properties" : {
        "OBJECTID" : 248,
        "name" : "さくらさくみらい東陽二丁目",
        "lon" : 139.81810400000001,
        "lat" : 35.668782999999998
      }
    },
    {
      "type" : "Feature",
      "id" : 249,
      "geometry" : {
        "type" : "Point",
        "coordinates" : [
          139.814347,
          35.671802000000071
        ]
      },
      "properties" : {
        "OBJECTID" : 249,
        "name" : "さくらさくみらい東陽町",
        "lon" : 139.814347,
        "lat" : 35.671802
      }
    },
    {
      "type" : "Feature",
      "id" : 250,
      "geometry" : {
        "type" : "Point",
        "coordinates" : [
          139.799712,
          35.683146000000079
        ]
      },
      "properties" : {
        "OBJECTID" : 250,
        "name" : "江東区白河保育園",
        "lon" : 139.799712,
        "lat" : 35.683146000000001
      }
    },
    {
      "type" : "Feature",
      "id" : 251,
      "geometry" : {
        "type" : "Point",
        "coordinates" : [
          139.80026000000009,
          35.68336400000004
        ]
      },
      "properties" : {
        "OBJECTID" : 251,
        "name" : "江東区白河かもめ保育園",
        "lon" : 139.80026000000001,
        "lat" : 35.683363999999997
      }
    },
    {
      "type" : "Feature",
      "id" : 252,
      "geometry" : {
        "type" : "Point",
        "coordinates" : [
          139.80582900000002,
          35.681808000000046
        ]
      },
      "properties" : {
        "OBJECTID" : 252,
        "name" : "子供の村保育園",
        "lon" : 139.80582899999999,
        "lat" : 35.681807999999997
      }
    },
    {
      "type" : "Feature",
      "id" : 253,
      "geometry" : {
        "type" : "Point",
        "coordinates" : [
          139.80693700000006,
          35.682868000000042
        ]
      },
      "properties" : {
        "OBJECTID" : 253,
        "name" : "さんいく保育園清澄白河",
        "lon" : 139.806937,
        "lat" : 35.682867999999999
      }
    },
    {
      "type" : "Feature",
      "id" : 254,
      "geometry" : {
        "type" : "Point",
        "coordinates" : [
          139.80622800000003,
          35.683473000000049
        ]
      },
      "properties" : {
        "OBJECTID" : 254,
        "name" : "小鳩保育園　清澄白河",
        "lon" : 139.806228,
        "lat" : 35.683472999999999
      }
    },
    {
      "type" : "Feature",
      "id" : 255,
      "geometry" : {
        "type" : "Point",
        "coordinates" : [
          139.80866700000001,
          35.683822000000077
        ]
      },
      "properties" : {
        "OBJECTID" : 255,
        "name" : "まなびの森保育園白河",
        "lon" : 139.80866700000001,
        "lat" : 35.683821999999999
      }
    },
    {
      "type" : "Feature",
      "id" : 256,
      "geometry" : {
        "type" : "Point",
        "coordinates" : [
          139.79967000000011,
          35.682687000000044
        ]
      },
      "properties" : {
        "OBJECTID" : 256,
        "name" : "グローバルキッズ白河一丁目園",
        "lon" : 139.79966999999999,
        "lat" : 35.682687000000001
      }
    },
    {
      "type" : "Feature",
      "id" : 257,
      "geometry" : {
        "type" : "Point",
        "coordinates" : [
          139.80440900000008,
          35.681580000000054
        ]
      },
      "properties" : {
        "OBJECTID" : 257,
        "name" : "グローバルキッズ清澄白河園",
        "lon" : 139.80440899999999,
        "lat" : 35.681579999999997
      }
    },
    {
      "type" : "Feature",
      "id" : 258,
      "geometry" : {
        "type" : "Point",
        "coordinates" : [
          139.80347700000004,
          35.67951000000005
        ]
      },
      "properties" : {
        "OBJECTID" : 258,
        "name" : "さくらさくみらい三好",
        "lon" : 139.80347699999999,
        "lat" : 35.679510000000001
      }
    },
    {
      "type" : "Feature",
      "id" : 259,
      "geometry" : {
        "type" : "Point",
        "coordinates" : [
          139.79456700000003,
          35.641812000000073
        ]
      },
      "properties" : {
        "OBJECTID" : 259,
        "name" : "みらいく有明園",
        "lon" : 139.794567,
        "lat" : 35.641812000000002
      }
    },
    {
      "type" : "Feature",
      "id" : 260,
      "geometry" : {
        "type" : "Point",
        "coordinates" : [
          139.79738300000008,
          35.683080000000075
        ]
      },
      "properties" : {
        "OBJECTID" : 260,
        "name" : "うぃず清澄白河駅前保育園",
        "lon" : 139.797383,
        "lat" : 35.683079999999997
      }
    },
    {
      "type" : "Feature",
      "id" : 261,
      "geometry" : {
        "type" : "Point",
        "coordinates" : [
          139.79425300000003,
          35.682770000000062
        ]
      },
      "properties" : {
        "OBJECTID" : 261,
        "name" : "おはよう保育園　清澄白河",
        "lon" : 139.794253,
        "lat" : 35.682769999999998
      }
    },
    {
      "type" : "Feature",
      "id" : 262,
      "geometry" : {
        "type" : "Point",
        "coordinates" : [
          139.79640600000005,
          35.677343000000064
        ]
      },
      "properties" : {
        "OBJECTID" : 262,
        "name" : "江東区深川一丁目保育園",
        "lon" : 139.79640599999999,
        "lat" : 35.677343
      }
    },
    {
      "type" : "Feature",
      "id" : 263,
      "geometry" : {
        "type" : "Point",
        "coordinates" : [
          139.80127100000004,
          35.674941000000047
        ]
      },
      "properties" : {
        "OBJECTID" : 263,
        "name" : "まこと保育園",
        "lon" : 139.80127100000001,
        "lat" : 35.674940999999997
      }
    },
    {
      "type" : "Feature",
      "id" : 264,
      "geometry" : {
        "type" : "Point",
        "coordinates" : [
          139.80024000000003,
          35.673155000000065
        ]
      },
      "properties" : {
        "OBJECTID" : 264,
        "name" : "ナーサリールームベリーベアー深川冬木",
        "lon" : 139.80024,
        "lat" : 35.673155000000001
      }
    },
    {
      "type" : "Feature",
      "id" : 265,
      "geometry" : {
        "type" : "Point",
        "coordinates" : [
          139.80249400000002,
          35.668679000000054
        ]
      },
      "properties" : {
        "OBJECTID" : 265,
        "name" : "アゼリヤ保育園",
        "lon" : 139.802494,
        "lat" : 35.668678999999997
      }
    },
    {
      "type" : "Feature",
      "id" : 266,
      "geometry" : {
        "type" : "Point",
        "coordinates" : [
          139.80789600000003,
          35.670724000000064
        ]
      },
      "properties" : {
        "OBJECTID" : 266,
        "name" : "グレース保育園",
        "lon" : 139.807896,
        "lat" : 35.670724
      }
    },
    {
      "type" : "Feature",
      "id" : 267,
      "geometry" : {
        "type" : "Point",
        "coordinates" : [
          139.804756,
          35.668615000000045
        ]
      },
      "properties" : {
        "OBJECTID" : 267,
        "name" : "スマイルクラブナーサリー木場",
        "lon" : 139.804756,
        "lat" : 35.668615000000003
      }
    },
    {
      "type" : "Feature",
      "id" : 268,
      "geometry" : {
        "type" : "Point",
        "coordinates" : [
          139.80935100000011,
          35.672782000000041
        ]
      },
      "properties" : {
        "OBJECTID" : 268,
        "name" : "ＭＩＷＡ木場公園保育園",
        "lon" : 139.80935099999999,
        "lat" : 35.672781999999998
      }
    },
    {
      "type" : "Feature",
      "id" : 269,
      "geometry" : {
        "type" : "Point",
        "coordinates" : [
          139.80886200000009,
          35.684958000000051
        ]
      },
      "properties" : {
        "OBJECTID" : 269,
        "name" : "グローバルキッズ森下五丁目園",
        "lon" : 139.808862,
        "lat" : 35.684958000000002
      }
    },
    {
      "type" : "Feature",
      "id" : 270,
      "geometry" : {
        "type" : "Point",
        "coordinates" : [
          139.80865100000005,
          35.660893000000044
        ]
      },
      "properties" : {
        "OBJECTID" : 270,
        "name" : "江東区塩崎保育園",
        "lon" : 139.808651,
        "lat" : 35.660893000000002
      }
    },
    {
      "type" : "Feature",
      "id" : 271,
      "geometry" : {
        "type" : "Point",
        "coordinates" : [
          139.80077200000005,
          35.663487000000089
        ]
      },
      "properties" : {
        "OBJECTID" : 271,
        "name" : "江東区塩浜保育園",
        "lon" : 139.80077199999999,
        "lat" : 35.663487000000003
      }
    },
    {
      "type" : "Feature",
      "id" : 272,
      "geometry" : {
        "type" : "Point",
        "coordinates" : [
          139.80213600000002,
          35.663773000000049
        ]
      },
      "properties" : {
        "OBJECTID" : 272,
        "name" : "聖華しおかぜ保育園",
        "lon" : 139.80213599999999,
        "lat" : 35.663772999999999
      }
    },
    {
      "type" : "Feature",
      "id" : 273,
      "geometry" : {
        "type" : "Point",
        "coordinates" : [
          139.80787200000009,
          35.660957000000053
        ]
      },
      "properties" : {
        "OBJECTID" : 273,
        "name" : "ＬＩＦＥ　ＳＣＨＯＯＬ　塩浜　こどものいえ",
        "lon" : 139.807872,
        "lat" : 35.660957000000003
      }
    },
    {
      "type" : "Feature",
      "id" : 274,
      "geometry" : {
        "type" : "Point",
        "coordinates" : [
          139.816507,
          35.678512000000069
        ]
      },
      "properties" : {
        "OBJECTID" : 274,
        "name" : "キッズスマイル江東千石",
        "lon" : 139.816507,
        "lat" : 35.678511999999998
      }
    },
    {
      "type" : "Feature",
      "id" : 275,
      "geometry" : {
        "type" : "Point",
        "coordinates" : [
          139.79554000000007,
          35.664889000000073
        ]
      },
      "properties" : {
        "OBJECTID" : 275,
        "name" : "ポピンズナーサリースクール越中島",
        "lon" : 139.79553999999999,
        "lat" : 35.664889000000002
      }
    },
    {
      "type" : "Feature",
      "id" : 276,
      "geometry" : {
        "type" : "Point",
        "coordinates" : [
          139.79876200000001,
          35.667216000000053
        ]
      },
      "properties" : {
        "OBJECTID" : 276,
        "name" : "江東区古石場保育園",
        "lon" : 139.79876200000001,
        "lat" : 35.667216000000003
      }
    },
    {
      "type" : "Feature",
      "id" : 277,
      "geometry" : {
        "type" : "Point",
        "coordinates" : [
          139.79682600000001,
          35.672765000000084
        ]
      },
      "properties" : {
        "OBJECTID" : 277,
        "name" : "アスクもんなか保育園",
        "lon" : 139.79682600000001,
        "lat" : 35.672764999999998
      }
    },