{
  "type" : "FeatureCollection",
  "features" : [
    {
      "type" : "Feature",
      "id" : 1,
      "geometry" : {
        "type" : "Point",
        "coordinates" : [
          139.74724500000002,
          35.644059000000084
        ]
      },
      "properties" : {
        "OBJECTID" : 1,
        "name" : "東京工業大学附属科学技術高等学校",
        "lon" : 139.74724499999999,
        "lat" : 35.644058999999999
      }
    },
    {
      "type" : "Feature",
      "id" : 2,
      "geometry" : {
        "type" : "Point",
        "coordinates" : [
          139.73944300000005,
          35.684971000000075
        ]
      },
      "properties" : {
        "OBJECTID" : 2,
        "name" : "麹町",
        "lon" : 139.73944299999999,
        "lat" : 35.684970999999997
      }
    },
    {
      "type" : "Feature",
      "id" : 3,
      "geometry" : {
        "type" : "Point",
        "coordinates" : [
          139.74071300000003,
          35.690522000000044
        ]
      },
      "properties" : {
        "OBJECTID" : 3,
        "name" : "九段",
        "lon" : 139.740713,
        "lat" : 35.690522000000001
      }
    },
    {
      "type" : "Feature",
      "id" : 4,
      "geometry" : {
        "type" : "Point",
        "coordinates" : [
          139.73354900000004,
          35.687673000000075
        ]
      },
      "properties" : {
        "OBJECTID" : 4,
        "name" : "番町",
        "lon" : 139.73354900000001,
        "lat" : 35.687672999999997
      }
    },
    {
      "type" : "Feature",
      "id" : 5,
      "geometry" : {
        "type" : "Point",
        "coordinates" : [
          139.74872900000003,
          35.697343000000046
        ]
      },
      "properties" : {
        "OBJECTID" : 5,
        "name" : "お茶の水",
        "lon" : 139.748729,
        "lat" : 35.697342999999996
      }
    },
    {
      "type" : "Feature",
      "id" : 6,
      "geometry" : {
        "type" : "Point",
        "coordinates" : [
          139.76744400000007,
          35.693129000000056
        ]
      },
      "properties" : {
        "OBJECTID" : 6,
        "name" : "千代田",
        "lon" : 139.76744400000001,
        "lat" : 35.693128999999999
      }
    },
    {
      "type" : "Feature",
      "id" : 7,
      "geometry" : {
        "type" : "Point",
        "coordinates" : [
          139.76985300000001,
          35.701232000000061
        ]
      },
      "properties" : {
        "OBJECTID" : 7,
        "name" : "昌平",
        "lon" : 139.76985300000001,
        "lat" : 35.701231999999997
      }
    },
    {
      "type" : "Feature",
      "id" : 8,
      "geometry" : {
        "type" : "Point",
        "coordinates" : [
          139.77847400000007,
          35.699154000000078
        ]
      },
      "properties" : {
        "OBJECTID" : 8,
        "name" : "いずみこども園",
        "lon" : 139.77847399999999,
        "lat" : 35.699154
      }
    },
    {
      "type" : "Feature",
      "id" : 9,
      "geometry" : {
        "type" : "Point",
        "coordinates" : [
          139.74621300000001,
          35.696941000000038
        ]
      },
      "properties" : {
        "OBJECTID" : 9,
        "name" : "ふじみこども園",
        "lon" : 139.74621300000001,
        "lat" : 35.696941000000002
      }
    },
    {
      "type" : "Feature",
      "id" : 10,
      "geometry" : {
        "type" : "Point",
        "coordinates" : [
          139.76908200000003,
          35.679115000000081
        ]
      },
      "properties" : {
        "OBJECTID" : 10,
        "name" : "昭和",
        "lon" : 139.769082,
        "lat" : 35.679115000000003
      }
    },
    {
      "type" : "Feature",
      "id" : 11,
      "geometry" : {
        "type" : "Point",
        "coordinates" : [
          139.76133300000004,
          35.672339000000079
        ]
      },
      "properties" : {
        "OBJECTID" : 11,
        "name" : "泰明",
        "lon" : 139.76133300000001,
        "lat" : 35.672339000000001
      }
    },
    {
      "type" : "Feature",
      "id" : 12,
      "geometry" : {
        "type" : "Point",
        "coordinates" : [
          139.778773,
          35.672180000000083
        ]
      },
      "properties" : {
        "OBJECTID" : 12,
        "name" : "中央",
        "lon" : 139.778773,
        "lat" : 35.672179999999997
      }
    },
    {
      "type" : "Feature",
      "id" : 13,
      "geometry" : {
        "type" : "Point",
        "coordinates" : [
          139.77644700000008,
          35.66871000000009
        ]
      },
      "properties" : {
        "OBJECTID" : 13,
        "name" : "明石",
        "lon" : 139.77644699999999,
        "lat" : 35.668709999999997
      }
    },
    {
      "type" : "Feature",
      "id" : 14,
      "geometry" : {
        "type" : "Point",
        "coordinates" : [
          139.77137300000004,
          35.667930000000069
        ]
      },
      "properties" : {
        "OBJECTID" : 14,
        "name" : "京橋朝海",
        "lon" : 139.77137300000001,
        "lat" : 35.667929999999998
      }
    },
    {
      "type" : "Feature",
      "id" : 15,
      "geometry" : {
        "type" : "Point",
        "coordinates" : [
          139.78156100000001,
          35.675974000000053
        ]
      },
      "properties" : {
        "OBJECTID" : 15,
        "name" : "明正",
        "lon" : 139.78156100000001,
        "lat" : 35.675973999999997
      }
    },
    {
      "type" : "Feature",
      "id" : 16,
      "geometry" : {
        "type" : "Point",
        "coordinates" : [
          139.77020000000005,
          35.688172000000066
        ]
      },
      "properties" : {
        "OBJECTID" : 16,
        "name" : "常盤",
        "lon" : 139.77019999999999,
        "lat" : 35.688172000000002
      }
    },
    {
      "type" : "Feature",
      "id" : 17,
      "geometry" : {
        "type" : "Point",
        "coordinates" : [
          139.78796900000009,
          35.683292000000051
        ]
      },
      "properties" : {
        "OBJECTID" : 17,
        "name" : "有馬",
        "lon" : 139.787969,
        "lat" : 35.683292000000002
      }
    },
    {
      "type" : "Feature",
      "id" : 18,
      "geometry" : {
        "type" : "Point",
        "coordinates" : [
          139.78433200000006,
          35.689041000000088
        ]
      },
      "properties" : {
        "OBJECTID" : 18,
        "name" : "久松",
        "lon" : 139.78433200000001,
        "lat" : 35.689041000000003
      }
    },
    {
      "type" : "Feature",
      "id" : 19,
      "geometry" : {
        "type" : "Point",
        "coordinates" : [
          139.78285100000005,
          35.664693000000057
        ]
      },
      "properties" : {
        "OBJECTID" : 19,
        "name" : "月島",
        "lon" : 139.78285099999999,
        "lat" : 35.664693
      }
    },
    {
      "type" : "Feature",
      "id" : 20,
      "geometry" : {
        "type" : "Point",
        "coordinates" : [
          139.77975700000002,
          35.660350000000051
        ]
      },
      "properties" : {
        "OBJECTID" : 20,
        "name" : "月島第一",
        "lon" : 139.77975699999999,
        "lat" : 35.660350000000001
      }
    },
    {
      "type" : "Feature",
      "id" : 21,
      "geometry" : {
        "type" : "Point",
        "coordinates" : [
          139.77555200000006,
          35.659823000000074
        ]
      },
      "properties" : {
        "OBJECTID" : 21,
        "name" : "月島第二",
        "lon" : 139.775552,
        "lat" : 35.659823000000003
      }
    },
    {
      "type" : "Feature",
      "id" : 22,
      "geometry" : {
        "type" : "Point",
        "coordinates" : [
          139.78568700000005,
          35.65836500000006
        ]
      },
      "properties" : {
        "OBJECTID" : 22,
        "name" : "晴海",
        "lon" : 139.785687,
        "lat" : 35.658365000000003
      }
    },
    {
      "type" : "Feature",
      "id" : 23,
      "geometry" : {
        "type" : "Point",
        "coordinates" : [
          139.77131800000006,
          35.65317500000009
        ]
      },
      "properties" : {
        "OBJECTID" : 23,
        "name" : "豊海",
        "lon" : 139.77131800000001,
        "lat" : 35.653174999999997
      }
    },
    {
      "type" : "Feature",
      "id" : 24,
      "geometry" : {
        "type" : "Point",
        "coordinates" : [
          139.78138300000001,
          35.684260000000052
        ]
      },
      "properties" : {
        "OBJECTID" : 24,
        "name" : "日本橋",
        "lon" : 139.78138300000001,
        "lat" : 35.684260000000002
      }
    },
    {
      "type" : "Feature",
      "id" : 25,
      "geometry" : {
        "type" : "Point",
        "coordinates" : [
          139.74214300000006,
          35.652996000000087
        ]
      },
      "properties" : {
        "OBJECTID" : 25,
        "name" : "赤羽",
        "lon" : 139.742143,
        "lat" : 35.652996000000002
      }
    },
    {
      "type" : "Feature",
      "id" : 26,
      "geometry" : {
        "type" : "Point",
        "coordinates" : [
          139.74636200000009,
          35.63875900000005
        ]
      },
      "properties" : {
        "OBJECTID" : 26,
        "name" : "芝浦",
        "lon" : 139.746362,
        "lat" : 35.638759
      }
    },
    {
      "type" : "Feature",
      "id" : 27,
      "geometry" : {
        "type" : "Point",
        "coordinates" : [
          139.72888900000009,
          35.645003000000088
        ]
      },
      "properties" : {
        "OBJECTID" : 27,
        "name" : "三光",
        "lon" : 139.72888900000001,
        "lat" : 35.645003000000003
      }
    },
    {
      "type" : "Feature",
      "id" : 28,
      "geometry" : {
        "type" : "Point",
        "coordinates" : [
          139.74882500000001,
          35.629240000000038
        ]
      },
      "properties" : {
        "OBJECTID" : 28,
        "name" : "港南",
        "lon" : 139.74882500000001,
        "lat" : 35.629240000000003
      }
    },
    {
      "type" : "Feature",
      "id" : 29,
      "geometry" : {
        "type" : "Point",
        "coordinates" : [
          139.73840300000006,
          35.661831000000063
        ]
      },
      "properties" : {
        "OBJECTID" : 29,
        "name" : "麻布",
        "lon" : 139.73840300000001,
        "lat" : 35.661830999999999
      }
    },
    {
      "type" : "Feature",
      "id" : 30,
      "geometry" : {
        "type" : "Point",
        "coordinates" : [
          139.73115300000006,
          35.657252000000085
        ]
      },
      "properties" : {
        "OBJECTID" : 30,
        "name" : "南山",
        "lon" : 139.73115300000001,
        "lat" : 35.657252
      }
    },
    {
      "type" : "Feature",
      "id" : 31,
      "geometry" : {
        "type" : "Point",
        "coordinates" : [
          139.72987000000001,
          35.649869000000081
        ]
      },
      "properties" : {
        "OBJECTID" : 31,
        "name" : "本村",
        "lon" : 139.72987000000001,
        "lat" : 35.649869000000002
      }
    },
    {
      "type" : "Feature",
      "id" : 32,
      "geometry" : {
        "type" : "Point",
        "coordinates" : [
          139.7314540000001,
          35.667845000000057
        ]
      },
      "properties" : {
        "OBJECTID" : 32,
        "name" : "中之町",
        "lon" : 139.73145400000001,
        "lat" : 35.667845
      }
    },
    {
      "type" : "Feature",
      "id" : 33,
      "geometry" : {
        "type" : "Point",
        "coordinates" : [
          139.71706100000006,
          35.663551000000041
        ]
      },
      "properties" : {
        "OBJECTID" : 33,
        "name" : "青南",
        "lon" : 139.717061,
        "lat" : 35.663550999999998
      }
    },
    {
      "type" : "Feature",
      "id" : 34,
      "geometry" : {
        "type" : "Point",
        "coordinates" : [
          139.72656400000005,
          35.635589000000039
        ]
      },
      "properties" : {
        "OBJECTID" : 34,
        "name" : "白金台",
        "lon" : 139.726564,
        "lat" : 35.635589000000003
      }
    },
    {
      "type" : "Feature",
      "id" : 35,
      "geometry" : {
        "type" : "Point",
        "coordinates" : [
          139.73530100000005,
          35.635407000000043
        ]
      },
      "properties" : {
        "OBJECTID" : 35,
        "name" : "高輪",
        "lon" : 139.73530099999999,
        "lat" : 35.635407000000001
      }
    },
    {
      "type" : "Feature",
      "id" : 36,
      "geometry" : {
        "type" : "Point",
        "coordinates" : [
          139.77699600000005,
          35.633781000000056
        ]
      },
      "properties" : {
        "OBJECTID" : 36,
        "name" : "にじのはし",
        "lon" : 139.776996,
        "lat" : 35.633780999999999
      }
    },
    {
      "type" : "Feature",
      "id" : 37,
      "geometry" : {
        "type" : "Point",
        "coordinates" : [
          139.74199600000009,
          35.702676000000054
        ]
      },
      "properties" : {
        "OBJECTID" : 37,
        "name" : "津久戸",
        "lon" : 139.741996,
        "lat" : 35.702675999999997
      }
    },
    {
      "type" : "Feature",
      "id" : 38,
      "geometry" : {
        "type" : "Point",
        "coordinates" : [
          139.73658,
          35.707068000000049
        ]
      },
      "properties" : {
        "OBJECTID" : 38,
        "name" : "江戸川",
        "lon" : 139.73658,
        "lat" : 35.707068
      }
    },
    {
      "type" : "Feature",
      "id" : 39,
      "geometry" : {
        "type" : "Point",
        "coordinates" : [
          139.72872200000006,
          35.699767000000065
        ]
      },
      "properties" : {
        "OBJECTID" : 39,
        "name" : "市谷",
        "lon" : 139.728722,
        "lat" : 35.699767000000001
      }
    },
    {
      "type" : "Feature",
      "id" : 40,
      "geometry" : {
        "type" : "Point",
        "coordinates" : [
          139.72353200000009,
          35.704625000000078
        ]
      },
      "properties" : {
        "OBJECTID" : 40,
        "name" : "早稲田",
        "lon" : 139.72353200000001,
        "lat" : 35.704625
      }
    },
    {
      "type" : "Feature",
      "id" : 41,
      "geometry" : {
        "type" : "Point",
        "coordinates" : [
          139.72503900000004,
          35.708566000000076
        ]
      },
      "properties" : {
        "OBJECTID" : 41,
        "name" : "鶴巻",
        "lon" : 139.72503900000001,
        "lat" : 35.708565999999998
      }
    },
    {
      "type" : "Feature",
      "id" : 42,
      "geometry" : {
        "type" : "Point",
        "coordinates" : [
          139.72360000000003,
          35.695803000000069
        ]
      },
      "properties" : {
        "OBJECTID" : 42,
        "name" : "牛込仲之",
        "lon" : 139.7236,
        "lat" : 35.695802999999998
      }
    },
    {
      "type" : "Feature",
      "id" : 43,
      "geometry" : {
        "type" : "Point",
        "coordinates" : [
          139.71635600000002,
          35.692373000000089
        ]
      },
      "properties" : {
        "OBJECTID" : 43,
        "name" : "富久",
        "lon" : 139.71635599999999,
        "lat" : 35.692373000000003
      }
    },
    {
      "type" : "Feature",
      "id" : 44,
      "geometry" : {
        "type" : "Point",
        "coordinates" : [
          139.71562100000006,
          35.699306000000036
        ]
      },
      "properties" : {
        "OBJECTID" : 44,
        "name" : "余丁町",
        "lon" : 139.715621,
        "lat" : 35.699306
      }
    },
    {
      "type" : "Feature",
      "id" : 45,
      "geometry" : {
        "type" : "Point",
        "coordinates" : [
          139.7155600000001,
          35.681130000000053
        ]
      },
      "properties" : {
        "OBJECTID" : 45,
        "name" : "四谷第六",
        "lon" : 139.71556000000001,
        "lat" : 35.681130000000003
      }
    },
    {
      "type" : "Feature",
      "id" : 46,
      "geometry" : {
        "type" : "Point",
        "coordinates" : [
          139.71367600000008,
          35.689530000000047
        ]
      },
      "properties" : {
        "OBJECTID" : 46,
        "name" : "花園",
        "lon" : 139.71367599999999,
        "lat" : 35.689529999999998
      }
    },
    {
      "type" : "Feature",
      "id" : 47,
      "geometry" : {
        "type" : "Point",
        "coordinates" : [
          139.70550300000002,
          35.699513000000081
        ]
      },
      "properties" : {
        "OBJECTID" : 47,
        "name" : "大久保",
        "lon" : 139.70550299999999,
        "lat" : 35.699513000000003
      }
    },
    {
      "type" : "Feature",
      "id" : 48,
      "geometry" : {
        "type" : "Point",
        "coordinates" : [
          139.701953,
          35.704019000000073
        ]
      },
      "properties" : {
        "OBJECTID" : 48,
        "name" : "戸山",
        "lon" : 139.701953,
        "lat" : 35.704019000000002
      }
    },
    {
      "type" : "Feature",
      "id" : 49,
      "geometry" : {
        "type" : "Point",
        "coordinates" : [
          139.71504700000003,
          35.711097000000052
        ]
      },
      "properties" : {
        "OBJECTID" : 49,
        "name" : "戸塚第一",
        "lon" : 139.715047,
        "lat" : 35.711097000000002
      }
    },
    {
      "type" : "Feature",
      "id" : 50,
      "geometry" : {
        "type" : "Point",
        "coordinates" : [
          139.70589900000004,
          35.712606000000051
        ]
      },
      "properties" : {
        "OBJECTID" : 50,
        "name" : "戸塚第二",
        "lon" : 139.70589899999999,
        "lat" : 35.712606000000001
      }
    },
    {
      "type" : "Feature",
      "id" : 51,
      "geometry" : {
        "type" : "Point",
        "coordinates" : [
          139.69750500000009,
          35.714870000000076
        ]
      },
      "properties" : {
        "OBJECTID" : 51,
        "name" : "戸塚第三",
        "lon" : 139.69750500000001,
        "lat" : 35.714869999999998
      }
    },
    {
      "type" : "Feature",
      "id" : 52,
      "geometry" : {
        "type" : "Point",
        "coordinates" : [
          139.68878100000006,
          35.712762000000055
        ]
      },
      "properties" : {
        "OBJECTID" : 52,
        "name" : "落合第二",
        "lon" : 139.68878100000001,
        "lat" : 35.712761999999998
      }
    },
    {
      "type" : "Feature",
      "id" : 53,
      "geometry" : {
        "type" : "Point",
        "coordinates" : [
          139.68243800000005,
          35.720904000000075
        ]
      },
      "properties" : {
        "OBJECTID" : 53,
        "name" : "落合第三",
        "lon" : 139.68243799999999,
        "lat" : 35.720903999999997
      }
    },
    {
      "type" : "Feature",
      "id" : 54,
      "geometry" : {
        "type" : "Point",
        "coordinates" : [
          139.70015599999999,
          35.718333000000086
        ]
      },
      "properties" : {
        "OBJECTID" : 54,
        "name" : "落合第四",
        "lon" : 139.70015599999999,
        "lat" : 35.718333000000001
      }
    },
    {
      "type" : "Feature",
      "id" : 55,
      "geometry" : {
        "type" : "Point",
        "coordinates" : [
          139.6783660000001,
          35.726811000000055
        ]
      },
      "properties" : {
        "OBJECTID" : 55,
        "name" : "落合第六",
        "lon" : 139.67836600000001,
        "lat" : 35.726810999999998
      }
    },
    {
      "type" : "Feature",
      "id" : 56,
      "geometry" : {
        "type" : "Point",
        "coordinates" : [
          139.69142700000009,
          35.704350000000034
        ]
      },
      "properties" : {
        "OBJECTID" : 56,
        "name" : "淀橋第四",
        "lon" : 139.691427,
        "lat" : 35.704349999999998
      }
    },
    {
      "type" : "Feature",
      "id" : 57,
      "geometry" : {
        "type" : "Point",
        "coordinates" : [
          139.69572000000005,
          35.708883000000071
        ]
      },
      "properties" : {
        "OBJECTID" : 57,
        "name" : "西戸山",
        "lon" : 139.69571999999999,
        "lat" : 35.708883
      }
    },
    {
      "type" : "Feature",
      "id" : 58,
      "geometry" : {
        "type" : "Point",
        "coordinates" : [
          139.79477400000007,
          35.669204000000036
        ]
      },
      "properties" : {
        "OBJECTID" : 58,
        "name" : "ちどり",
        "lon" : 139.79477399999999,
        "lat" : 35.669204000000001
      }
    },
    {
      "type" : "Feature",
      "id" : 59,
      "geometry" : {
        "type" : "Point",
        "coordinates" : [
          139.8026430000001,
          35.667464000000052
        ]
      },
      "properties" : {
        "OBJECTID" : 59,
        "name" : "平久",
        "lon" : 139.80264299999999,
        "lat" : 35.667464000000002
      }
    },
    {
      "type" : "Feature",
      "id" : 60,
      "geometry" : {
        "type" : "Point",
        "coordinates" : [
          139.81721900000002,
          35.679650000000038
        ]
      },
      "properties" : {
        "OBJECTID" : 60,
        "name" : "川南",
        "lon" : 139.81721899999999,
        "lat" : 35.679650000000002
      }
    },
    {
      "type" : "Feature",
      "id" : 61,
      "geometry" : {
        "type" : "Point",
        "coordinates" : [
          139.80781300000001,
          35.682958000000042
        ]
      },
      "properties" : {
        "OBJECTID" : 61,
        "name" : "元加賀",
        "lon" : 139.80781300000001,
        "lat" : 35.682957999999999
      }
    },
    {
      "type" : "Feature",
      "id" : 62,
      "geometry" : {
        "type" : "Point",
        "coordinates" : [
          139.79795300000001,
          35.653819000000055
        ]
      },
      "properties" : {
        "OBJECTID" : 62,
        "name" : "豊洲",
        "lon" : 139.79795300000001,
        "lat" : 35.653818999999999
      }
    },
    {
      "type" : "Feature",
      "id" : 63,
      "geometry" : {
        "type" : "Point",
        "coordinates" : [
          139.80998099999999,
          35.646584000000075
        ]
      },
      "properties" : {
        "OBJECTID" : 63,
        "name" : "辰巳",
        "lon" : 139.80998099999999,
        "lat" : 35.646583999999997
      }
    },
    {
      "type" : "Feature",
      "id" : 64,
      "geometry" : {
        "type" : "Point",
        "coordinates" : [
          139.82193100000006,
          35.698800000000062
        ]
      },
      "properties" : {
        "OBJECTID" : 64,
        "name" : "第一亀戸",
        "lon" : 139.82193100000001,
        "lat" : 35.698799999999999
      }
    },
    {
      "type" : "Feature",
      "id" : 65,
      "geometry" : {
        "type" : "Point",
        "coordinates" : [
          139.8300200000001,
          35.695026000000041
        ]
      },
      "properties" : {
        "OBJECTID" : 65,
        "name" : "第二亀戸",
        "lon" : 139.83001999999999,
        "lat" : 35.695025999999999
      }
    },
    {
      "type" : "Feature",
      "id" : 66,
      "geometry" : {
        "type" : "Point",
        "coordinates" : [
          139.84375300000011,
          35.691278000000068
        ]
      },
      "properties" : {
        "OBJECTID" : 66,
        "name" : "第三大島",
        "lon" : 139.84375299999999,
        "lat" : 35.691277999999997
      }
    },
    {
      "type" : "Feature",
      "id" : 67,
      "geometry" : {
        "type" : "Point",
        "coordinates" : [
          139.83862600000009,
          35.671403000000055
        ]
      },
      "properties" : {
        "OBJECTID" : 67,
        "name" : "第五砂町",
        "lon" : 139.838626,
        "lat" : 35.671402999999998
      }
    },
    {
      "type" : "Feature",
      "id" : 68,
      "geometry" : {
        "type" : "Point",
        "coordinates" : [
          139.83933200000001,
          35.678458000000035
        ]
      },
      "properties" : {
        "OBJECTID" : 68,
        "name" : "東砂",
        "lon" : 139.83933200000001,
        "lat" : 35.678457999999999
      }
    },
    {
      "type" : "Feature",
      "id" : 69,
      "geometry" : {
        "type" : "Point",
        "coordinates" : [
          139.831501,
          35.681786000000045
        ]
      },
      "properties" : {
        "OBJECTID" : 69,
        "name" : "小名木川",
        "lon" : 139.831501,
        "lat" : 35.681786000000002
      }
    },
    {
      "type" : "Feature",
      "id" : 70,
      "geometry" : {
        "type" : "Point",
        "coordinates" : [
          139.81406800000002,
          35.66746900000004
        ]
      },
      "properties" : {
        "OBJECTID" : 70,
        "name" : "南陽",
        "lon" : 139.81406799999999,
        "lat" : 35.667468999999997
      }
    },
    {
      "type" : "Feature",
      "id" : 71,
      "geometry" : {
        "type" : "Point",
        "coordinates" : [
          139.83595800000001,
          35.687191000000041
        ]
      },
      "properties" : {
        "OBJECTID" : 71,
        "name" : "大島",
        "lon" : 139.83595800000001,
        "lat" : 35.687190999999999
      }
    },
    {
      "type" : "Feature",
      "id" : 72,
      "geometry" : {
        "type" : "Point",
        "coordinates" : [
          139.83414700000003,
          35.683555000000069
        ]
      },
      "properties" : {
        "OBJECTID" : 72,
        "name" : "なでしこ",
        "lon" : 139.834147,
        "lat" : 35.683554999999998
      }
    },
    {
      "type" : "Feature",
      "id" : 73,
      "geometry" : {
        "type" : "Point",
        "coordinates" : [
          139.80861700000003,
          35.659458000000086
        ]
      },
      "properties" : {
        "OBJECTID" : 73,
        "name" : "枝川",
        "lon" : 139.808617,
        "lat" : 35.659458000000001
      }
    },
    {
      "type" : "Feature",
      "id" : 74,
      "geometry" : {
        "type" : "Point",
        "coordinates" : [
          139.79810000000009,
          35.642238000000077
        ]
      },
      "properties" : {
        "OBJECTID" : 74,
        "name" : "ひばり",
        "lon" : 139.79810000000001,
        "lat" : 35.642237999999999
      }
    },
    {
      "type" : "Feature",
      "id" : 75,
      "geometry" : {
        "type" : "Point",
        "coordinates" : [
          139.83991200000003,
          35.688923000000045
        ]
      },
      "properties" : {
        "OBJECTID" : 75,
        "name" : "もみじ",
        "lon" : 139.839912,
        "lat" : 35.688923000000003
      }
    },
    {
      "type" : "Feature",
      "id" : 76,
      "geometry" : {
        "type" : "Point",
        "coordinates" : [
          139.81921,
          35.68453100000005
        ]
      },
      "properties" : {
        "OBJECTID" : 76,
        "name" : "つばめ",
        "lon" : 139.81921,
        "lat" : 35.684531
      }
    },
    {
      "type" : "Feature",
      "id" : 77,
      "geometry" : {
        "type" : "Point",
        "coordinates" : [
          139.82300400000008,
          35.673170000000084
        ]
      },
      "properties" : {
        "OBJECTID" : 77,
        "name" : "みどり",
        "lon" : 139.823004,
        "lat" : 35.673169999999999
      }
    },
    {
      "type" : "Feature",
      "id" : 78,
      "geometry" : {
        "type" : "Point",
        "coordinates" : [
          139.7426200000001,
          35.612812000000076
        ]
      },
      "properties" : {
        "OBJECTID" : 78,
        "name" : "城南",
        "lon" : 139.74261999999999,
        "lat" : 35.612811999999998
      }
    },
    {
      "type" : "Feature",
      "id" : 79,
      "geometry" : {
        "type" : "Point",
        "coordinates" : [
          139.70767499999999,
          35.61507000000006
        ]
      },
      "properties" : {
        "OBJECTID" : 79,
        "name" : "平塚",
        "lon" : 139.70767499999999,
        "lat" : 35.615070000000003
      }
    },
    {
      "type" : "Feature",
      "id" : 80,
      "geometry" : {
        "type" : "Point",
        "coordinates" : [
          139.736177,
          35.597637000000077
        ]
      },
      "properties" : {
        "OBJECTID" : 80,
        "name" : "浜川",
        "lon" : 139.736177,
        "lat" : 35.597636999999999
      }
    },
    {
      "type" : "Feature",
      "id" : 81,
      "geometry" : {
        "type" : "Point",
        "coordinates" : [
          139.73175300000003,
          35.622495000000072
        ]
      },
      "properties" : {
        "OBJECTID" : 81,
        "name" : "御殿山",
        "lon" : 139.731753,
        "lat" : 35.622495000000001
      }
    },
    {
      "type" : "Feature",
      "id" : 82,
      "geometry" : {
        "type" : "Point",
        "coordinates" : [
          139.71668900000009,
          35.598241000000087
        ]
      },
      "properties" : {
        "OBJECTID" : 82,
        "name" : "伊藤",
        "lon" : 139.716689,
        "lat" : 35.598241000000002
      }
    },
    {
      "type" : "Feature",
      "id" : 83,
      "geometry" : {
        "type" : "Point",
        "coordinates" : [
          139.71674100000007,
          35.622359000000074
        ]
      },
      "properties" : {
        "OBJECTID" : 83,
        "name" : "第一日野",
        "lon" : 139.71674100000001,
        "lat" : 35.622359000000003
      }
    },
    {
      "type" : "Feature",
      "id" : 84,
      "geometry" : {
        "type" : "Point",
        "coordinates" : [
          139.74366700000007,
          35.620869000000084
        ]
      },
      "properties" : {
        "OBJECTID" : 84,
        "name" : "台場",
        "lon" : 139.74366699999999,
        "lat" : 35.620868999999999
      }
    },
    {
      "type" : "Feature",
      "id" : 85,
      "geometry" : {
        "type" : "Point",
        "coordinates" : [
          139.72556000000009,
          35.607037000000048
        ]
      },
      "properties" : {
        "OBJECTID" : 85,
        "name" : "二葉",
        "lon" : 139.72556,
        "lat" : 35.607036999999998
      }
    },
    {
      "type" : "Feature",
      "id" : 86,
      "geometry" : {
        "type" : "Point",
        "coordinates" : [
          139.74975500000005,
          35.59629700000005
        ]
      },
      "properties" : {
        "OBJECTID" : 86,
        "name" : "八潮わかば",
        "lon" : 139.74975499999999,
        "lat" : 35.596297
      }
    },
    {
      "type" : "Feature",
      "id" : 87,
      "geometry" : {
        "type" : "Point",
        "coordinates" : [
          139.71265400000004,
          35.651633000000061
        ]
      },
      "properties" : {
        "OBJECTID" : 87,
        "name" : "広尾",
        "lon" : 139.71265399999999,
        "lat" : 35.651632999999997
      }
    },
    {
      "type" : "Feature",
      "id" : 88,
      "geometry" : {
        "type" : "Point",
        "coordinates" : [
          139.67490500000008,
          35.684271000000081
        ]
      },
      "properties" : {
        "OBJECTID" : 88,
        "name" : "本町",
        "lon" : 139.674905,
        "lat" : 35.684271000000003
      }
    },
    {
      "type" : "Feature",
      "id" : 89,
      "geometry" : {
        "type" : "Point",
        "coordinates" : [
          139.71673400000009,
          35.649363000000051
        ]
      },
      "properties" : {
        "OBJECTID" : 89,
        "name" : "臨川",
        "lon" : 139.716734,
        "lat" : 35.649363000000001
      }
    },
    {
      "type" : "Feature",
      "id" : 90,
      "geometry" : {
        "type" : "Point",
        "coordinates" : [
          139.7073180000001,
          35.675307000000089
        ]
      },
      "properties" : {
        "OBJECTID" : 90,
        "name" : "千駄谷",
        "lon" : 139.70731799999999,
        "lat" : 35.675306999999997
      }
    },
    {
      "type" : "Feature",
      "id" : 91,
      "geometry" : {
        "type" : "Point",
        "coordinates" : [
          139.69285200000002,
          35.683064000000059
        ]
      },
      "properties" : {
        "OBJECTID" : 91,
        "name" : "山谷",
        "lon" : 139.69285199999999,
        "lat" : 35.683064000000002
      }
    },
    {
      "type" : "Feature",
      "id" : 92,
      "geometry" : {
        "type" : "Point",
        "coordinates" : [
          139.73944300000005,
          35.684971000000075
        ]
      },
      "properties" : {
        "OBJECTID" : 92,
        "name" : "麹町",
        "lon" : 139.73944299999999,
        "lat" : 35.684970999999997
      }
    },
    {
      "type" : "Feature",
      "id" : 93,
      "geometry" : {
        "type" : "Point",
        "coordinates" : [
          139.74071300000003,
          35.690522000000044
        ]
      },
      "properties" : {
        "OBJECTID" : 93,
        "name" : "九段",
        "lon" : 139.740713,
        "lat" : 35.690522000000001
      }
    },
    {
      "type" : "Feature",
      "id" : 94,
      "geometry" : {
        "type" : "Point",
        "coordinates" : [
          139.73354900000004,
          35.687673000000075
        ]
      },
      "properties" : {
        "OBJECTID" : 94,
        "name" : "番町",
        "lon" : 139.73354900000001,
        "lat" : 35.687672999999997
      }
    },
    {
      "type" : "Feature",
      "id" : 95,
      "geometry" : {
        "type" : "Point",
        "coordinates" : [
          139.74621300000001,
          35.696941000000038
        ]
      },
      "properties" : {
        "OBJECTID" : 95,
        "name" : "富士見",
        "lon" : 139.74621300000001,
        "lat" : 35.696941000000002
      }
    },
    {
      "type" : "Feature",
      "id" : 96,
      "geometry" : {
        "type" : "Point",
        "coordinates" : [
          139.74872900000003,
          35.697343000000046
        ]
      },
      "properties" : {
        "OBJECTID" : 96,
        "name" : "お茶の水",
        "lon" : 139.748729,
        "lat" : 35.697342999999996
      }
    },
    {
      "type" : "Feature",
      "id" : 97,
      "geometry" : {
        "type" : "Point",
        "coordinates" : [
          139.76744400000007,
          35.693129000000056
        ]
      },
      "properties" : {
        "OBJECTID" : 97,
        "name" : "千代田",
        "lon" : 139.76744400000001,
        "lat" : 35.693128999999999
      }
    },
    {
      "type" : "Feature",
      "id" : 98,
      "geometry" : {
        "type" : "Point",
        "coordinates" : [
          139.76985300000001,
          35.701232000000061
        ]
      },
      "properties" : {
        "OBJECTID" : 98,
        "name" : "昌平",
        "lon" : 139.76985300000001,
        "lat" : 35.701231999999997
      }
    },
    {
      "type" : "Feature",
      "id" : 99,
      "geometry" : {
        "type" : "Point",
        "coordinates" : [
          139.77847400000007,
          35.699154000000078
        ]
      },
      "properties" : {
        "OBJECTID" : 99,
        "name" : "和泉",
        "lon" : 139.77847399999999,
        "lat" : 35.699154
      }
    },
    {
      "type" : "Feature",
      "id" : 100,
      "geometry" : {
        "type" : "Point",
        "coordinates" : [
          139.77680500000008,
          35.679658000000074
        ]
      },
      "properties" : {
        "OBJECTID" : 100,
        "name" : "城東",
        "lon" : 139.776805,
        "lat" : 35.679658000000003
      }
    },
    {
      "type" : "Feature",
      "id" : 101,
      "geometry" : {
        "type" : "Point",
        "coordinates" : [
          139.76133300000004,
          35.672339000000079
        ]
      },
      "properties" : {
        "OBJECTID" : 101,
        "name" : "泰明",
        "lon" : 139.76133300000001,
        "lat" : 35.672339000000001
      }
    },
    {
      "type" : "Feature",
      "id" : 102,
      "geometry" : {
        "type" : "Point",
        "coordinates" : [
          139.77644700000008,
          35.66871000000009
        ]
      },
      "properties" : {
        "OBJECTID" : 102,
        "name" : "明石",
        "lon" : 139.77644699999999,
        "lat" : 35.668709999999997
      }
    },
    {
      "type" : "Feature",
      "id" : 103,
      "geometry" : {
        "type" : "Point",
        "coordinates" : [
          139.78156100000001,
          35.675974000000053
        ]
      },
      "properties" : {
        "OBJECTID" : 103,
        "name" : "明正",
        "lon" : 139.78156100000001,
        "lat" : 35.675973999999997
      }
    },
    {
      "type" : "Feature",
      "id" : 104,
      "geometry" : {
        "type" : "Point",
        "coordinates" : [
          139.77020000000005,
          35.688172000000066
        ]
      },
      "properties" : {
        "OBJECTID" : 104,
        "name" : "常盤",
        "lon" : 139.77019999999999,
        "lat" : 35.688172000000002
      }
    },
    {
      "type" : "Feature",
      "id" : 105,
      "geometry" : {
        "type" : "Point",
        "coordinates" : [
          139.78796900000009,
          35.683292000000051
        ]
      },
      "properties" : {
        "OBJECTID" : 105,
        "name" : "有馬",
        "lon" : 139.787969,
        "lat" : 35.683292000000002
      }
    },
    {
      "type" : "Feature",
      "id" : 106,
      "geometry" : {
        "type" : "Point",
        "coordinates" : [
          139.78433200000006,
          35.689041000000088
        ]
      },
      "properties" : {
        "OBJECTID" : 106,
        "name" : "久松",
        "lon" : 139.78433200000001,
        "lat" : 35.689041000000003
      }
    },
    {
      "type" : "Feature",
      "id" : 107,
      "geometry" : {
        "type" : "Point",
        "coordinates" : [
          139.77680500000008,
          35.679658000000074
        ]
      },
      "properties" : {
        "OBJECTID" : 107,
        "name" : "阪本",
        "lon" : 139.776805,
        "lat" : 35.679658000000003
      }
    },
    {
      "type" : "Feature",
      "id" : 108,
      "geometry" : {
        "type" : "Point",
        "coordinates" : [
          139.784538,
          35.668597000000034
        ]
      },
      "properties" : {
        "OBJECTID" : 108,
        "name" : "佃島",
        "lon" : 139.784538,
        "lat" : 35.668596999999998
      }
    },
    {
      "type" : "Feature",
      "id" : 109,
      "geometry" : {
        "type" : "Point",
        "coordinates" : [
          139.77975700000002,
          35.660350000000051
        ]
      },
      "properties" : {
        "OBJECTID" : 109,
        "name" : "月島第一",
        "lon" : 139.77975699999999,
        "lat" : 35.660350000000001
      }
    },
    {
      "type" : "Feature",
      "id" : 110,
      "geometry" : {
        "type" : "Point",
        "coordinates" : [
          139.77555200000006,
          35.659823000000074
        ]
      },
      "properties" : {
        "OBJECTID" : 110,
        "name" : "月島第二",
        "lon" : 139.775552,
        "lat" : 35.659823000000003
      }
    },
    {
      "type" : "Feature",
      "id" : 111,
      "geometry" : {
        "type" : "Point",
        "coordinates" : [
          139.78568700000005,
          35.65836500000006
        ]
      },
      "properties" : {
        "OBJECTID" : 111,
        "name" : "月島第三",
        "lon" : 139.785687,
        "lat" : 35.658365000000003
      }
    },
    {
      "type" : "Feature",
      "id" : 112,
      "geometry" : {
        "type" : "Point",
        "coordinates" : [
          139.77131800000006,
          35.65317500000009
        ]
      },
      "properties" : {
        "OBJECTID" : 112,
        "name" : "豊海",
        "lon" : 139.77131800000001,
        "lat" : 35.653174999999997
      }
    },
    {
      "type" : "Feature",
      "id" : 113,
      "geometry" : {
        "type" : "Point",
        "coordinates" : [
          139.78138300000001,
          35.684260000000052
        ]
      },
      "properties" : {
        "OBJECTID" : 113,
        "name" : "日本橋",
        "lon" : 139.78138300000001,
        "lat" : 35.684260000000002
      }
    },
    {
      "type" : "Feature",
      "id" : 114,
      "geometry" : {
        "type" : "Point",
        "coordinates" : [
          139.77137300000004,
          35.667930000000069
        ]
      },
      "properties" : {
        "OBJECTID" : 114,
        "name" : "京橋築地",
        "lon" : 139.77137300000001,
        "lat" : 35.667929999999998
      }
    },
    {
      "type" : "Feature",
      "id" : 115,
      "geometry" : {
        "type" : "Point",
        "coordinates" : [
          139.778773,
          35.672180000000083
        ]
      },
      "properties" : {
        "OBJECTID" : 115,
        "name" : "中央",
        "lon" : 139.778773,
        "lat" : 35.672179999999997
      }
    },
    {
      "type" : "Feature",
      "id" : 116,
      "geometry" : {
        "type" : "Point",
        "coordinates" : [
          139.75010900000007,
          35.650998000000072
        ]
      },
      "properties" : {
        "OBJECTID" : 116,
        "name" : "芝",
        "lon" : 139.75010900000001,
        "lat" : 35.650998000000001
      }
    },
    {
      "type" : "Feature",
      "id" : 117,
      "geometry" : {
        "type" : "Point",
        "coordinates" : [
          139.74214300000006,
          35.652996000000087
        ]
      },
      "properties" : {
        "OBJECTID" : 117,
        "name" : "赤羽",
        "lon" : 139.742143,
        "lat" : 35.652996000000002
      }
    },
    {
      "type" : "Feature",
      "id" : 118,
      "geometry" : {
        "type" : "Point",
        "coordinates" : [
          139.74636200000009,
          35.63875900000005
        ]
      },
      "properties" : {
        "OBJECTID" : 118,
        "name" : "芝浦",
        "lon" : 139.746362,
        "lat" : 35.638759
      }
    },
    {
      "type" : "Feature",
      "id" : 119,
      "geometry" : {
        "type" : "Point",
        "coordinates" : [
          139.73475500000006,
          35.636218000000042
        ]
      },
      "properties" : {
        "OBJECTID" : 119,
        "name" : "高輪台",
        "lon" : 139.73475500000001,
        "lat" : 35.636218
      }
    },
    {
      "type" : "Feature",
      "id" : 120,
      "geometry" : {
        "type" : "Point",
        "coordinates" : [
          139.72925900000007,
          35.63690500000007
        ]
      },
      "properties" : {
        "OBJECTID" : 120,
        "name" : "白金",
        "lon" : 139.72925900000001,
        "lat" : 35.636904999999999
      }
    },
    {
      "type" : "Feature",
      "id" : 121,
      "geometry" : {
        "type" : "Point",
        "coordinates" : [
          139.74943600000006,
          35.629190000000051
        ]
      },
      "properties" : {
        "OBJECTID" : 121,
        "name" : "港南",
        "lon" : 139.749436,
        "lat" : 35.629190000000001
      }
    },
    {
      "type" : "Feature",
      "id" : 122,
      "geometry" : {
        "type" : "Point",
        "coordinates" : [
          139.73840300000006,
          35.661831000000063
        ]
      },
      "properties" : {
        "OBJECTID" : 122,
        "name" : "麻布",
        "lon" : 139.73840300000001,
        "lat" : 35.661830999999999
      }
    },
    {
      "type" : "Feature",
      "id" : 123,
      "geometry" : {
        "type" : "Point",
        "coordinates" : [
          139.73115300000006,
          35.657252000000085
        ]
      },
      "properties" : {
        "OBJECTID" : 123,
        "name" : "南山",
        "lon" : 139.73115300000001,
        "lat" : 35.657252
      }
    },
    {
      "type" : "Feature",
      "id" : 124,
      "geometry" : {
        "type" : "Point",
        "coordinates" : [
          139.72987000000001,
          35.649869000000081
        ]
      },
      "properties" : {
        "OBJECTID" : 124,
        "name" : "本村",
        "lon" : 139.72987000000001,
        "lat" : 35.649869000000002
      }
    },
    {
      "type" : "Feature",
      "id" : 125,
      "geometry" : {
        "type" : "Point",
        "coordinates" : [
          139.72490700000003,
          35.656485000000089
        ]
      },
      "properties" : {
        "OBJECTID" : 125,
        "name" : "笄",
        "lon" : 139.724907,
        "lat" : 35.656485000000004
      }
    },
    {
      "type" : "Feature",
      "id" : 126,
      "geometry" : {
        "type" : "Point",
        "coordinates" : [
          139.73562500000003,
          35.650562000000036
        ]
      },
      "properties" : {
        "OBJECTID" : 126,
        "name" : "東町",
        "lon" : 139.735625,
        "lat" : 35.650562000000001
      }
    },
    {
      "type" : "Feature",
      "id" : 127,
      "geometry" : {
        "type" : "Point",
        "coordinates" : [
          139.71895400000005,
          35.669832000000042
        ]
      },
      "properties" : {
        "OBJECTID" : 127,
        "name" : "青山",
        "lon" : 139.718954,
        "lat" : 35.669832
      }
    },
    {
      "type" : "Feature",
      "id" : 128,
      "geometry" : {
        "type" : "Point",
        "coordinates" : [
          139.71603100000004,
          35.663591000000054
        ]
      },
      "properties" : {
        "OBJECTID" : 128,
        "name" : "青南",
        "lon" : 139.71603099999999,
        "lat" : 35.663590999999997
      }
    },
    {
      "type" : "Feature",
      "id" : 129,
      "geometry" : {
        "type" : "Point",
        "coordinates" : [
          139.74972100000002,
          35.661301000000037
        ]
      },
      "properties" : {
        "OBJECTID" : 129,
        "name" : "御成門",
        "lon" : 139.74972099999999,
        "lat" : 35.661301000000002
      }
    },
    {
      "type" : "Feature",
      "id" : 130,
      "geometry" : {
        "type" : "Point",
        "coordinates" : [
          139.73119900000006,
          35.669304000000068
        ]
      },
      "properties" : {
        "OBJECTID" : 130,
        "name" : "赤坂",
        "lon" : 139.731199,
        "lat" : 35.669303999999997
      }
    },
    {
      "type" : "Feature",
      "id" : 131,
      "geometry" : {
        "type" : "Point",
        "coordinates" : [
          139.77699600000005,
          35.633781000000056
        ]
      },
      "properties" : {
        "OBJECTID" : 131,
        "name" : "港陽",
        "lon" : 139.776996,
        "lat" : 35.633780999999999
      }
    },
    {
      "type" : "Feature",
      "id" : 132,
      "geometry" : {
        "type" : "Point",
        "coordinates" : [
          139.73805100000004,
          35.64320100000009
        ]
      },
      "properties" : {
        "OBJECTID" : 132,
        "name" : "御田",
        "lon" : 139.73805100000001,
        "lat" : 35.643200999999998
      }
    },
    {
      "type" : "Feature",
      "id" : 133,
      "geometry" : {
        "type" : "Point",
        "coordinates" : [
          139.72704400000009,
          35.643783000000042
        ]
      },
      "properties" : {
        "OBJECTID" : 133,
        "name" : "白金の丘",
        "lon" : 139.72704400000001,
        "lat" : 35.643782999999999
      }
    },
    {
      "type" : "Feature",
      "id" : 134,
      "geometry" : {
        "type" : "Point",
        "coordinates" : [
          139.74199600000009,
          35.702676000000054
        ]
      },
      "properties" : {
        "OBJECTID" : 134,
        "name" : "津久戸",
        "lon" : 139.741996,
        "lat" : 35.702675999999997
      }
    },
    {
      "type" : "Feature",
      "id" : 135,
      "geometry" : {
        "type" : "Point",
        "coordinates" : [
          139.73658,
          35.707068000000049
        ]
      },
      "properties" : {
        "OBJECTID" : 135,
        "name" : "江戸川",
        "lon" : 139.73658,
        "lat" : 35.707068
      }
    },
    {
      "type" : "Feature",
      "id" : 136,
      "geometry" : {
        "type" : "Point",
        "coordinates" : [
          139.72872200000006,
          35.699767000000065
        ]
      },
      "properties" : {
        "OBJECTID" : 136,
        "name" : "市谷",
        "lon" : 139.728722,
        "lat" : 35.699767000000001
      }
    },
    {
      "type" : "Feature",
      "id" : 137,
      "geometry" : {
        "type" : "Point",
        "coordinates" : [
          139.73434700000007,
          35.699611000000061
        ]
      },
      "properties" : {
        "OBJECTID" : 137,
        "name" : "愛日",
        "lon" : 139.73434700000001,
        "lat" : 35.699610999999997
      }
    },
    {
      "type" : "Feature",
      "id" : 138,
      "geometry" : {
        "type" : "Point",
        "coordinates" : [
          139.72353200000009,
          35.704625000000078
        ]
      },
      "properties" : {
        "OBJECTID" : 138,
        "name" : "早稲田",
        "lon" : 139.72353200000001,
        "lat" : 35.704625
      }
    },
    {
      "type" : "Feature",
      "id" : 139,
      "geometry" : {
        "type" : "Point",
        "coordinates" : [
          139.72503900000004,
          35.708566000000076
        ]
      },
      "properties" : {
        "OBJECTID" : 139,
        "name" : "鶴巻",
        "lon" : 139.72503900000001,
        "lat" : 35.708565999999998
      }
    },
    {
      "type" : "Feature",
      "id" : 140,
      "geometry" : {
        "type" : "Point",
        "coordinates" : [
          139.72360000000003,
          35.695803000000069
        ]
      },
      "properties" : {
        "OBJECTID" : 140,
        "name" : "牛込仲之",
        "lon" : 139.7236,
        "lat" : 35.695802999999998
      }
    },
    {
      "type" : "Feature",
      "id" : 141,
      "geometry" : {
        "type" : "Point",
        "coordinates" : [
          139.71635600000002,
          35.692373000000089
        ]
      },
      "properties" : {
        "OBJECTID" : 141,
        "name" : "富久",
        "lon" : 139.71635599999999,
        "lat" : 35.692373000000003
      }
    },
    {
      "type" : "Feature",
      "id" : 142,
      "geometry" : {
        "type" : "Point",
        "coordinates" : [
          139.71562100000006,
          35.699306000000036
        ]
      },
      "properties" : {
        "OBJECTID" : 142,
        "name" : "余丁町",
        "lon" : 139.715621,
        "lat" : 35.699306
      }
    },
    {
      "type" : "Feature",
      "id" : 143,
      "geometry" : {
        "type" : "Point",
        "coordinates" : [
          139.71125300000006,
          35.702256000000034
        ]
      },
      "properties" : {
        "OBJECTID" : 143,
        "name" : "東戸山",
        "lon" : 139.711253,
        "lat" : 35.702255999999998
      }
    },
    {
      "type" : "Feature",
      "id" : 144,
      "geometry" : {
        "type" : "Point",
        "coordinates" : [
          139.7155600000001,
          35.681130000000053
        ]
      },
      "properties" : {
        "OBJECTID" : 144,
        "name" : "四谷第六",
        "lon" : 139.71556000000001,
        "lat" : 35.681130000000003
      }
    },
    {
      "type" : "Feature",
      "id" : 145,
      "geometry" : {
        "type" : "Point",
        "coordinates" : [
          139.70550300000002,
          35.699513000000081
        ]
      },
      "properties" : {
        "OBJECTID" : 145,
        "name" : "大久保",
        "lon" : 139.70550299999999,
        "lat" : 35.699513000000003
      }
    },
    {
      "type" : "Feature",
      "id" : 146,
      "geometry" : {
        "type" : "Point",
        "coordinates" : [
          139.70998800000007,
          35.695599000000072
        ]
      },
      "properties" : {
        "OBJECTID" : 146,
        "name" : "天神",
        "lon" : 139.70998800000001,
        "lat" : 35.695599000000001
      }
    },
    {
      "type" : "Feature",
      "id" : 147,
      "geometry" : {
        "type" : "Point",
        "coordinates" : [
          139.701953,
          35.704019000000073
        ]
      },
      "properties" : {
        "OBJECTID" : 147,
        "name" : "戸山",
        "lon" : 139.701953,
        "lat" : 35.704019000000002
      }
    },
    {
      "type" : "Feature",
      "id" : 148,
      "geometry" : {
        "type" : "Point",
        "coordinates" : [
          139.71504700000003,
          35.711097000000052
        ]
      },
      "properties" : {
        "OBJECTID" : 148,
        "name" : "戸塚第一",
        "lon" : 139.715047,
        "lat" : 35.711097000000002
      }
    },
    {
      "type" : "Feature",
      "id" : 149,
      "geometry" : {
        "type" : "Point",
        "coordinates" : [
          139.70589900000004,
          35.712606000000051
        ]
      },
      "properties" : {
        "OBJECTID" : 149,
        "name" : "戸塚第二",
        "lon" : 139.70589899999999,
        "lat" : 35.712606000000001
      }
    },
    {
      "type" : "Feature",
      "id" : 150,
      "geometry" : {
        "type" : "Point",
        "coordinates" : [
          139.69750500000009,
          35.714870000000076
        ]
      },
      "properties" : {
        "OBJECTID" : 150,
        "name" : "戸塚第三",
        "lon" : 139.69750500000001,
        "lat" : 35.714869999999998
      }
    },
    {
      "type" : "Feature",
      "id" : 151,
      "geometry" : {
        "type" : "Point",
        "coordinates" : [
          139.69106800000009,
          35.719793000000038
        ]
      },
      "properties" : {
        "OBJECTID" : 151,
        "name" : "落合第一",
        "lon" : 139.691068,
        "lat" : 35.719793000000003
      }
    },
    {
      "type" : "Feature",
      "id" : 152,
      "geometry" : {
        "type" : "Point",
        "coordinates" : [
          139.68878100000006,
          35.712762000000055
        ]
      },
      "properties" : {
        "OBJECTID" : 152,
        "name" : "落合第二",
        "lon" : 139.68878100000001,
        "lat" : 35.712761999999998
      }
    },
    {
      "type" : "Feature",
      "id" : 153,
      "geometry" : {
        "type" : "Point",
        "coordinates" : [
          139.68243800000005,
          35.720904000000075
        ]
      },
      "properties" : {
        "OBJECTID" : 153,
        "name" : "落合第三",
        "lon" : 139.68243799999999,
        "lat" : 35.720903999999997
      }
    },
    {
      "type" : "Feature",
      "id" : 154,
      "geometry" : {
        "type" : "Point",
        "coordinates" : [
          139.70015599999999,
          35.718333000000086
        ]
      },
      "properties" : {
        "OBJECTID" : 154,
        "name" : "落合第四",
        "lon" : 139.70015599999999,
        "lat" : 35.718333000000001
      }
    },
    {
      "type" : "Feature",
      "id" : 155,
      "geometry" : {
        "type" : "Point",
        "coordinates" : [
          139.68591300000003,
          35.714701000000048
        ]
      },
      "properties" : {
        "OBJECTID" : 155,
        "name" : "落合第五",
        "lon" : 139.685913,
        "lat" : 35.714700999999998
      }
    },
    {
      "type" : "Feature",
      "id" : 156,
      "geometry" : {
        "type" : "Point",
        "coordinates" : [
          139.6783660000001,
          35.726811000000055
        ]
      },
      "properties" : {
        "OBJECTID" : 156,
        "name" : "落合第六",
        "lon" : 139.67836600000001,
        "lat" : 35.726810999999998
      }
    },
    {
      "type" : "Feature",
      "id" : 157,
      "geometry" : {
        "type" : "Point",
        "coordinates" : [
          139.69142700000009,
          35.704350000000034
        ]
      },
      "properties" : {
        "OBJECTID" : 157,
        "name" : "淀橋第四",
        "lon" : 139.691427,
        "lat" : 35.704349999999998
      }
    },
    {
      "type" : "Feature",
      "id" : 158,
      "geometry" : {
        "type" : "Point",
        "coordinates" : [
          139.69899500000008,
          35.707921000000056
        ]
      },
      "properties" : {
        "OBJECTID" : 158,
        "name" : "西戸山",
        "lon" : 139.698995,
        "lat" : 35.707920999999999
      }
    },
    {
      "type" : "Feature",
      "id" : 159,
      "geometry" : {
        "type" : "Point",
        "coordinates" : [
          139.71367600000008,
          35.689530000000047
        ]
      },
      "properties" : {
        "OBJECTID" : 159,
        "name" : "花園",
        "lon" : 139.71367599999999,
        "lat" : 35.689529999999998
      }
    },
    {
      "type" : "Feature",
      "id" : 160,
      "geometry" : {
        "type" : "Point",
        "coordinates" : [
          139.68917900000008,
          35.700477000000035
        ]
      },
      "properties" : {
        "OBJECTID" : 160,
        "name" : "柏木",
        "lon" : 139.689179,
        "lat" : 35.700476999999999
      }
    },
    {
      "type" : "Feature",
      "id" : 161,
      "geometry" : {
        "type" : "Point",
        "coordinates" : [
          139.68788100000006,
          35.686184000000083
        ]
      },
      "properties" : {
        "OBJECTID" : 161,
        "name" : "西新宿",
        "lon" : 139.687881,
        "lat" : 35.686183999999997
      }
    },
    {
      "type" : "Feature",
      "id" : 162,
      "geometry" : {
        "type" : "Point",
        "coordinates" : [
          139.72490400000004,
          35.686599000000058
        ]
      },
      "properties" : {
        "OBJECTID" : 162,
        "name" : "四谷",
        "lon" : 139.72490400000001,
        "lat" : 35.686599000000001
      }
    },
    {
      "type" : "Feature",
      "id" : 163,
      "geometry" : {
        "type" : "Point",
        "coordinates" : [
          139.79820800000005,
          35.676028000000088
        ]
      },
      "properties" : {
        "OBJECTID" : 163,
        "name" : "明治",
        "lon" : 139.79820799999999,
        "lat" : 35.676028000000002
      }
    },
    {
      "type" : "Feature",
      "id" : 164,
      "geometry" : {
        "type" : "Point",
        "coordinates" : [
          139.79943100000003,
          35.685793000000047
        ]
      },
      "properties" : {
        "OBJECTID" : 164,
        "name" : "深川",
        "lon" : 139.799431,
        "lat" : 35.685792999999997
      }
    },
    {
      "type" : "Feature",
      "id" : 165,
      "geometry" : {
        "type" : "Point",
        "coordinates" : [
          139.7953960000001,
          35.686749000000077
        ]
      },
      "properties" : {
        "OBJECTID" : 165,
        "name" : "八名川",
        "lon" : 139.79539600000001,
        "lat" : 35.686748999999999
      }
    },
    {
      "type" : "Feature",
      "id" : 166,
      "geometry" : {
        "type" : "Point",
        "coordinates" : [
          139.79333500000007,
          35.672430000000077
        ]
      },
      "properties" : {
        "OBJECTID" : 166,
        "name" : "臨海",
        "lon" : 139.79333500000001,
        "lat" : 35.672429999999999
      }
    },
    {
      "type" : "Feature",
      "id" : 167,
      "geometry" : {
        "type" : "Point",
        "coordinates" : [
          139.79967600000009,
          35.672583000000088
        ]
      },
      "properties" : {
        "OBJECTID" : 167,
        "name" : "数矢",
        "lon" : 139.79967600000001,
        "lat" : 35.672583000000003
      }
    },
    {
      "type" : "Feature",
      "id" : 168,
      "geometry" : {
        "type" : "Point",
        "coordinates" : [
          139.8026430000001,
          35.667464000000052
        ]
      },
      "properties" : {
        "OBJECTID" : 168,
        "name" : "平久",
        "lon" : 139.80264299999999,
        "lat" : 35.667464000000002
      }
    },
    {
      "type" : "Feature",
      "id" : 169,
      "geometry" : {
        "type" : "Point",
        "coordinates" : [
          139.81559100000004,
          35.670743000000073
        ]
      },
      "properties" : {
        "OBJECTID" : 169,
        "name" : "東陽",
        "lon" : 139.81559100000001,
        "lat" : 35.670743000000002
      }
    },
    {
      "type" : "Feature",
      "id" : 170,
      "geometry" : {
        "type" : "Point",
        "coordinates" : [
          139.81721900000002,
          35.679650000000038
        ]
      },
      "properties" : {
        "OBJECTID" : 170,
        "name" : "川南",
        "lon" : 139.81721899999999,
        "lat" : 35.679650000000002
      }
    },
    {
      "type" : "Feature",
      "id" : 171,
      "geometry" : {
        "type" : "Point",
        "coordinates" : [
          139.81230000000005,
          35.681149000000062
        ]
      },
      "properties" : {
        "OBJECTID" : 171,
        "name" : "扇橋",
        "lon" : 139.81229999999999,
        "lat" : 35.681148999999998
      }
    },
    {
      "type" : "Feature",
      "id" : 172,
      "geometry" : {
        "type" : "Point",
        "coordinates" : [
          139.80804499999999,
          35.682094000000063
        ]
      },
      "properties" : {
        "OBJECTID" : 172,
        "name" : "元加賀",
        "lon" : 139.80804499999999,
        "lat" : 35.682093999999999
      }
    },
    {
      "type" : "Feature",
      "id" : 173,
      "geometry" : {
        "type" : "Point",
        "coordinates" : [
          139.81650000000002,
          35.691545000000076
        ]
      },
      "properties" : {
        "OBJECTID" : 173,
        "name" : "毛利",
        "lon" : 139.81649999999999,
        "lat" : 35.691544999999998
      }
    },
    {
      "type" : "Feature",
      "id" : 174,
      "geometry" : {
        "type" : "Point",
        "coordinates" : [
          139.81247300000007,
          35.688094000000035
        ]
      },
      "properties" : {
        "OBJECTID" : 174,
        "name" : "東川",
        "lon" : 139.81247300000001,
        "lat" : 35.688094
      }
    },
    {
      "type" : "Feature",
      "id" : 175,
      "geometry" : {
        "type" : "Point",
        "coordinates" : [
          139.79795300000001,
          35.653819000000055
        ]
      },
      "properties" : {
        "OBJECTID" : 175,
        "name" : "豊洲",
        "lon" : 139.79795300000001,
        "lat" : 35.653818999999999
      }
    },
    {
      "type" : "Feature",
      "id" : 176,
      "geometry" : {
        "type" : "Point",
        "coordinates" : [
          139.81023000000005,
          35.659208000000035
        ]
      },
      "properties" : {
        "OBJECTID" : 176,
        "name" : "枝川",
        "lon" : 139.81022999999999,
        "lat" : 35.659208
      }
    },
    {
      "type" : "Feature",
      "id" : 177,
      "geometry" : {
        "type" : "Point",
        "coordinates" : [
          139.80998099999999,
          35.646584000000075
        ]
      },
      "properties" : {
        "OBJECTID" : 177,
        "name" : "辰巳",
        "lon" : 139.80998099999999,
        "lat" : 35.646583999999997
      }
    },
    {
      "type" : "Feature",
      "id" : 178,
      "geometry" : {
        "type" : "Point",
        "coordinates" : [
          139.82193100000006,
          35.698800000000062
        ]
      },
      "properties" : {
        "OBJECTID" : 178,
        "name" : "第一亀戸",
        "lon" : 139.82193100000001,
        "lat" : 35.698799999999999
      }
    },
    {
      "type" : "Feature",
      "id" : 179,
      "geometry" : {
        "type" : "Point",
        "coordinates" : [
          139.8300200000001,
          35.695026000000041
        ]
      },
      "properties" : {
        "OBJECTID" : 179,
        "name" : "第二亀戸",
        "lon" : 139.83001999999999,
        "lat" : 35.695025999999999
      }
    },
    {
      "type" : "Feature",
      "id" : 180,
      "geometry" : {
        "type" : "Point",
        "coordinates" : [
          139.82613800000001,
          35.703788000000088
        ]
      },
      "properties" : {
        "OBJECTID" : 180,
        "name" : "香取",
        "lon" : 139.82613799999999,
        "lat" : 35.703788000000003
      }
    },
    {
      "type" : "Feature",
      "id" : 181,
      "geometry" : {
        "type" : "Point",
        "coordinates" : [
          139.82822700000008,
          35.700458000000083
        ]
      },
      "properties" : {
        "OBJECTID" : 181,
        "name" : "水神",
        "lon" : 139.828227,
        "lat" : 35.700457999999998
      }
    },
    {
      "type" : "Feature",
      "id" : 182,
      "geometry" : {
        "type" : "Point",
        "coordinates" : [
          139.82539700000007,
          35.689737000000036
        ]
      },
      "properties" : {
        "OBJECTID" : 182,
        "name" : "第一大島",
        "lon" : 139.82539700000001,
        "lat" : 35.689737000000001
      }
    },
    {
      "type" : "Feature",
      "id" : 183,
      "geometry" : {
        "type" : "Point",
        "coordinates" : [
          139.83013600000004,
          35.689567000000068
        ]
      },
      "properties" : {
        "OBJECTID" : 183,
        "name" : "第二大島",
        "lon" : 139.83013600000001,
        "lat" : 35.689566999999997
      }
    },
    {
      "type" : "Feature",
      "id" : 184,
      "geometry" : {
        "type" : "Point",
        "coordinates" : [
          139.84495900000002,
          35.692400000000077
        ]
      },
      "properties" : {
        "OBJECTID" : 184,
        "name" : "第三大島",
        "lon" : 139.84495899999999,
        "lat" : 35.692399999999999
      }
    },
    {
      "type" : "Feature",
      "id" : 185,
      "geometry" : {
        "type" : "Point",
        "coordinates" : [
          139.83405400000004,
          35.691206000000079
        ]
      },
      "properties" : {
        "OBJECTID" : 185,
        "name" : "第四大島",
        "lon" : 139.83405400000001,
        "lat" : 35.691206000000001
      }
    },
    {
      "type" : "Feature",
      "id" : 186,
      "geometry" : {
        "type" : "Point",
        "coordinates" : [
          139.84461900000008,
          35.688208000000088
        ]
      },
      "properties" : {
        "OBJECTID" : 186,
        "name" : "第五大島",
        "lon" : 139.84461899999999,
        "lat" : 35.688208000000003
      }
    },
    {
      "type" : "Feature",
      "id" : 187,
      "geometry" : {
        "type" : "Point",
        "coordinates" : [
          139.82940200000007,
          35.67774600000007
        ]
      },
      "properties" : {
        "OBJECTID" : 187,
        "name" : "砂町",
        "lon" : 139.82940199999999,
        "lat" : 35.677745999999999
      }
    },
    {
      "type" : "Feature",
      "id" : 188,
      "geometry" : {
        "type" : "Point",
        "coordinates" : [
          139.83328400000005,
          35.672615000000064
        ]
      },
      "properties" : {
        "OBJECTID" : 188,
        "name" : "第三砂町",
        "lon" : 139.83328399999999,
        "lat" : 35.672615
      }
    },
    {
      "type" : "Feature",
      "id" : 189,
      "geometry" : {
        "type" : "Point",
        "coordinates" : [
          139.82202100000006,
          35.675036000000034
        ]
      },
      "properties" : {
        "OBJECTID" : 189,
        "name" : "第四砂町",
        "lon" : 139.82202100000001,
        "lat" : 35.675035999999999
      }
    },
    {
      "type" : "Feature",
      "id" : 190,
      "geometry" : {
        "type" : "Point",
        "coordinates" : [
          139.83918200000005,
          35.667473000000086
        ]
      },
      "properties" : {
        "OBJECTID" : 190,
        "name" : "第五砂町",
        "lon" : 139.83918199999999,
        "lat" : 35.667473000000001
      }
    },
    {
      "type" : "Feature",
      "id" : 191,
      "geometry" : {
        "type" : "Point",
        "coordinates" : [
          139.83757700000001,
          35.681718000000046
        ]
      },
      "properties" : {
        "OBJECTID" : 191,
        "name" : "第六砂町",
        "lon" : 139.83757700000001,
        "lat" : 35.681717999999996
      }
    },
    {
      "type" : "Feature",
      "id" : 192,
      "geometry" : {
        "type" : "Point",
        "coordinates" : [
          139.8422710000001,
          35.678912000000082
        ]
      },
      "properties" : {
        "OBJECTID" : 192,
        "name" : "第七砂町",
        "lon" : 139.84227100000001,
        "lat" : 35.678911999999997
      }
    },
    {
      "type" : "Feature",
      "id" : 193,
      "geometry" : {
        "type" : "Point",
        "coordinates" : [
          139.831501,
          35.681786000000045
        ]
      },
      "properties" : {
        "OBJECTID" : 193,
        "name" : "小名木川",
        "lon" : 139.831501,
        "lat" : 35.681786000000002
      }
    },
    {
      "type" : "Feature",
      "id" : 194,
      "geometry" : {
        "type" : "Point",
        "coordinates" : [
          139.80826500000001,
          35.648414000000059
        ]
      },
      "properties" : {
        "OBJECTID" : 194,
        "name" : "第二辰巳",
        "lon" : 139.80826500000001,
        "lat" : 35.648414000000002
      }
    },
    {
      "type" : "Feature",
      "id" : 195,
      "geometry" : {
        "type" : "Point",
        "coordinates" : [
          139.84398400000009,
          35.683786000000055
        ]
      },
      "properties" : {
        "OBJECTID" : 195,
        "name" : "東砂",
        "lon" : 139.84398400000001,
        "lat" : 35.683785999999998
      }
    },
    {
      "type" : "Feature",
      "id" : 196,
      "geometry" : {
        "type" : "Point",
        "coordinates" : [
          139.81413000000009,
          35.668193000000088
        ]
      },
      "properties" : {
        "OBJECTID" : 196,
        "name" : "南陽",
        "lon" : 139.81413000000001,
        "lat" : 35.668193000000002
      }
    },
    {
      "type" : "Feature",
      "id" : 197,
      "geometry" : {
        "type" : "Point",
        "coordinates" : [
          139.82346400000006,
          35.68316800000008
        ]
      },
      "properties" : {
        "OBJECTID" : 197,
        "name" : "北砂",
        "lon" : 139.823464,
        "lat" : 35.683168000000002
      }
    },
    {
      "type" : "Feature",
      "id" : 198,
      "geometry" : {
        "type" : "Point",
        "coordinates" : [
          139.83365400000002,
          35.684873000000039
        ]
      },
      "properties" : {
        "OBJECTID" : 198,
        "name" : "亀高",
        "lon" : 139.833654,
        "lat" : 35.684873000000003
      }
    },
    {
      "type" : "Feature",
      "id" : 199,
      "geometry" : {
        "type" : "Point",
        "coordinates" : [
          139.79870200000005,
          35.642408000000046
        ]
      },
      "properties" : {
        "OBJECTID" : 199,
        "name" : "東雲",
        "lon" : 139.79870199999999,
        "lat" : 35.642408000000003
      }
    },
    {
      "type" : "Feature",
      "id" : 200,
      "geometry" : {
        "type" : "Point",
        "coordinates" : [
          139.796336,
          35.666124000000082
        ]
      },
      "properties" : {
        "OBJECTID" : 200,
        "name" : "越中島",
        "lon" : 139.796336,
        "lat" : 35.666124000000003
      }
    },
    {
      "type" : "Feature",
      "id" : 201,
      "geometry" : {
        "type" : "Point",
        "coordinates" : [
          139.84171000000003,
          35.698745000000088
        ]
      },
      "properties" : {
        "OBJECTID" : 201,
        "name" : "浅間竪川",
        "lon" : 139.84171000000001,
        "lat" : 35.698745000000002
      }
    },
    {
      "type" : "Feature",
      "id" : 202,
      "geometry" : {
        "type" : "Point",
        "coordinates" : [
          139.83899600000007,
          35.67525900000004
        ]
      },
      "properties" : {
        "OBJECTID" : 202,
        "name" : "第二砂町",
        "lon" : 139.83899600000001,
        "lat" : 35.675258999999997
      }
    },
    {
      "type" : "Feature",
      "id" : 203,
      "geometry" : {
        "type" : "Point",
        "coordinates" : [
          139.82454900000005,
          35.672196000000042
        ]
      },
      "properties" : {
        "OBJECTID" : 203,
        "name" : "南砂",
        "lon" : 139.82454899999999,
        "lat" : 35.672196
      }
    },
    {
      "type" : "Feature",
      "id" : 204,
      "geometry" : {
        "type" : "Point",
        "coordinates" : [
          139.79782299999999,
          35.658492000000081
        ]
      },
      "properties" : {
        "OBJECTID" : 204,
        "name" : "豊洲北",
        "lon" : 139.79782299999999,
        "lat" : 35.658492000000003
      }
    },
    {
      "type" : "Feature",
      "id" : 205,
      "geometry" : {
        "type" : "Point",
        "coordinates" : [
          139.83120000000008,
          35.686795000000075
        ]
      },
      "properties" : {
        "OBJECTID" : 205,
        "name" : "大島南央",
        "lon" : 139.8312,
        "lat" : 35.686794999999996
      }
    },
    {
      "type" : "Feature",
      "id" : 206,
      "geometry" : {
        "type" : "Point",
        "coordinates" : [
          139.79610600000001,
          35.64028600000006
        ]
      },
      "properties" : {
        "OBJECTID" : 206,
        "name" : "有明",
        "lon" : 139.79610600000001,
        "lat" : 35.640286000000003
      }
    },
    {
      "type" : "Feature",
      "id" : 207,
      "geometry" : {
        "type" : "Point",
        "coordinates" : [
          139.79534100000001,
          35.651263000000085
        ]
      },
      "properties" : {
        "OBJECTID" : 207,
        "name" : "豊洲西",
        "lon" : 139.79534100000001,
        "lat" : 35.651263
      }
    },
    {
      "type" : "Feature",
      "id" : 208,
      "geometry" : {
        "type" : "Point",
        "coordinates" : [
          139.7426200000001,
          35.612812000000076
        ]
      },
      "properties" : {
        "OBJECTID" : 208,
        "name" : "城南",
        "lon" : 139.74261999999999,
        "lat" : 35.612811999999998
      }
    },
    {
      "type" : "Feature",
      "id" : 209,
      "geometry" : {
        "type" : "Point",
        "coordinates" : [
          139.73605400000008,
          35.61113000000006
        ]
      },
      "properties" : {
        "OBJECTID" : 209,
        "name" : "浅間台",
        "lon" : 139.736054,
        "lat" : 35.611130000000003
      }
    },
    {
      "type" : "Feature",
      "id" : 210,
      "geometry" : {
        "type" : "Point",
        "coordinates" : [
          139.72708299999999,
          35.615276000000051
        ]
      },
      "properties" : {
        "OBJECTID" : 210,
        "name" : "三木",
        "lon" : 139.72708299999999,
        "lat" : 35.615276000000001
      }
    },
    {
      "type" : "Feature",
      "id" : 211,
      "geometry" : {
        "type" : "Point",
        "coordinates" : [
          139.73151400000006,
          35.623188000000084
        ]
      },
      "properties" : {
        "OBJECTID" : 211,
        "name" : "御殿山",
        "lon" : 139.731514,
        "lat" : 35.623187999999999
      }
    },
    {
      "type" : "Feature",
      "id" : 212,
      "geometry" : {
        "type" : "Point",
        "coordinates" : [
          139.74587300000007,
          35.615408000000059
        ]
      },
      "properties" : {
        "OBJECTID" : 212,
        "name" : "城南第二",
        "lon" : 139.74587299999999,
        "lat" : 35.615408000000002
      }
    },
    {
      "type" : "Feature",
      "id" : 213,
      "geometry" : {
        "type" : "Point",
        "coordinates" : [
          139.71650900000009,
          35.622049000000061
        ]
      },
      "properties" : {
        "OBJECTID" : 213,
        "name" : "第一日野",
        "lon" : 139.716509,
        "lat" : 35.622048999999997
      }
    },
    {
      "type" : "Feature",
      "id" : 214,
      "geometry" : {
        "type" : "Point",
        "coordinates" : [
          139.724154,
          35.618570000000034
        ]
      },
      "properties" : {
        "OBJECTID" : 214,
        "name" : "芳水",
        "lon" : 139.724154,
        "lat" : 35.618569999999998
      }
    },
    {
      "type" : "Feature",
      "id" : 215,
      "geometry" : {
        "type" : "Point",
        "coordinates" : [
          139.72393900000009,
          35.632789000000059
        ]
      },
      "properties" : {
        "OBJECTID" : 215,
        "name" : "第三日野",
        "lon" : 139.723939,
        "lat" : 35.632789000000002
      }
    },
    {
      "type" : "Feature",
      "id" : 216,
      "geometry" : {
        "type" : "Point",
        "coordinates" : [
          139.7129450000001,
          35.625639000000035
        ]
      },
      "properties" : {
        "OBJECTID" : 216,
        "name" : "第四日野",
        "lon" : 139.71294499999999,
        "lat" : 35.625639
      }
    },
    {
      "type" : "Feature",
      "id" : 217,
      "geometry" : {
        "type" : "Point",
        "coordinates" : [
          139.73091900000009,
          35.598644000000036
        ]
      },
      "properties" : {
        "OBJECTID" : 217,
        "name" : "大井第一",
        "lon" : 139.730919,
        "lat" : 35.598644
      }
    },
    {
      "type" : "Feature",
      "id" : 218,
      "geometry" : {
        "type" : "Point",
        "coordinates" : [
          139.7406840000001,
          35.601239000000078
        ]
      },
      "properties" : {
        "OBJECTID" : 218,
        "name" : "鮫浜",
        "lon" : 139.74068399999999,
        "lat" : 35.601239
      }
    },
    {
      "type" : "Feature",
      "id" : 219,
      "geometry" : {
        "type" : "Point",
        "coordinates" : [
          139.72995500000002,
          35.602861000000075
        ]
      },
      "properties" : {
        "OBJECTID" : 219,
        "name" : "山中",
        "lon" : 139.72995499999999,
        "lat" : 35.602860999999997
      }
    },
    {
      "type" : "Feature",
      "id" : 220,
      "geometry" : {
        "type" : "Point",
        "coordinates" : [
          139.74016500000005,
          35.604432000000088
        ]
      },
      "properties" : {
        "OBJECTID" : 220,
        "name" : "立会",
        "lon" : 139.74016499999999,
        "lat" : 35.604432000000003
      }
    },
    {
      "type" : "Feature",
      "id" : 221,
      "geometry" : {
        "type" : "Point",
        "coordinates" : [
          139.73581000000001,
          35.598117000000059
        ]
      },
      "properties" : {
        "OBJECTID" : 221,
        "name" : "浜川",
        "lon" : 139.73580999999999,
        "lat" : 35.598117000000002
      }
    },
    {
      "type" : "Feature",
      "id" : 222,
      "geometry" : {
        "type" : "Point",
        "coordinates" : [
          139.71736700000008,
          35.598691000000088
        ]
      },
      "properties" : {
        "OBJECTID" : 222,
        "name" : "伊藤",
        "lon" : 139.717367,
        "lat" : 35.598691000000002
      }
    },
    {
      "type" : "Feature",
      "id" : 223,
      "geometry" : {
        "type" : "Point",
        "coordinates" : [
          139.73479600000007,
          35.594170000000076
        ]
      },
      "properties" : {
        "OBJECTID" : 223,
        "name" : "鈴ヶ森",
        "lon" : 139.73479599999999,
        "lat" : 35.594169999999998
      }
    },
    {
      "type" : "Feature",
      "id" : 224,
      "geometry" : {
        "type" : "Point",
        "coordinates" : [
          139.74366700000007,
          35.620869000000084
        ]
      },
      "properties" : {
        "OBJECTID" : 224,
        "name" : "台場",
        "lon" : 139.74366699999999,
        "lat" : 35.620868999999999
      }
    },
    {
      "type" : "Feature",
      "id" : 225,
      "geometry" : {
        "type" : "Point",
        "coordinates" : [
          139.7135340000001,
          35.61474000000004
        ]
      },
      "properties" : {
        "OBJECTID" : 225,
        "name" : "京陽",
        "lon" : 139.71353400000001,
        "lat" : 35.614739999999998
      }
    },
    {
      "type" : "Feature",
      "id" : 226,
      "geometry" : {
        "type" : "Point",
        "coordinates" : [
          139.70847900000001,
          35.60889700000007
        ]
      },
      "properties" : {
        "OBJECTID" : 226,
        "name" : "延山",
        "lon" : 139.70847900000001,
        "lat" : 35.608896999999999
      }
    },
    {
      "type" : "Feature",
      "id" : 227,
      "geometry" : {
        "type" : "Point",
        "coordinates" : [
          139.70898800000009,
          35.612411000000066
        ]
      },
      "properties" : {
        "OBJECTID" : 227,
        "name" : "中延",
        "lon" : 139.70898800000001,
        "lat" : 35.612411000000002
      }
    },
    {
      "type" : "Feature",
      "id" : 228,
      "geometry" : {
        "type" : "Point",
        "coordinates" : [
          139.70329000000004,
          35.616018000000054
        ]
      },
      "properties" : {
        "OBJECTID" : 228,
        "name" : "小山",
        "lon" : 139.70329000000001,
        "lat" : 35.616017999999997
      }
    },
    {
      "type" : "Feature",
      "id" : 229,
      "geometry" : {
        "type" : "Point",
        "coordinates" : [
          139.71646700000008,
          35.607167000000061
        ]
      },
      "properties" : {
        "OBJECTID" : 229,
        "name" : "大原",
        "lon" : 139.71646699999999,
        "lat" : 35.607166999999997
      }
    },
    {
      "type" : "Feature",
      "id" : 230,
      "geometry" : {
        "type" : "Point",
        "coordinates" : [
          139.71831900000006,
          35.611768000000041
        ]
      },
      "properties" : {
        "OBJECTID" : 230,
        "name" : "宮前",
        "lon" : 139.71831900000001,
        "lat" : 35.611767999999998
      }
    },
    {
      "type" : "Feature",
      "id" : 231,
      "geometry" : {
        "type" : "Point",
        "coordinates" : [
          139.71162600000002,
          35.603634000000056
        ]
      },
      "properties" : {
        "OBJECTID" : 231,
        "name" : "源氏前",
        "lon" : 139.711626,
        "lat" : 35.603634
      }
    },
    {
      "type" : "Feature",
      "id" : 232,
      "geometry" : {
        "type" : "Point",
        "coordinates" : [
          139.70351900000003,
          35.610212000000047
        ]
      },
      "properties" : {
        "OBJECTID" : 232,
        "name" : "第二延山",
        "lon" : 139.703519,
        "lat" : 35.610211999999997
      }
    },
    {
      "type" : "Feature",
      "id" : 233,
      "geometry" : {
        "type" : "Point",
        "coordinates" : [
          139.70856900000001,
          35.621553000000063
        ]
      },
      "properties" : {
        "OBJECTID" : 233,
        "name" : "後地",
        "lon" : 139.70856900000001,
        "lat" : 35.621552999999999
      }
    },
    {
      "type" : "Feature",
      "id" : 234,
      "geometry" : {
        "type" : "Point",
        "coordinates" : [
          139.72095899999999,
          35.610814000000062
        ]
      },
      "properties" : {
        "OBJECTID" : 234,
        "name" : "戸越",
        "lon" : 139.72095899999999,
        "lat" : 35.610813999999998
      }
    },
    {
      "type" : "Feature",
      "id" : 235,
      "geometry" : {
        "type" : "Point",
        "coordinates" : [
          139.70376500000009,
          35.603162000000054
        ]
      },
      "properties" : {
        "OBJECTID" : 235,
        "name" : "旗台",
        "lon" : 139.703765,
        "lat" : 35.603161999999998
      }
    },
    {
      "type" : "Feature",
      "id" : 236,
      "geometry" : {
        "type" : "Point",
        "coordinates" : [
          139.71578900000009,
          35.602902000000086
        ]
      },
      "properties" : {
        "OBJECTID" : 236,
        "name" : "上神明",
        "lon" : 139.715789,
        "lat" : 35.602902
      }
    },
    {
      "type" : "Feature",
      "id" : 237,
      "geometry" : {
        "type" : "Point",
        "coordinates" : [
          139.702989,
          35.607101000000057
        ]
      },
      "properties" : {
        "OBJECTID" : 237,
        "name" : "清水台",
        "lon" : 139.702989,
        "lat" : 35.607101
      }
    },
    {
      "type" : "Feature",
      "id" : 238,
      "geometry" : {
        "type" : "Point",
        "coordinates" : [
          139.70357300000001,
          35.622874000000081
        ]
      },
      "properties" : {
        "OBJECTID" : 238,
        "name" : "小山台",
        "lon" : 139.70357300000001,
        "lat" : 35.622874000000003
      }
    },
    {
      "type" : "Feature",
      "id" : 239,
      "geometry" : {
        "type" : "Point",
        "coordinates" : [
          139.71673400000009,
          35.649363000000051
        ]
      },
      "properties" : {
        "OBJECTID" : 239,
        "name" : "臨川",
        "lon" : 139.716734,
        "lat" : 35.649363000000001
      }
    },
    {
      "type" : "Feature",
      "id" : 240,
      "geometry" : {
        "type" : "Point",
        "coordinates" : [
          139.70640500000002,
          35.647373000000073
        ]
      },
      "properties" : {
        "OBJECTID" : 240,
        "name" : "長谷戸",
        "lon" : 139.70640499999999,
        "lat" : 35.647373000000002
      }
    },
    {
      "type" : "Feature",
      "id" : 241,
      "geometry" : {
        "type" : "Point",
        "coordinates" : [
          139.71265400000004,
          35.651633000000061
        ]
      },
      "properties" : {
        "OBJECTID" : 241,
        "name" : "広尾",
        "lon" : 139.71265399999999,
        "lat" : 35.651632999999997
      }
    },
    {
      "type" : "Feature",
      "id" : 242,
      "geometry" : {
        "type" : "Point",
        "coordinates" : [
          139.70169800000008,
          35.651263000000085
        ]
      },
      "properties" : {
        "OBJECTID" : 242,
        "name" : "猿楽",
        "lon" : 139.70169799999999,
        "lat" : 35.651263
      }
    },
    {
      "type" : "Feature",
      "id" : 243,
      "geometry" : {
        "type" : "Point",
        "coordinates" : [
          139.71432700000003,
          35.644164000000046
        ]
      },
      "properties" : {
        "OBJECTID" : 243,
        "name" : "加計塚",
        "lon" : 139.714327,
        "lat" : 35.644164000000004
      }
    },
    {
      "type" : "Feature",
      "id" : 244,
      "geometry" : {
        "type" : "Point",
        "coordinates" : [
          139.71030500000006,
          35.65569400000004
        ]
      },
      "properties" : {
        "OBJECTID" : 244,
        "name" : "常磐松",
        "lon" : 139.71030500000001,
        "lat" : 35.655693999999997
      }
    },
    {
      "type" : "Feature",
      "id" : 245,
      "geometry" : {
        "type" : "Point",
        "coordinates" : [
          139.68423500000006,
          35.679188000000067
        ]
      },
      "properties" : {
        "OBJECTID" : 245,
        "name" : "幡代",
        "lon" : 139.684235,
        "lat" : 35.679188000000003
      }
    },
    {
      "type" : "Feature",
      "id" : 246,
      "geometry" : {
        "type" : "Point",
        "coordinates" : [
          139.67902800000002,
          35.666278000000034
        ]
      },
      "properties" : {
        "OBJECTID" : 246,
        "name" : "上原",
        "lon" : 139.67902799999999,
        "lat" : 35.666277999999998
      }
    },
    {
      "type" : "Feature",
      "id" : 247,
      "geometry" : {
        "type" : "Point",
        "coordinates" : [
          139.66946500000006,
          35.676247000000046
        ]
      },
      "properties" : {
        "OBJECTID" : 247,
        "name" : "笹塚",
        "lon" : 139.669465,
        "lat" : 35.676246999999996
      }
    },
    {
      "type" : "Feature",
      "id" : 248,
      "geometry" : {
        "type" : "Point",
        "coordinates" : [
          139.67841600000008,
          35.673485000000085
        ]
      },
      "properties" : {
        "OBJECTID" : 248,
        "name" : "西原",
        "lon" : 139.678416,
        "lat" : 35.673484999999999
      }
    },
    {
      "type" : "Feature",
      "id" : 249,
      "geometry" : {
        "type" : "Point",
        "coordinates" : [
          139.687273,
          35.669002000000035
        ]
      },
      "properties" : {
        "OBJECTID" : 249,
        "name" : "富谷",
        "lon" : 139.687273,
        "lat" : 35.669001999999999
      }
    },
    {
      "type" : "Feature",
      "id" : 250,
      "geometry" : {
        "type" : "Point",
        "coordinates" : [
          139.673314,
          35.680749000000048
        ]
      },
      "properties" : {
        "OBJECTID" : 250,
        "name" : "中幡",
        "lon" : 139.673314,
        "lat" : 35.680748999999999
      }
    },
    {
      "type" : "Feature",
      "id" : 251,
      "geometry" : {
        "type" : "Point",
        "coordinates" : [
          139.7073180000001,
          35.675307000000089
        ]
      },
      "properties" : {
        "OBJECTID" : 251,
        "name" : "千駄谷",
        "lon" : 139.70731799999999,
        "lat" : 35.675306999999997
      }
    },
    {
      "type" : "Feature",
      "id" : 252,
      "geometry" : {
        "type" : "Point",
        "coordinates" : [
          139.70588200000009,
          35.682538000000079
        ]
      },
      "properties" : {
        "OBJECTID" : 252,
        "name" : "鳩森",
        "lon" : 139.705882,
        "lat" : 35.682538000000001
      }
    },
    {
      "type" : "Feature",
      "id" : 253,
      "geometry" : {
        "type" : "Point",
        "coordinates" : [
          139.70777100000009,
          35.668001000000061
        ]
      },
      "properties" : {
        "OBJECTID" : 253,
        "name" : "神宮前",
        "lon" : 139.70777100000001,
        "lat" : 35.668000999999997
      }
    },
    {
      "type" : "Feature",
      "id" : 254,
      "geometry" : {
        "type" : "Point",
        "coordinates" : [
          139.69761800000003,
          35.663126000000034
        ]
      },
      "properties" : {
        "OBJECTID" : 254,
        "name" : "神南",
        "lon" : 139.69761800000001,
        "lat" : 35.663125999999998
      }
    },
    {
      "type" : "Feature",
      "id" : 255,
      "geometry" : {
        "type" : "Point",
        "coordinates" : [
          139.68184200000007,
          35.686031000000071
        ]
      },
      "properties" : {
        "OBJECTID" : 255,
        "name" : "渋谷本町学園",
        "lon" : 139.68184199999999,
        "lat" : 35.686031
      }
    },
    {
      "type" : "Feature",
      "id" : 256,
      "geometry" : {
        "type" : "Point",
        "coordinates" : [
          139.695156,
          35.681549000000075
        ]
      },
      "properties" : {
        "OBJECTID" : 256,
        "name" : "代々木山谷",
        "lon" : 139.695156,
        "lat" : 35.681548999999997
      }
    },
    {
      "type" : "Feature",
      "id" : 257,
      "geometry" : {
        "type" : "Point",
        "coordinates" : [
          139.73884400000009,
          35.680404000000067
        ]
      },
      "properties" : {
        "OBJECTID" : 257,
        "name" : "麹町",
        "lon" : 139.738844,
        "lat" : 35.680404000000003
      }
    },
    {
      "type" : "Feature",
      "id" : 258,
      "geometry" : {
        "type" : "Point",
        "coordinates" : [
          139.75677400000006,
          35.694133000000079
        ]
      },
      "properties" : {
        "OBJECTID" : 258,
        "name" : "神田一橋",
        "lon" : 139.75677400000001,
        "lat" : 35.694133000000001
      }
    },
    {
      "type" : "Feature",
      "id" : 259,
      "geometry" : {
        "type" : "Point",
        "coordinates" : [
          139.75677400000006,
          35.694133000000079
        ]
      },
      "properties" : {
        "OBJECTID" : 259,
        "name" : "神田一橋（通信制）",
        "lon" : 139.75677400000001,
        "lat" : 35.694133000000001
      }
    },
    {
      "type" : "Feature",
      "id" : 260,
      "geometry" : {
        "type" : "Point",
        "coordinates" : [
          139.7848590000001,
          35.659496000000047
        ]
      },
      "properties" : {
        "OBJECTID" : 260,
        "name" : "晴海",
        "lon" : 139.78485900000001,
        "lat" : 35.659495999999997
      }
    },
    {
      "type" : "Feature",
      "id" : 261,
      "geometry" : {
        "type" : "Point",
        "coordinates" : [
          139.78687300000001,
          35.692298000000051
        ]
      },
      "properties" : {
        "OBJECTID" : 261,
        "name" : "日本橋",
        "lon" : 139.78687300000001,
        "lat" : 35.692298000000001
      }
    },
    {
      "type" : "Feature",
      "id" : 262,
      "geometry" : {
        "type" : "Point",
        "coordinates" : [
          139.76506000000006,
          35.665691000000038
        ]
      },
      "properties" : {
        "OBJECTID" : 262,
        "name" : "銀座",
        "lon" : 139.76506000000001,
        "lat" : 35.665691000000002
      }
    },
    {
      "type" : "Feature",
      "id" : 263,
      "geometry" : {
        "type" : "Point",
        "coordinates" : [
          139.78508700000009,
          35.668073000000049
        ]
      },
      "properties" : {
        "OBJECTID" : 263,
        "name" : "佃",
        "lon" : 139.785087,
        "lat" : 35.668073
      }
    },
    {
      "type" : "Feature",
      "id" : 264,
      "geometry" : {
        "type" : "Point",
        "coordinates" : [
          139.750407,
          35.661614000000043
        ]
      },
      "properties" : {
        "OBJECTID" : 264,
        "name" : "御成門",
        "lon" : 139.750407,
        "lat" : 35.661614
      }
    },
    {
      "type" : "Feature",
      "id" : 265,
      "geometry" : {
        "type" : "Point",
        "coordinates" : [
          139.72704400000009,
          35.643783000000042
        ]
      },
      "properties" : {
        "OBJECTID" : 265,
        "name" : "白金の丘",
        "lon" : 139.72704400000001,
        "lat" : 35.643782999999999
      }
    },
    {
      "type" : "Feature",
      "id" : 266,
      "geometry" : {
        "type" : "Point",
        "coordinates" : [
          139.73416800000007,
          35.640628000000049
        ]
      },
      "properties" : {
        "OBJECTID" : 266,
        "name" : "高松",
        "lon" : 139.73416800000001,
        "lat" : 35.640628
      }
    },
    {
      "type" : "Feature",
      "id" : 267,
      "geometry" : {
        "type" : "Point",
        "coordinates" : [
          139.74889500000006,
          35.630926000000045
        ]
      },
      "properties" : {
        "OBJECTID" : 267,
        "name" : "港南",
        "lon" : 139.748895,
        "lat" : 35.630926000000002
      }
    },
    {
      "type" : "Feature",
      "id" : 268,
      "geometry" : {
        "type" : "Point",
        "coordinates" : [
          139.72034900000006,
          35.656821000000036
        ]
      },
      "properties" : {
        "OBJECTID" : 268,
        "name" : "高陵",
        "lon" : 139.720349,
        "lat" : 35.656821000000001
      }
    },
    {
      "type" : "Feature",
      "id" : 269,
      "geometry" : {
        "type" : "Point",
        "coordinates" : [
          139.72486300000003,
          35.667638000000068
        ]
      },
      "properties" : {
        "OBJECTID" : 269,
        "name" : "赤坂",
        "lon" : 139.724863,
        "lat" : 35.667637999999997
      }
    },
    {
      "type" : "Feature",
      "id" : 270,
      "geometry" : {
        "type" : "Point",
        "coordinates" : [
          139.72214300000007,
          35.674278000000072
        ]
      },
      "properties" : {
        "OBJECTID" : 270,
        "name" : "青山",
        "lon" : 139.72214299999999,
        "lat" : 35.674278000000001
      }
    },
    {
      "type" : "Feature",
      "id" : 271,
      "geometry" : {
        "type" : "Point",
        "coordinates" : [
          139.77699600000005,
          35.633781000000056
        ]
      },
      "properties" : {
        "OBJECTID" : 271,
        "name" : "港陽",
        "lon" : 139.776996,
        "lat" : 35.633780999999999
      }
    },
    {
      "type" : "Feature",
      "id" : 272,
      "geometry" : {
        "type" : "Point",
        "coordinates" : [
          139.73214300000006,
          35.660923000000082
        ]
      },
      "properties" : {
        "OBJECTID" : 272,
        "name" : "六本木",
        "lon" : 139.73214300000001,
        "lat" : 35.660922999999997
      }
    },
    {
      "type" : "Feature",
      "id" : 273,
      "geometry" : {
        "type" : "Point",
        "coordinates" : [
          139.74085600000001,
          35.645242000000053
        ]
      },
      "properties" : {
        "OBJECTID" : 273,
        "name" : "三田",
        "lon" : 139.74085600000001,
        "lat" : 35.645242000000003
      }
    },
    {
      "type" : "Feature",
      "id" : 274,
      "geometry" : {
        "type" : "Point",
        "coordinates" : [
          139.80580300000008,
          35.685234000000037
        ]
      },
      "properties" : {
        "OBJECTID" : 274,
        "name" : "深川第一",
        "lon" : 139.805803,
        "lat" : 35.685234000000001
      }
    },
    {
      "type" : "Feature",
      "id" : 275,
      "geometry" : {
        "type" : "Point",
        "coordinates" : [
          139.8007980000001,
          35.676196000000061
        ]
      },
      "properties" : {
        "OBJECTID" : 275,
        "name" : "深川第二",
        "lon" : 139.80079799999999,
        "lat" : 35.676195999999997
      }
    },
    {
      "type" : "Feature",
      "id" : 276,
      "geometry" : {
        "type" : "Point",
        "coordinates" : [
          139.79641400000003,
          35.666608000000053
        ]
      },
      "properties" : {
        "OBJECTID" : 276,
        "name" : "深川第三",
        "lon" : 139.796414,
        "lat" : 35.666607999999997
      }
    },
    {
      "type" : "Feature",
      "id" : 277,
      "geometry" : {
        "type" : "Point",
        "coordinates" : [
          139.81245000000001,
          35.678893000000073
        ]
      },
      "properties" : {
        "OBJECTID" : 277,
        "name" : "深川第四",
        "lon" : 139.81245000000001,
        "lat" : 35.678893000000002
      }
    },
    {
      "type" : "Feature",
      "id" : 278,
      "geometry" : {
        "type" : "Point",
        "coordinates" : [
          139.7996710000001,
          35.652820000000077
        ]
      },
      "properties" : {
        "OBJECTID" : 278,
        "name" : "深川第五",
        "lon" : 139.79967099999999,
        "lat" : 35.652819999999998
      }
    },
    {
      "type" : "Feature",
      "id" : 279,
      "geometry" : {
        "type" : "Point",
        "coordinates" : [
          139.80563900000004,
          35.678875000000062
        ]
      },
      "properties" : {
        "OBJECTID" : 279,
        "name" : "深川第六",
        "lon" : 139.80563900000001,
        "lat" : 35.678874999999998
      }
    },
    {
      "type" : "Feature",
      "id" : 280,
      "geometry" : {
        "type" : "Point",
        "coordinates" : [
          139.81363700000009,
          35.691659000000072
        ]
      },
      "properties" : {
        "OBJECTID" : 280,
        "name" : "深川第七",
        "lon" : 139.813637,
        "lat" : 35.691659000000001
      }
    },
    {
      "type" : "Feature",
      "id" : 281,
      "geometry" : {
        "type" : "Point",
        "coordinates" : [
          139.812093,
          35.664760000000058
        ]
      },
      "properties" : {
        "OBJECTID" : 281,
        "name" : "深川第八",
        "lon" : 139.812093,
        "lat" : 35.664760000000001
      }
    },
    {
      "type" : "Feature",
      "id" : 282,
      "geometry" : {
        "type" : "Point",
        "coordinates" : [
          139.84117500000002,
          35.695754000000079
        ]
      },
      "properties" : {
        "OBJECTID" : 282,
        "name" : "亀戸",
        "lon" : 139.84117499999999,
        "lat" : 35.695754000000001
      }
    },