{
  "type" : "FeatureCollection",
  "features" : [
    {
      "type" : "Feature",
      "id" : 1,
      "geometry" : {
        "type" : "Point",
        "coordinates" : [
          139.71894200000008,
          35.627702000000056
        ]
      },
      "properties" : {
        "OBJECTID" : 1,
        "name" : "株式会社COMPASS",
        "lon" : 139.718942,
        "lat" : 35.627701999999999
      }
    },
    {
      "type" : "Feature",
      "id" : 2,
      "geometry" : {
        "type" : "Point",
        "coordinates" : [
          139.749146,
          35.623500000000035
        ]
      },
      "properties" : {
        "OBJECTID" : 2,
        "name" : "株式会社キャッチボール",
        "lon" : 139.749146,
        "lat" : 35.6235
      }
    },
    {
      "type" : "Feature",
      "id" : 3,
      "geometry" : {
        "type" : "Point",
        "coordinates" : [
          139.74863800000003,
          35.621634000000086
        ]
      },
      "properties" : {
        "OBJECTID" : 3,
        "name" : "株式会社ブークス",
        "lon" : 139.748638,
        "lat" : 35.621634
      }
    },
    {
      "type" : "Feature",
      "id" : 4,
      "geometry" : {
        "type" : "Point",
        "coordinates" : [
          139.75020000000006,
          35.608525000000043
        ]
      },
      "properties" : {
        "OBJECTID" : 4,
        "name" : "株式会社ブロードリーフ",
        "lon" : 139.75020000000001,
        "lat" : 35.608525
      }
    },
    {
      "type" : "Feature",
      "id" : 5,
      "geometry" : {
        "type" : "Point",
        "coordinates" : [
          139.72088100000008,
          35.627134000000069
        ]
      },
      "properties" : {
        "OBJECTID" : 5,
        "name" : "株式会社ボランチ",
        "lon" : 139.72088099999999,
        "lat" : 35.627133999999998
      }
    },
    {
      "type" : "Feature",
      "id" : 6,
      "geometry" : {
        "type" : "Point",
        "coordinates" : [
          139.6980880000001,
          35.614967000000036
        ]
      },
      "properties" : {
        "OBJECTID" : 6,
        "name" : "Paintnote株式会社",
        "lon" : 139.69808800000001,
        "lat" : 35.614967
      }
    },
    {
      "type" : "Feature",
      "id" : 7,
      "geometry" : {
        "type" : "Point",
        "coordinates" : [
          139.70138100000008,
          35.603901000000064
        ]
      },
      "properties" : {
        "OBJECTID" : 7,
        "name" : "Somnus株式会社",
        "lon" : 139.701381,
        "lat" : 35.603901
      }
    },
    {
      "type" : "Feature",
      "id" : 8,
      "geometry" : {
        "type" : "Point",
        "coordinates" : [
          139.70298600000001,
          35.61784300000005
        ]
      },
      "properties" : {
        "OBJECTID" : 8,
        "name" : "株式会社サンクユー",
        "lon" : 139.70298600000001,
        "lat" : 35.617843000000001
      }
    },
    {
      "type" : "Feature",
      "id" : 9,
      "geometry" : {
        "type" : "Point",
        "coordinates" : [
          139.70429300000001,
          35.617443000000037
        ]
      },
      "properties" : {
        "OBJECTID" : 9,
        "name" : "株式会社キュア",
        "lon" : 139.70429300000001,
        "lat" : 35.617443000000002
      }
    },
    {
      "type" : "Feature",
      "id" : 10,
      "geometry" : {
        "type" : "Point",
        "coordinates" : [
          139.70498200000009,
          35.608660000000043
        ]
      },
      "properties" : {
        "OBJECTID" : 10,
        "name" : "株式会社PROFESSOR'S ROUND",
        "lon" : 139.704982,
        "lat" : 35.60866
      }
    },
    {
      "type" : "Feature",
      "id" : 11,
      "geometry" : {
        "type" : "Point",
        "coordinates" : [
          139.70631200000003,
          35.617523000000062
        ]
      },
      "properties" : {
        "OBJECTID" : 11,
        "name" : "HOMMA Group株式会社",
        "lon" : 139.706312,
        "lat" : 35.617522999999998
      }
    },
    {
      "type" : "Feature",
      "id" : 12,
      "geometry" : {
        "type" : "Point",
        "coordinates" : [
          139.70665300000007,
          35.620788000000061
        ]
      },
      "properties" : {
        "OBJECTID" : 12,
        "name" : "有限会社デジほん",
        "lon" : 139.70665299999999,
        "lat" : 35.620787999999997
      }
    },
    {
      "type" : "Feature",
      "id" : 13,
      "geometry" : {
        "type" : "Point",
        "coordinates" : [
          139.70685300000002,
          35.619490000000042
        ]
      },
      "properties" : {
        "OBJECTID" : 13,
        "name" : "株式会社オーガニッククルー",
        "lon" : 139.706853,
        "lat" : 35.619489999999999
      }
    },
    {
      "type" : "Feature",
      "id" : 14,
      "geometry" : {
        "type" : "Point",
        "coordinates" : [
          139.70696500000008,
          35.616985000000057
        ]
      },
      "properties" : {
        "OBJECTID" : 14,
        "name" : "mplusplus株式会社",
        "lon" : 139.706965,
        "lat" : 35.616985
      }
    },
    {
      "type" : "Feature",
      "id" : 15,
      "geometry" : {
        "type" : "Point",
        "coordinates" : [
          139.70759700000008,
          35.617785000000083
        ]
      },
      "properties" : {
        "OBJECTID" : 15,
        "name" : "FunLife株式会社",
        "lon" : 139.70759699999999,
        "lat" : 35.617784999999998
      }
    },
    {
      "type" : "Feature",
      "id" : 16,
      "geometry" : {
        "type" : "Point",
        "coordinates" : [
          139.70793900000001,
          35.625671000000068
        ]
      },
      "properties" : {
        "OBJECTID" : 16,
        "name" : "株式会社Spotech",
        "lon" : 139.70793900000001,
        "lat" : 35.625670999999997
      }
    },
    {
      "type" : "Feature",
      "id" : 17,
      "geometry" : {
        "type" : "Point",
        "coordinates" : [
          139.70826,
          35.60161700000009
        ]
      },
      "properties" : {
        "OBJECTID" : 17,
        "name" : "合同会社新藤倫佳企画事務所",
        "lon" : 139.70826,
        "lat" : 35.601616999999997
      }
    },
    {
      "type" : "Feature",
      "id" : 18,
      "geometry" : {
        "type" : "Point",
        "coordinates" : [
          139.70960400000001,
          35.602748000000076
        ]
      },
      "properties" : {
        "OBJECTID" : 18,
        "name" : "株式会社crossDs japan",
        "lon" : 139.70960400000001,
        "lat" : 35.602747999999998
      }
    },
    {
      "type" : "Feature",
      "id" : 19,
      "geometry" : {
        "type" : "Point",
        "coordinates" : [
          139.70968600000003,
          35.60148200000009
        ]
      },
      "properties" : {
        "OBJECTID" : 19,
        "name" : "株式会社ミニマム",
        "lon" : 139.709686,
        "lat" : 35.601481999999997
      }
    },
    {
      "type" : "Feature",
      "id" : 20,
      "geometry" : {
        "type" : "Point",
        "coordinates" : [
          139.71050600000001,
          35.603200000000072
        ]
      },
      "properties" : {
        "OBJECTID" : 20,
        "name" : "株式会社SheepDog",
        "lon" : 139.71050600000001,
        "lat" : 35.603200000000001
      }
    },
    {
      "type" : "Feature",
      "id" : 21,
      "geometry" : {
        "type" : "Point",
        "coordinates" : [
          139.7114590000001,
          35.612921000000085
        ]
      },
      "properties" : {
        "OBJECTID" : 21,
        "name" : "株式会社フィールノート",
        "lon" : 139.71145899999999,
        "lat" : 35.612921
      }
    },
    {
      "type" : "Feature",
      "id" : 22,
      "geometry" : {
        "type" : "Point",
        "coordinates" : [
          139.71189700000002,
          35.625094000000047
        ]
      },
      "properties" : {
        "OBJECTID" : 22,
        "name" : "株式会社三進社",
        "lon" : 139.71189699999999,
        "lat" : 35.625093999999997
      }
    },
    {
      "type" : "Feature",
      "id" : 23,
      "geometry" : {
        "type" : "Point",
        "coordinates" : [
          139.71203500000001,
          35.616335000000049
        ]
      },
      "properties" : {
        "OBJECTID" : 23,
        "name" : "アグリペディア株式会社",
        "lon" : 139.71203499999999,
        "lat" : 35.616334999999999
      }
    },
    {
      "type" : "Feature",
      "id" : 24,
      "geometry" : {
        "type" : "Point",
        "coordinates" : [
          139.71282700000006,
          35.604498000000035
        ]
      },
      "properties" : {
        "OBJECTID" : 24,
        "name" : "株式会社Crediation",
        "lon" : 139.712827,
        "lat" : 35.604498
      }
    },
    {
      "type" : "Feature",
      "id" : 25,
      "geometry" : {
        "type" : "Point",
        "coordinates" : [
          139.71302700000001,
          35.626458000000071
        ]
      },
      "properties" : {
        "OBJECTID" : 25,
        "name" : "MasterVisions株式会社",
        "lon" : 139.71302700000001,
        "lat" : 35.626458
      }
    },
    {
      "type" : "Feature",
      "id" : 26,
      "geometry" : {
        "type" : "Point",
        "coordinates" : [
          139.713167,
          35.628116000000034
        ]
      },
      "properties" : {
        "OBJECTID" : 26,
        "name" : "EDGECORTIX株式会社",
        "lon" : 139.713167,
        "lat" : 35.628115999999999
      }
    },
    {
      "type" : "Feature",
      "id" : 27,
      "geometry" : {
        "type" : "Point",
        "coordinates" : [
          139.71394400000008,
          35.635425000000055
        ]
      },
      "properties" : {
        "OBJECTID" : 27,
        "name" : "ラクスル株式会社",
        "lon" : 139.713944,
        "lat" : 35.635424999999998
      }
    },
    {
      "type" : "Feature",
      "id" : 28,
      "geometry" : {
        "type" : "Point",
        "coordinates" : [
          139.71403400000008,
          35.63778300000007
        ]
      },
      "properties" : {
        "OBJECTID" : 28,
        "name" : "株式会社ティー・ワイ・オー",
        "lon" : 139.714034,
        "lat" : 35.637782999999999
      }
    },
    {
      "type" : "Feature",
      "id" : 29,
      "geometry" : {
        "type" : "Point",
        "coordinates" : [
          139.71438499999999,
          35.627487000000087
        ]
      },
      "properties" : {
        "OBJECTID" : 29,
        "name" : "東京技販株式会社",
        "lon" : 139.71438499999999,
        "lat" : 35.627487000000002
      }
    },
    {
      "type" : "Feature",
      "id" : 30,
      "geometry" : {
        "type" : "Point",
        "coordinates" : [
          139.71438499999999,
          35.627487000000087
        ]
      },
      "properties" : {
        "OBJECTID" : 30,
        "name" : "株式会社まぐまぐ",
        "lon" : 139.71438499999999,
        "lat" : 35.627487000000002
      }
    },
    {
      "type" : "Feature",
      "id" : 31,
      "geometry" : {
        "type" : "Point",
        "coordinates" : [
          139.71438499999999,
          35.627487000000087
        ]
      },
      "properties" : {
        "OBJECTID" : 31,
        "name" : "テテマーチ株式会社",
        "lon" : 139.71438499999999,
        "lat" : 35.627487000000002
      }
    },
    {
      "type" : "Feature",
      "id" : 32,
      "geometry" : {
        "type" : "Point",
        "coordinates" : [
          139.71454200000005,
          35.624977000000058
        ]
      },
      "properties" : {
        "OBJECTID" : 32,
        "name" : "有限会社メンタリング研究所",
        "lon" : 139.71454199999999,
        "lat" : 35.624977000000001
      }
    },
    {
      "type" : "Feature",
      "id" : 33,
      "geometry" : {
        "type" : "Point",
        "coordinates" : [
          139.71455700000001,
          35.635461000000078
        ]
      },
      "properties" : {
        "OBJECTID" : 33,
        "name" : "アスタラビスタ株式会社",
        "lon" : 139.71455700000001,
        "lat" : 35.635460999999999
      }
    },
    {
      "type" : "Feature",
      "id" : 34,
      "geometry" : {
        "type" : "Point",
        "coordinates" : [
          139.71455700000001,
          35.635461000000078
        ]
      },
      "properties" : {
        "OBJECTID" : 34,
        "name" : "株式会社LOCKER ROOM",
        "lon" : 139.71455700000001,
        "lat" : 35.635460999999999
      }
    },
    {
      "type" : "Feature",
      "id" : 35,
      "geometry" : {
        "type" : "Point",
        "coordinates" : [
          139.71455700000001,
          35.635461000000078
        ]
      },
      "properties" : {
        "OBJECTID" : 35,
        "name" : "株式会社1LDK",
        "lon" : 139.71455700000001,
        "lat" : 35.635460999999999
      }
    },
    {
      "type" : "Feature",
      "id" : 36,
      "geometry" : {
        "type" : "Point",
        "coordinates" : [
          139.71459900000002,
          35.635228000000041
        ]
      },
      "properties" : {
        "OBJECTID" : 36,
        "name" : "ネクスジェン株式会社",
        "lon" : 139.71459899999999,
        "lat" : 35.635227999999998
      }
    },
    {
      "type" : "Feature",
      "id" : 37,
      "geometry" : {
        "type" : "Point",
        "coordinates" : [
          139.7147470000001,
          35.634516000000076
        ]
      },
      "properties" : {
        "OBJECTID" : 37,
        "name" : "株式会社KITOHA",
        "lon" : 139.71474699999999,
        "lat" : 35.634515999999998
      }
    },
    {
      "type" : "Feature",
      "id" : 38,
      "geometry" : {
        "type" : "Point",
        "coordinates" : [
          139.71476500000006,
          35.617996000000062
        ]
      },
      "properties" : {
        "OBJECTID" : 38,
        "name" : "Rセキュリティ株式会社",
        "lon" : 139.714765,
        "lat" : 35.617995999999998
      }
    },
    {
      "type" : "Feature",
      "id" : 39,
      "geometry" : {
        "type" : "Point",
        "coordinates" : [
          139.71476500000006,
          35.617996000000062
        ]
      },
      "properties" : {
        "OBJECTID" : 39,
        "name" : "Rグループ株式会社",
        "lon" : 139.714765,
        "lat" : 35.617995999999998
      }
    },
    {
      "type" : "Feature",
      "id" : 40,
      "geometry" : {
        "type" : "Point",
        "coordinates" : [
          139.7148820000001,
          35.634196000000088
        ]
      },
      "properties" : {
        "OBJECTID" : 40,
        "name" : "アイピーフレックス株式会社",
        "lon" : 139.71488199999999,
        "lat" : 35.634196000000003
      }
    },
    {
      "type" : "Feature",
      "id" : 41,
      "geometry" : {
        "type" : "Point",
        "coordinates" : [
          139.7149740000001,
          35.629672000000085
        ]
      },
      "properties" : {
        "OBJECTID" : 41,
        "name" : "アトリエブックアンドベッド株式会社",
        "lon" : 139.71497400000001,
        "lat" : 35.629671999999999
      }
    },
    {
      "type" : "Feature",
      "id" : 42,
      "geometry" : {
        "type" : "Point",
        "coordinates" : [
          139.71524800000009,
          35.626457000000073
        ]
      },
      "properties" : {
        "OBJECTID" : 42,
        "name" : "アラヤ株式会社",
        "lon" : 139.715248,
        "lat" : 35.626457000000002
      }
    },
    {
      "type" : "Feature",
      "id" : 43,
      "geometry" : {
        "type" : "Point",
        "coordinates" : [
          139.71537000000001,
          35.62706200000008
        ]
      },
      "properties" : {
        "OBJECTID" : 43,
        "name" : "グレイトフルデイズ株式会社",
        "lon" : 139.71537000000001,
        "lat" : 35.627062000000002
      }
    },
    {
      "type" : "Feature",
      "id" : 44,
      "geometry" : {
        "type" : "Point",
        "coordinates" : [
          139.71537000000001,
          35.62706200000008
        ]
      },
      "properties" : {
        "OBJECTID" : 44,
        "name" : "プレイネクストラボ株式会社",
        "lon" : 139.71537000000001,
        "lat" : 35.627062000000002
      }
    },
    {
      "type" : "Feature",
      "id" : 45,
      "geometry" : {
        "type" : "Point",
        "coordinates" : [
          139.71537000000001,
          35.62706200000008
        ]
      },
      "properties" : {
        "OBJECTID" : 45,
        "name" : "モビルス株式会社",
        "lon" : 139.71537000000001,
        "lat" : 35.627062000000002
      }
    },
    {
      "type" : "Feature",
      "id" : 46,
      "geometry" : {
        "type" : "Point",
        "coordinates" : [
          139.71537000000001,
          35.62706200000008
        ]
      },
      "properties" : {
        "OBJECTID" : 46,
        "name" : "株式会社Dot Homes",
        "lon" : 139.71537000000001,
        "lat" : 35.627062000000002
      }
    },
    {
      "type" : "Feature",
      "id" : 47,
      "geometry" : {
        "type" : "Point",
        "coordinates" : [
          139.71537000000001,
          35.62706200000008
        ]
      },
      "properties" : {
        "OBJECTID" : 47,
        "name" : "株式会社ロジレス",
        "lon" : 139.71537000000001,
        "lat" : 35.627062000000002
      }
    },
    {
      "type" : "Feature",
      "id" : 48,
      "geometry" : {
        "type" : "Point",
        "coordinates" : [
          139.7153770000001,
          35.632670000000076
        ]
      },
      "properties" : {
        "OBJECTID" : 48,
        "name" : "fermata株式会社",
        "lon" : 139.71537699999999,
        "lat" : 35.632669999999997
      }
    },
    {
      "type" : "Feature",
      "id" : 49,
      "geometry" : {
        "type" : "Point",
        "coordinates" : [
          139.7154670000001,
          35.617198000000087
        ]
      },
      "properties" : {
        "OBJECTID" : 49,
        "name" : "ニジゲンポケット株式会社",
        "lon" : 139.71546699999999,
        "lat" : 35.617198000000002
      }
    },
    {
      "type" : "Feature",
      "id" : 50,
      "geometry" : {
        "type" : "Point",
        "coordinates" : [
          139.71556900000007,
          35.628599000000065
        ]
      },
      "properties" : {
        "OBJECTID" : 50,
        "name" : "株式会社ベストリザーブ",
        "lon" : 139.71556899999999,
        "lat" : 35.628599000000001
      }
    },
    {
      "type" : "Feature",
      "id" : 51,
      "geometry" : {
        "type" : "Point",
        "coordinates" : [
          139.71556900000007,
          35.628599000000065
        ]
      },
      "properties" : {
        "OBJECTID" : 51,
        "name" : "株式会社シュアール",
        "lon" : 139.71556899999999,
        "lat" : 35.628599000000001
      }
    },
    {
      "type" : "Feature",
      "id" : 52,
      "geometry" : {
        "type" : "Point",
        "coordinates" : [
          139.71556900000007,
          35.628599000000065
        ]
      },
      "properties" : {
        "OBJECTID" : 52,
        "name" : "ワイズシステム株式会社",
        "lon" : 139.71556899999999,
        "lat" : 35.628599000000001
      }
    },
    {
      "type" : "Feature",
      "id" : 53,
      "geometry" : {
        "type" : "Point",
        "coordinates" : [
          139.71556900000007,
          35.628599000000065
        ]
      },
      "properties" : {
        "OBJECTID" : 53,
        "name" : "株式会社建築構造研究所",
        "lon" : 139.71556899999999,
        "lat" : 35.628599000000001
      }
    },
    {
      "type" : "Feature",
      "id" : 54,
      "geometry" : {
        "type" : "Point",
        "coordinates" : [
          139.71581000000003,
          35.612120000000061
        ]
      },
      "properties" : {
        "OBJECTID" : 54,
        "name" : "平田機工株式会社",
        "lon" : 139.71581,
        "lat" : 35.612119999999997
      }
    },
    {
      "type" : "Feature",
      "id" : 55,
      "geometry" : {
        "type" : "Point",
        "coordinates" : [
          139.71583800000008,
          35.62610600000005
        ]
      },
      "properties" : {
        "OBJECTID" : 55,
        "name" : "グマッカル株式会社",
        "lon" : 139.71583799999999,
        "lat" : 35.626106
      }
    },
    {
      "type" : "Feature",
      "id" : 56,
      "geometry" : {
        "type" : "Point",
        "coordinates" : [
          139.7162340000001,
          35.635170000000073
        ]
      },
      "properties" : {
        "OBJECTID" : 56,
        "name" : "株式会社Pooka.",
        "lon" : 139.71623399999999,
        "lat" : 35.635170000000002
      }
    },
    {
      "type" : "Feature",
      "id" : 57,
      "geometry" : {
        "type" : "Point",
        "coordinates" : [
          139.7162770000001,
          35.625906000000043
        ]
      },
      "properties" : {
        "OBJECTID" : 57,
        "name" : "コミューン株式会社",
        "lon" : 139.71627699999999,
        "lat" : 35.625906000000001
      }
    },
    {
      "type" : "Feature",
      "id" : 58,
      "geometry" : {
        "type" : "Point",
        "coordinates" : [
          139.7162770000001,
          35.625906000000043
        ]
      },
      "properties" : {
        "OBJECTID" : 58,
        "name" : "株式会社baton",
        "lon" : 139.71627699999999,
        "lat" : 35.625906000000001
      }
    },
    {
      "type" : "Feature",
      "id" : 59,
      "geometry" : {
        "type" : "Point",
        "coordinates" : [
          139.71629400000006,
          35.623498000000041
        ]
      },
      "properties" : {
        "OBJECTID" : 59,
        "name" : "株式会社アルネアラボラトリ",
        "lon" : 139.716294,
        "lat" : 35.623497999999998
      }
    },
    {
      "type" : "Feature",
      "id" : 60,
      "geometry" : {
        "type" : "Point",
        "coordinates" : [
          139.71642000000008,
          35.616478000000086
        ]
      },
      "properties" : {
        "OBJECTID" : 60,
        "name" : "Orange株式会社",
        "lon" : 139.71642,
        "lat" : 35.616478000000001
      }
    },
    {
      "type" : "Feature",
      "id" : 61,
      "geometry" : {
        "type" : "Point",
        "coordinates" : [
          139.71642500000007,
          35.634888000000046
        ]
      },
      "properties" : {
        "OBJECTID" : 61,
        "name" : "コムソル株式会社",
        "lon" : 139.71642499999999,
        "lat" : 35.634887999999997
      }
    },
    {
      "type" : "Feature",
      "id" : 62,
      "geometry" : {
        "type" : "Point",
        "coordinates" : [
          139.7165930000001,
          35.634573000000046
        ]
      },
      "properties" : {
        "OBJECTID" : 62,
        "name" : "株式会社たんぽぽ",
        "lon" : 139.71659299999999,
        "lat" : 35.634573000000003
      }
    },
    {
      "type" : "Feature",
      "id" : 63,
      "geometry" : {
        "type" : "Point",
        "coordinates" : [
          139.7165930000001,
          35.634573000000046
        ]
      },
      "properties" : {
        "OBJECTID" : 63,
        "name" : "株式会社バリュープロモーション",
        "lon" : 139.71659299999999,
        "lat" : 35.634573000000003
      }
    },
    {
      "type" : "Feature",
      "id" : 64,
      "geometry" : {
        "type" : "Point",
        "coordinates" : [
          139.7165930000001,
          35.634573000000046
        ]
      },
      "properties" : {
        "OBJECTID" : 64,
        "name" : "Idealink株式会社",
        "lon" : 139.71659299999999,
        "lat" : 35.634573000000003
      }
    },
    {
      "type" : "Feature",
      "id" : 65,
      "geometry" : {
        "type" : "Point",
        "coordinates" : [
          139.7165930000001,
          35.634573000000046
        ]
      },
      "properties" : {
        "OBJECTID" : 65,
        "name" : "ECUW株式会社",
        "lon" : 139.71659299999999,
        "lat" : 35.634573000000003
      }
    },
    {
      "type" : "Feature",
      "id" : 66,
      "geometry" : {
        "type" : "Point",
        "coordinates" : [
          139.7165930000001,
          35.634573000000046
        ]
      },
      "properties" : {
        "OBJECTID" : 66,
        "name" : "Oceans株式会社",
        "lon" : 139.71659299999999,
        "lat" : 35.634573000000003
      }
    },
    {
      "type" : "Feature",
      "id" : 67,
      "geometry" : {
        "type" : "Point",
        "coordinates" : [
          139.7165930000001,
          35.634573000000046
        ]
      },
      "properties" : {
        "OBJECTID" : 67,
        "name" : "株式会社そると",
        "lon" : 139.71659299999999,
        "lat" : 35.634573000000003
      }
    },
    {
      "type" : "Feature",
      "id" : 68,
      "geometry" : {
        "type" : "Point",
        "coordinates" : [
          139.7165930000001,
          35.634573000000046
        ]
      },
      "properties" : {
        "OBJECTID" : 68,
        "name" : "株式会社アイフェイズ",
        "lon" : 139.71659299999999,
        "lat" : 35.634573000000003
      }
    },
    {
      "type" : "Feature",
      "id" : 69,
      "geometry" : {
        "type" : "Point",
        "coordinates" : [
          139.7165930000001,
          35.634573000000046
        ]
      },
      "properties" : {
        "OBJECTID" : 69,
        "name" : "モデライズ株式会社",
        "lon" : 139.71659299999999,
        "lat" : 35.634573000000003
      }
    },
    {
      "type" : "Feature",
      "id" : 70,
      "geometry" : {
        "type" : "Point",
        "coordinates" : [
          139.7165930000001,
          35.634573000000046
        ]
      },
      "properties" : {
        "OBJECTID" : 70,
        "name" : "株式会社ローカルワークス",
        "lon" : 139.71659299999999,
        "lat" : 35.634573000000003
      }
    },
    {
      "type" : "Feature",
      "id" : 71,
      "geometry" : {
        "type" : "Point",
        "coordinates" : [
          139.7165930000001,
          35.634573000000046
        ]
      },
      "properties" : {
        "OBJECTID" : 71,
        "name" : "株式会社電子債権応用技術研究所",
        "lon" : 139.71659299999999,
        "lat" : 35.634573000000003
      }
    },
    {
      "type" : "Feature",
      "id" : 72,
      "geometry" : {
        "type" : "Point",
        "coordinates" : [
          139.7165930000001,
          35.634573000000046
        ]
      },
      "properties" : {
        "OBJECTID" : 72,
        "name" : "株式会社SFM",
        "lon" : 139.71659299999999,
        "lat" : 35.634573000000003
      }
    },
    {
      "type" : "Feature",
      "id" : 73,
      "geometry" : {
        "type" : "Point",
        "coordinates" : [
          139.7165930000001,
          35.634573000000046
        ]
      },
      "properties" : {
        "OBJECTID" : 73,
        "name" : "ヴィ・ネットワーク・システムズ株式会社",
        "lon" : 139.71659299999999,
        "lat" : 35.634573000000003
      }
    },
    {
      "type" : "Feature",
      "id" : 74,
      "geometry" : {
        "type" : "Point",
        "coordinates" : [
          139.71667600000001,
          35.633414000000073
        ]
      },
      "properties" : {
        "OBJECTID" : 74,
        "name" : "株式会社ネコ･パブリッシング",
        "lon" : 139.71667600000001,
        "lat" : 35.633414000000002
      }
    },
    {
      "type" : "Feature",
      "id" : 75,
      "geometry" : {
        "type" : "Point",
        "coordinates" : [
          139.71667600000001,
          35.633414000000073
        ]
      },
      "properties" : {
        "OBJECTID" : 75,
        "name" : "株式会社USEN WORKING",
        "lon" : 139.71667600000001,
        "lat" : 35.633414000000002
      }
    },
    {
      "type" : "Feature",
      "id" : 76,
      "geometry" : {
        "type" : "Point",
        "coordinates" : [
          139.71675800000003,
          35.633053000000075
        ]
      },
      "properties" : {
        "OBJECTID" : 76,
        "name" : "株式会社ソレクティブ",
        "lon" : 139.716758,
        "lat" : 35.633052999999997
      }
    },
    {
      "type" : "Feature",
      "id" : 77,
      "geometry" : {
        "type" : "Point",
        "coordinates" : [
          139.716905,
          35.61515200000008
        ]
      },
      "properties" : {
        "OBJECTID" : 77,
        "name" : "ホリゾンリンク株式会社",
        "lon" : 139.716905,
        "lat" : 35.615152000000002
      }
    },
    {
      "type" : "Feature",
      "id" : 78,
      "geometry" : {
        "type" : "Point",
        "coordinates" : [
          139.71702000000005,
          35.631592000000069
        ]
      },
      "properties" : {
        "OBJECTID" : 78,
        "name" : "株式会社heathrow",
        "lon" : 139.71701999999999,
        "lat" : 35.631591999999998
      }
    },
    {
      "type" : "Feature",
      "id" : 79,
      "geometry" : {
        "type" : "Point",
        "coordinates" : [
          139.71702000000005,
          35.631592000000069
        ]
      },
      "properties" : {
        "OBJECTID" : 79,
        "name" : "株式会社コー・ランナーズ",
        "lon" : 139.71701999999999,
        "lat" : 35.631591999999998
      }
    },
    {
      "type" : "Feature",
      "id" : 80,
      "geometry" : {
        "type" : "Point",
        "coordinates" : [
          139.71709300000009,
          35.634078000000045
        ]
      },
      "properties" : {
        "OBJECTID" : 80,
        "name" : "ジェイマジック株式会社",
        "lon" : 139.71709300000001,
        "lat" : 35.634078000000002
      }
    },
    {
      "type" : "Feature",
      "id" : 81,
      "geometry" : {
        "type" : "Point",
        "coordinates" : [
          139.71743500000002,
          35.633422000000053
        ]
      },
      "properties" : {
        "OBJECTID" : 81,
        "name" : "株式会社クロスワープ",
        "lon" : 139.71743499999999,
        "lat" : 35.633422000000003
      }
    },
    {
      "type" : "Feature",
      "id" : 82,
      "geometry" : {
        "type" : "Point",
        "coordinates" : [
          139.71744000000001,
          35.633628000000044
        ]
      },
      "properties" : {
        "OBJECTID" : 82,
        "name" : "株式会社クラダシ",
        "lon" : 139.71744000000001,
        "lat" : 35.633628000000002
      }
    },
    {
      "type" : "Feature",
      "id" : 83,
      "geometry" : {
        "type" : "Point",
        "coordinates" : [
          139.71764900000005,
          35.616725000000088
        ]
      },
      "properties" : {
        "OBJECTID" : 83,
        "name" : "株式会社計算力学研究センター",
        "lon" : 139.71764899999999,
        "lat" : 35.616725000000002
      }
    },
    {
      "type" : "Feature",
      "id" : 84,
      "geometry" : {
        "type" : "Point",
        "coordinates" : [
          139.71768200000008,
          35.634310000000085
        ]
      },
      "properties" : {
        "OBJECTID" : 84,
        "name" : "株式会社SEESEW",
        "lon" : 139.717682,
        "lat" : 35.634309999999999
      }
    },
    {
      "type" : "Feature",
      "id" : 85,
      "geometry" : {
        "type" : "Point",
        "coordinates" : [
          139.71768200000008,
          35.634310000000085
        ]
      },
      "properties" : {
        "OBJECTID" : 85,
        "name" : "株式会社122",
        "lon" : 139.717682,
        "lat" : 35.634309999999999
      }
    },
    {
      "type" : "Feature",
      "id" : 86,
      "geometry" : {
        "type" : "Point",
        "coordinates" : [
          139.7177210000001,
          35.626579000000049
        ]
      },
      "properties" : {
        "OBJECTID" : 86,
        "name" : "株式会社アーブ",
        "lon" : 139.71772100000001,
        "lat" : 35.626579
      }
    },
    {
      "type" : "Feature",
      "id" : 87,
      "geometry" : {
        "type" : "Point",
        "coordinates" : [
          139.71774000000005,
          35.619066000000089
        ]
      },
      "properties" : {
        "OBJECTID" : 87,
        "name" : "株式会社富士屋電機製作所",
        "lon" : 139.71773999999999,
        "lat" : 35.619065999999997
      }
    },
    {
      "type" : "Feature",
      "id" : 88,
      "geometry" : {
        "type" : "Point",
        "coordinates" : [
          139.71811300000002,
          35.632786000000067
        ]
      },
      "properties" : {
        "OBJECTID" : 88,
        "name" : "Go Visions株式会社",
        "lon" : 139.71811299999999,
        "lat" : 35.632786000000003
      }
    },
    {
      "type" : "Feature",
      "id" : 89,
      "geometry" : {
        "type" : "Point",
        "coordinates" : [
          139.71813200000008,
          35.624322000000063
        ]
      },
      "properties" : {
        "OBJECTID" : 89,
        "name" : "株式会社プロヴィデンス",
        "lon" : 139.718132,
        "lat" : 35.624321999999999
      }
    },
    {
      "type" : "Feature",
      "id" : 90,
      "geometry" : {
        "type" : "Point",
        "coordinates" : [
          139.71814100000006,
          35.623676000000046
        ]
      },
      "properties" : {
        "OBJECTID" : 90,
        "name" : "ユニ・チャーム ペットケア株式会社",
        "lon" : 139.718141,
        "lat" : 35.623676000000003
      }
    },
    {
      "type" : "Feature",
      "id" : 91,
      "geometry" : {
        "type" : "Point",
        "coordinates" : [
          139.71814100000006,
          35.623676000000046
        ]
      },
      "properties" : {
        "OBJECTID" : 91,
        "name" : "株式会社レスキューナウ",
        "lon" : 139.718141,
        "lat" : 35.623676000000003
      }
    },
    {
      "type" : "Feature",
      "id" : 92,
      "geometry" : {
        "type" : "Point",
        "coordinates" : [
          139.71814100000006,
          35.623676000000046
        ]
      },
      "properties" : {
        "OBJECTID" : 92,
        "name" : "株式会社Surpass",
        "lon" : 139.718141,
        "lat" : 35.623676000000003
      }
    },
    {
      "type" : "Feature",
      "id" : 93,
      "geometry" : {
        "type" : "Point",
        "coordinates" : [
          139.71814100000006,
          35.623676000000046
        ]
      },
      "properties" : {
        "OBJECTID" : 93,
        "name" : "UPPGO株式会社",
        "lon" : 139.718141,
        "lat" : 35.623676000000003
      }
    },
    {
      "type" : "Feature",
      "id" : 94,
      "geometry" : {
        "type" : "Point",
        "coordinates" : [
          139.71814100000006,
          35.623676000000046
        ]
      },
      "properties" : {
        "OBJECTID" : 94,
        "name" : "アドフォン株式会社",
        "lon" : 139.718141,
        "lat" : 35.623676000000003
      }
    },
    {
      "type" : "Feature",
      "id" : 95,
      "geometry" : {
        "type" : "Point",
        "coordinates" : [
          139.71814100000006,
          35.623676000000046
        ]
      },
      "properties" : {
        "OBJECTID" : 95,
        "name" : "ビットバンク株式会社",
        "lon" : 139.718141,
        "lat" : 35.623676000000003
      }
    },
    {
      "type" : "Feature",
      "id" : 96,
      "geometry" : {
        "type" : "Point",
        "coordinates" : [
          139.71814100000006,
          35.623676000000046
        ]
      },
      "properties" : {
        "OBJECTID" : 96,
        "name" : "株式会社ホワイトプラス",
        "lon" : 139.718141,
        "lat" : 35.623676000000003
      }
    },
    {
      "type" : "Feature",
      "id" : 97,
      "geometry" : {
        "type" : "Point",
        "coordinates" : [
          139.7181710000001,
          35.634645000000035
        ]
      },
      "properties" : {
        "OBJECTID" : 97,
        "name" : "クリームフィールド株式会社",
        "lon" : 139.71817100000001,
        "lat" : 35.634644999999999
      }
    },
    {
      "type" : "Feature",
      "id" : 98,
      "geometry" : {
        "type" : "Point",
        "coordinates" : [
          139.7181710000001,
          35.634645000000035
        ]
      },
      "properties" : {
        "OBJECTID" : 98,
        "name" : "株式会社スマートソーシング",
        "lon" : 139.71817100000001,
        "lat" : 35.634644999999999
      }
    },
    {
      "type" : "Feature",
      "id" : 99,
      "geometry" : {
        "type" : "Point",
        "coordinates" : [
          139.7181710000001,
          35.634645000000035
        ]
      },
      "properties" : {
        "OBJECTID" : 99,
        "name" : "株式会社アカツキライブエンターテインメント",
        "lon" : 139.71817100000001,
        "lat" : 35.634644999999999
      }
    },
    {
      "type" : "Feature",
      "id" : 100,
      "geometry" : {
        "type" : "Point",
        "coordinates" : [
          139.71825000000001,
          35.633766000000037
        ]
      },
      "properties" : {
        "OBJECTID" : 100,
        "name" : "合同会社ONEGAI",
        "lon" : 139.71825000000001,
        "lat" : 35.633766000000001
      }
    },
    {
      "type" : "Feature",
      "id" : 101,
      "geometry" : {
        "type" : "Point",
        "coordinates" : [
          139.71825200000001,
          35.624413000000061
        ]
      },
      "properties" : {
        "OBJECTID" : 101,
        "name" : "株式会社ビズリンク",
        "lon" : 139.71825200000001,
        "lat" : 35.624412999999997
      }
    },
    {
      "type" : "Feature",
      "id" : 102,
      "geometry" : {
        "type" : "Point",
        "coordinates" : [
          139.71825200000001,
          35.624413000000061
        ]
      },
      "properties" : {
        "OBJECTID" : 102,
        "name" : "株式会社スペサン",
        "lon" : 139.71825200000001,
        "lat" : 35.624412999999997
      }
    },
    {
      "type" : "Feature",
      "id" : 103,
      "geometry" : {
        "type" : "Point",
        "coordinates" : [
          139.71825200000001,
          35.624413000000061
        ]
      },
      "properties" : {
        "OBJECTID" : 103,
        "name" : "株式会社ログラス",
        "lon" : 139.71825200000001,
        "lat" : 35.624412999999997
      }
    },
    {
      "type" : "Feature",
      "id" : 104,
      "geometry" : {
        "type" : "Point",
        "coordinates" : [
          139.71844700000008,
          35.635031000000083
        ]
      },
      "properties" : {
        "OBJECTID" : 104,
        "name" : "アングー株式会社",
        "lon" : 139.718447,
        "lat" : 35.635030999999998
      }
    },
    {
      "type" : "Feature",
      "id" : 105,
      "geometry" : {
        "type" : "Point",
        "coordinates" : [
          139.71873300000004,
          35.634621000000038
        ]
      },
      "properties" : {
        "OBJECTID" : 105,
        "name" : "株式会社プロメディック",
        "lon" : 139.71873299999999,
        "lat" : 35.634621000000003
      }
    },
    {
      "type" : "Feature",
      "id" : 106,
      "geometry" : {
        "type" : "Point",
        "coordinates" : [
          139.7188010000001,
          35.628270000000043
        ]
      },
      "properties" : {
        "OBJECTID" : 106,
        "name" : "株式会社アットテーブル",
        "lon" : 139.71880100000001,
        "lat" : 35.628270000000001
      }
    },
    {
      "type" : "Feature",
      "id" : 107,
      "geometry" : {
        "type" : "Point",
        "coordinates" : [
          139.71881600000006,
          35.623000000000047
        ]
      },
      "properties" : {
        "OBJECTID" : 107,
        "name" : "maneoマーケット株式会社",
        "lon" : 139.718816,
        "lat" : 35.622999999999998
      }
    },
    {
      "type" : "Feature",
      "id" : 108,
      "geometry" : {
        "type" : "Point",
        "coordinates" : [
          139.71881600000006,
          35.623000000000047
        ]
      },
      "properties" : {
        "OBJECTID" : 108,
        "name" : "maneo株式会社",
        "lon" : 139.718816,
        "lat" : 35.622999999999998
      }
    },
    {
      "type" : "Feature",
      "id" : 109,
      "geometry" : {
        "type" : "Point",
        "coordinates" : [
          139.71882000000005,
          35.620767000000058
        ]
      },
      "properties" : {
        "OBJECTID" : 109,
        "name" : "Scheeme株式会社",
        "lon" : 139.71881999999999,
        "lat" : 35.620767000000001
      }
    },
    {
      "type" : "Feature",
      "id" : 110,
      "geometry" : {
        "type" : "Point",
        "coordinates" : [
          139.71882200000005,
          35.618996000000038
        ]
      },
      "properties" : {
        "OBJECTID" : 110,
        "name" : "株式会社エレクトロニック･ライブラリー",
        "lon" : 139.71882199999999,
        "lat" : 35.618996000000003
      }
    },
    {
      "type" : "Feature",
      "id" : 111,
      "geometry" : {
        "type" : "Point",
        "coordinates" : [
          139.71898900000008,
          35.623105000000066
        ]
      },
      "properties" : {
        "OBJECTID" : 111,
        "name" : "株式会社スタートアウツ",
        "lon" : 139.71898899999999,
        "lat" : 35.623105000000002
      }
    },
    {
      "type" : "Feature",
      "id" : 112,
      "geometry" : {
        "type" : "Point",
        "coordinates" : [
          139.71902900000009,
          35.621871000000056
        ]
      },
      "properties" : {
        "OBJECTID" : 112,
        "name" : "株式会社ニット",
        "lon" : 139.71902900000001,
        "lat" : 35.621870999999999
      }
    },
    {
      "type" : "Feature",
      "id" : 113,
      "geometry" : {
        "type" : "Point",
        "coordinates" : [
          139.71902900000009,
          35.621871000000056
        ]
      },
      "properties" : {
        "OBJECTID" : 113,
        "name" : "株式会社クロスビット",
        "lon" : 139.71902900000001,
        "lat" : 35.621870999999999
      }
    },
    {
      "type" : "Feature",
      "id" : 114,
      "geometry" : {
        "type" : "Point",
        "coordinates" : [
          139.71902900000009,
          35.621871000000056
        ]
      },
      "properties" : {
        "OBJECTID" : 114,
        "name" : "株式会社モノカブ",
        "lon" : 139.71902900000001,
        "lat" : 35.621870999999999
      }
    },
    {
      "type" : "Feature",
      "id" : 115,
      "geometry" : {
        "type" : "Point",
        "coordinates" : [
          139.71902900000009,
          35.621871000000056
        ]
      },
      "properties" : {
        "OBJECTID" : 115,
        "name" : "株式会社TOC-index",
        "lon" : 139.71902900000001,
        "lat" : 35.621870999999999
      }
    },
    {
      "type" : "Feature",
      "id" : 116,
      "geometry" : {
        "type" : "Point",
        "coordinates" : [
          139.71902900000009,
          35.621871000000056
        ]
      },
      "properties" : {
        "OBJECTID" : 116,
        "name" : "株式会社アポロ・プロダクション",
        "lon" : 139.71902900000001,
        "lat" : 35.621870999999999
      }
    },
    {
      "type" : "Feature",
      "id" : 117,
      "geometry" : {
        "type" : "Point",
        "coordinates" : [
          139.71902900000009,
          35.621871000000056
        ]
      },
      "properties" : {
        "OBJECTID" : 117,
        "name" : "株式会社ニコラ",
        "lon" : 139.71902900000001,
        "lat" : 35.621870999999999
      }
    },
    {
      "type" : "Feature",
      "id" : 118,
      "geometry" : {
        "type" : "Point",
        "coordinates" : [
          139.71902900000009,
          35.621871000000056
        ]
      },
      "properties" : {
        "OBJECTID" : 118,
        "name" : "株式会社エバーキュー",
        "lon" : 139.71902900000001,
        "lat" : 35.621870999999999
      }
    },
    {
      "type" : "Feature",
      "id" : 119,
      "geometry" : {
        "type" : "Point",
        "coordinates" : [
          139.71902900000009,
          35.621871000000056
        ]
      },
      "properties" : {
        "OBJECTID" : 119,
        "name" : "アキュートロジック株式会社",
        "lon" : 139.71902900000001,
        "lat" : 35.621870999999999
      }
    },
    {
      "type" : "Feature",
      "id" : 120,
      "geometry" : {
        "type" : "Point",
        "coordinates" : [
          139.71902900000009,
          35.621871000000056
        ]
      },
      "properties" : {
        "OBJECTID" : 120,
        "name" : "株式会社リスタ",
        "lon" : 139.71902900000001,
        "lat" : 35.621870999999999
      }
    },
    {
      "type" : "Feature",
      "id" : 121,
      "geometry" : {
        "type" : "Point",
        "coordinates" : [
          139.71902900000009,
          35.621871000000056
        ]
      },
      "properties" : {
        "OBJECTID" : 121,
        "name" : "株式会社フラッグシップオーケストラ",
        "lon" : 139.71902900000001,
        "lat" : 35.621870999999999
      }
    },
    {
      "type" : "Feature",
      "id" : 122,
      "geometry" : {
        "type" : "Point",
        "coordinates" : [
          139.71902900000009,
          35.621871000000056
        ]
      },
      "properties" : {
        "OBJECTID" : 122,
        "name" : "mtes Neural Networks株式会社",
        "lon" : 139.71902900000001,
        "lat" : 35.621870999999999
      }
    },
    {
      "type" : "Feature",
      "id" : 123,
      "geometry" : {
        "type" : "Point",
        "coordinates" : [
          139.71902900000009,
          35.621871000000056
        ]
      },
      "properties" : {
        "OBJECTID" : 123,
        "name" : "株式会社Spice",
        "lon" : 139.71902900000001,
        "lat" : 35.621870999999999
      }
    },
    {
      "type" : "Feature",
      "id" : 124,
      "geometry" : {
        "type" : "Point",
        "coordinates" : [
          139.71902900000009,
          35.621871000000056
        ]
      },
      "properties" : {
        "OBJECTID" : 124,
        "name" : "株式会社HERP",
        "lon" : 139.71902900000001,
        "lat" : 35.621870999999999
      }
    },
    {
      "type" : "Feature",
      "id" : 125,
      "geometry" : {
        "type" : "Point",
        "coordinates" : [
          139.71902900000009,
          35.621871000000056
        ]
      },
      "properties" : {
        "OBJECTID" : 125,
        "name" : "株式会社アルゴリズム",
        "lon" : 139.71902900000001,
        "lat" : 35.621870999999999
      }
    },
    {
      "type" : "Feature",
      "id" : 126,
      "geometry" : {
        "type" : "Point",
        "coordinates" : [
          139.71902900000009,
          35.621871000000056
        ]
      },
      "properties" : {
        "OBJECTID" : 126,
        "name" : "株式会社プレースホルダ",
        "lon" : 139.71902900000001,
        "lat" : 35.621870999999999
      }
    },
    {
      "type" : "Feature",
      "id" : 127,
      "geometry" : {
        "type" : "Point",
        "coordinates" : [
          139.71902900000009,
          35.621871000000056
        ]
      },
      "properties" : {
        "OBJECTID" : 127,
        "name" : "チケットストリート株式会社",
        "lon" : 139.71902900000001,
        "lat" : 35.621870999999999
      }
    },
    {
      "type" : "Feature",
      "id" : 128,
      "geometry" : {
        "type" : "Point",
        "coordinates" : [
          139.71902900000009,
          35.621871000000056
        ]
      },
      "properties" : {
        "OBJECTID" : 128,
        "name" : "アサップネットワーク株式会社",
        "lon" : 139.71902900000001,
        "lat" : 35.621870999999999
      }
    },
    {
      "type" : "Feature",
      "id" : 129,
      "geometry" : {
        "type" : "Point",
        "coordinates" : [
          139.71902900000009,
          35.621871000000056
        ]
      },
      "properties" : {
        "OBJECTID" : 129,
        "name" : "株式会社トレタ",
        "lon" : 139.71902900000001,
        "lat" : 35.621870999999999
      }
    },
    {
      "type" : "Feature",
      "id" : 130,
      "geometry" : {
        "type" : "Point",
        "coordinates" : [
          139.71902900000009,
          35.621871000000056
        ]
      },
      "properties" : {
        "OBJECTID" : 130,
        "name" : "ClipLine株式会社",
        "lon" : 139.71902900000001,
        "lat" : 35.621870999999999
      }
    },
    {
      "type" : "Feature",
      "id" : 131,
      "geometry" : {
        "type" : "Point",
        "coordinates" : [
          139.71902900000009,
          35.621871000000056
        ]
      },
      "properties" : {
        "OBJECTID" : 131,
        "name" : "株式会社ワクワーク",
        "lon" : 139.71902900000001,
        "lat" : 35.621870999999999
      }
    },
    {
      "type" : "Feature",
      "id" : 132,
      "geometry" : {
        "type" : "Point",
        "coordinates" : [
          139.71902900000009,
          35.621871000000056
        ]
      },
      "properties" : {
        "OBJECTID" : 132,
        "name" : "株式会社ナンバーナイン",
        "lon" : 139.71902900000001,
        "lat" : 35.621870999999999
      }
    },
    {
      "type" : "Feature",
      "id" : 133,
      "geometry" : {
        "type" : "Point",
        "coordinates" : [
          139.71902900000009,
          35.621871000000056
        ]
      },
      "properties" : {
        "OBJECTID" : 133,
        "name" : "LEOMO, Inc.",
        "lon" : 139.71902900000001,
        "lat" : 35.621870999999999
      }
    },
    {
      "type" : "Feature",
      "id" : 134,
      "geometry" : {
        "type" : "Point",
        "coordinates" : [
          139.71902900000009,
          35.621871000000056
        ]
      },
      "properties" : {
        "OBJECTID" : 134,
        "name" : "株式会社Synamon",
        "lon" : 139.71902900000001,
        "lat" : 35.621870999999999
      }
    },
    {
      "type" : "Feature",
      "id" : 135,
      "geometry" : {
        "type" : "Point",
        "coordinates" : [
          139.71923100000004,
          35.625752000000034
        ]
      },
      "properties" : {
        "OBJECTID" : 135,
        "name" : "株式会社OCEAN GATE",
        "lon" : 139.71923100000001,
        "lat" : 35.625751999999999
      }
    },
    {
      "type" : "Feature",
      "id" : 136,
      "geometry" : {
        "type" : "Point",
        "coordinates" : [
          139.71923100000004,
          35.625752000000034
        ]
      },
      "properties" : {
        "OBJECTID" : 136,
        "name" : "株式会社メディケアネットワーク",
        "lon" : 139.71923100000001,
        "lat" : 35.625751999999999
      }
    },
    {
      "type" : "Feature",
      "id" : 137,
      "geometry" : {
        "type" : "Point",
        "coordinates" : [
          139.71923600000002,
          35.625670000000071
        ]
      },
      "properties" : {
        "OBJECTID" : 137,
        "name" : "株式会社Mimmy",
        "lon" : 139.719236,
        "lat" : 35.62567
      }
    },
    {
      "type" : "Feature",
      "id" : 138,
      "geometry" : {
        "type" : "Point",
        "coordinates" : [
          139.71926900000005,
          35.614678000000083
        ]
      },
      "properties" : {
        "OBJECTID" : 138,
        "name" : "株式会社ITMONO",
        "lon" : 139.719269,
        "lat" : 35.614677999999998
      }
    },
    {
      "type" : "Feature",
      "id" : 139,
      "geometry" : {
        "type" : "Point",
        "coordinates" : [
          139.71927700000003,
          35.634373000000039
        ]
      },
      "properties" : {
        "OBJECTID" : 139,
        "name" : "株式会社Fesbase",
        "lon" : 139.71927700000001,
        "lat" : 35.634372999999997
      }
    },
    {
      "type" : "Feature",
      "id" : 140,
      "geometry" : {
        "type" : "Point",
        "coordinates" : [
          139.71934900000008,
          35.619955000000061
        ]
      },
      "properties" : {
        "OBJECTID" : 140,
        "name" : "株式会社空色",
        "lon" : 139.71934899999999,
        "lat" : 35.619954999999997
      }
    },
    {
      "type" : "Feature",
      "id" : 141,
      "geometry" : {
        "type" : "Point",
        "coordinates" : [
          139.71934900000008,
          35.619955000000061
        ]
      },
      "properties" : {
        "OBJECTID" : 141,
        "name" : "スマートソーシャル株式会社",
        "lon" : 139.71934899999999,
        "lat" : 35.619954999999997
      }
    },
    {
      "type" : "Feature",
      "id" : 142,
      "geometry" : {
        "type" : "Point",
        "coordinates" : [
          139.71950400000003,
          35.625920000000065
        ]
      },
      "properties" : {
        "OBJECTID" : 142,
        "name" : "レペリオ株式会社",
        "lon" : 139.719504,
        "lat" : 35.625920000000001
      }
    },
    {
      "type" : "Feature",
      "id" : 143,
      "geometry" : {
        "type" : "Point",
        "coordinates" : [
          139.71950400000003,
          35.625920000000065
        ]
      },
      "properties" : {
        "OBJECTID" : 143,
        "name" : "株式会社JELLYFISH",
        "lon" : 139.719504,
        "lat" : 35.625920000000001
      }
    },
    {
      "type" : "Feature",
      "id" : 144,
      "geometry" : {
        "type" : "Point",
        "coordinates" : [
          139.71950400000003,
          35.625920000000065
        ]
      },
      "properties" : {
        "OBJECTID" : 144,
        "name" : "株式会社TART",
        "lon" : 139.719504,
        "lat" : 35.625920000000001
      }
    },
    {
      "type" : "Feature",
      "id" : 145,
      "geometry" : {
        "type" : "Point",
        "coordinates" : [
          139.71952900000008,
          35.629365000000064
        ]
      },
      "properties" : {
        "OBJECTID" : 145,
        "name" : "フォレストエナジー株式会社",
        "lon" : 139.71952899999999,
        "lat" : 35.629365
      }
    },
    {
      "type" : "Feature",
      "id" : 146,
      "geometry" : {
        "type" : "Point",
        "coordinates" : [
          139.71955500000001,
          35.625478000000044
        ]
      },
      "properties" : {
        "OBJECTID" : 146,
        "name" : "株式会社ホロラボ",
        "lon" : 139.71955500000001,
        "lat" : 35.625478000000001
      }
    },
    {
      "type" : "Feature",
      "id" : 147,
      "geometry" : {
        "type" : "Point",
        "coordinates" : [
          139.71964700000001,
          35.633869000000061
        ]
      },
      "properties" : {
        "OBJECTID" : 147,
        "name" : "株式会社CaSy",
        "lon" : 139.71964700000001,
        "lat" : 35.633868999999997
      }
    },
    {
      "type" : "Feature",
      "id" : 148,
      "geometry" : {
        "type" : "Point",
        "coordinates" : [
          139.71969799999999,
          35.627312000000074
        ]
      },
      "properties" : {
        "OBJECTID" : 148,
        "name" : "幼児活動研究会株式会社",
        "lon" : 139.71969799999999,
        "lat" : 35.627312000000003
      }
    },
    {
      "type" : "Feature",
      "id" : 149,
      "geometry" : {
        "type" : "Point",
        "coordinates" : [
          139.71969799999999,
          35.627312000000074
        ]
      },
      "properties" : {
        "OBJECTID" : 149,
        "name" : "株式会社よりそう",
        "lon" : 139.71969799999999,
        "lat" : 35.627312000000003
      }
    },
    {
      "type" : "Feature",
      "id" : 150,
      "geometry" : {
        "type" : "Point",
        "coordinates" : [
          139.71973800000001,
          35.625403000000063
        ]
      },
      "properties" : {
        "OBJECTID" : 150,
        "name" : "Global Walkers株式会社",
        "lon" : 139.71973800000001,
        "lat" : 35.625402999999999
      }
    },
    {
      "type" : "Feature",
      "id" : 151,
      "geometry" : {
        "type" : "Point",
        "coordinates" : [
          139.71977900000002,
          35.626510000000053
        ]
      },
      "properties" : {
        "OBJECTID" : 151,
        "name" : "株式会社QuantumCore",
        "lon" : 139.71977899999999,
        "lat" : 35.626510000000003
      }
    },
    {
      "type" : "Feature",
      "id" : 152,
      "geometry" : {
        "type" : "Point",
        "coordinates" : [
          139.71980900000005,
          35.62059000000005
        ]
      },
      "properties" : {
        "OBJECTID" : 152,
        "name" : "株式会社ゴルフポット",
        "lon" : 139.719809,
        "lat" : 35.62059
      }
    },
    {
      "type" : "Feature",
      "id" : 153,
      "geometry" : {
        "type" : "Point",
        "coordinates" : [
          139.71984400000008,
          35.627562000000069
        ]
      },
      "properties" : {
        "OBJECTID" : 153,
        "name" : "株式会社flaggs",
        "lon" : 139.71984399999999,
        "lat" : 35.627561999999998
      }
    },
    {
      "type" : "Feature",
      "id" : 154,
      "geometry" : {
        "type" : "Point",
        "coordinates" : [
          139.7198810000001,
          35.616551000000072
        ]
      },
      "properties" : {
        "OBJECTID" : 154,
        "name" : "株式会社イーサンポ・ドット・コム",
        "lon" : 139.71988099999999,
        "lat" : 35.616551000000001
      }
    },
    {
      "type" : "Feature",
      "id" : 155,
      "geometry" : {
        "type" : "Point",
        "coordinates" : [
          139.71988700000009,
          35.622329000000036
        ]
      },
      "properties" : {
        "OBJECTID" : 155,
        "name" : "株式会社LOCKER Games",
        "lon" : 139.719887,
        "lat" : 35.622329000000001
      }
    },
    {
      "type" : "Feature",
      "id" : 156,
      "geometry" : {
        "type" : "Point",
        "coordinates" : [
          139.71988700000009,
          35.622329000000036
        ]
      },
      "properties" : {
        "OBJECTID" : 156,
        "name" : "アズアンドコー株式会社",
        "lon" : 139.719887,
        "lat" : 35.622329000000001
      }
    },
    {
      "type" : "Feature",
      "id" : 157,
      "geometry" : {
        "type" : "Point",
        "coordinates" : [
          139.71988700000009,
          35.622329000000036
        ]
      },
      "properties" : {
        "OBJECTID" : 157,
        "name" : "アイドック株式会社",
        "lon" : 139.719887,
        "lat" : 35.622329000000001
      }
    },
    {
      "type" : "Feature",
      "id" : 158,
      "geometry" : {
        "type" : "Point",
        "coordinates" : [
          139.71994600000005,
          35.622409000000061
        ]
      },
      "properties" : {
        "OBJECTID" : 158,
        "name" : "株式会社グッドフェローズ",
        "lon" : 139.71994599999999,
        "lat" : 35.622408999999998
      }
    },
    {
      "type" : "Feature",
      "id" : 159,
      "geometry" : {
        "type" : "Point",
        "coordinates" : [
          139.71996000000001,
          35.626509000000055
        ]
      },
      "properties" : {
        "OBJECTID" : 159,
        "name" : "株式会社Capichi",
        "lon" : 139.71995999999999,
        "lat" : 35.626508999999999
      }
    },
    {
      "type" : "Feature",
      "id" : 160,
      "geometry" : {
        "type" : "Point",
        "coordinates" : [
          139.71997500000009,
          35.620902000000058
        ]
      },
      "properties" : {
        "OBJECTID" : 160,
        "name" : "クラスター株式会社",
        "lon" : 139.71997500000001,
        "lat" : 35.620902000000001
      }
    },
    {
      "type" : "Feature",
      "id" : 161,
      "geometry" : {
        "type" : "Point",
        "coordinates" : [
          139.71997800000008,
          35.628212000000076
        ]
      },
      "properties" : {
        "OBJECTID" : 161,
        "name" : "株式会社スマートショッピング",
        "lon" : 139.719978,
        "lat" : 35.628211999999998
      }
    },
    {
      "type" : "Feature",
      "id" : 162,
      "geometry" : {
        "type" : "Point",
        "coordinates" : [
          139.71997800000008,
          35.628212000000076
        ]
      },
      "properties" : {
        "OBJECTID" : 162,
        "name" : "株式会社バイオキャリアテクノロジー",
        "lon" : 139.719978,
        "lat" : 35.628211999999998
      }
    },
    {
      "type" : "Feature",
      "id" : 163,
      "geometry" : {
        "type" : "Point",
        "coordinates" : [
          139.72002900000007,
          35.626887000000067
        ]
      },
      "properties" : {
        "OBJECTID" : 163,
        "name" : "株式会社ダイアログ",
        "lon" : 139.72002900000001,
        "lat" : 35.626887000000004
      }
    },
    {
      "type" : "Feature",
      "id" : 164,
      "geometry" : {
        "type" : "Point",
        "coordinates" : [
          139.7201510000001,
          35.625548000000038
        ]
      },
      "properties" : {
        "OBJECTID" : 164,
        "name" : "株式会社キューブシステム",
        "lon" : 139.72015099999999,
        "lat" : 35.625548000000002
      }
    },
    {
      "type" : "Feature",
      "id" : 165,
      "geometry" : {
        "type" : "Point",
        "coordinates" : [
          139.7201510000001,
          35.625548000000038
        ]
      },
      "properties" : {
        "OBJECTID" : 165,
        "name" : "株式会社VASILY",
        "lon" : 139.72015099999999,
        "lat" : 35.625548000000002
      }
    },
    {
      "type" : "Feature",
      "id" : 166,
      "geometry" : {
        "type" : "Point",
        "coordinates" : [
          139.72016400000007,
          35.622838000000058
        ]
      },
      "properties" : {
        "OBJECTID" : 166,
        "name" : "株式会社ヘルスクリック",
        "lon" : 139.72016400000001,
        "lat" : 35.622838000000002
      }
    },
    {
      "type" : "Feature",
      "id" : 167,
      "geometry" : {
        "type" : "Point",
        "coordinates" : [
          139.72022300000003,
          35.62141900000006
        ]
      },
      "properties" : {
        "OBJECTID" : 167,
        "name" : "株式会社unbot",
        "lon" : 139.720223,
        "lat" : 35.621419000000003
      }
    },
    {
      "type" : "Feature",
      "id" : 168,
      "geometry" : {
        "type" : "Point",
        "coordinates" : [
          139.72022300000003,
          35.62141900000006
        ]
      },
      "properties" : {
        "OBJECTID" : 168,
        "name" : "アスニカ株式会社",
        "lon" : 139.720223,
        "lat" : 35.621419000000003
      }
    },
    {
      "type" : "Feature",
      "id" : 169,
      "geometry" : {
        "type" : "Point",
        "coordinates" : [
          139.72025600000006,
          35.623804000000064
        ]
      },
      "properties" : {
        "OBJECTID" : 169,
        "name" : "ファインディ株式会社",
        "lon" : 139.72025600000001,
        "lat" : 35.623804
      }
    },
    {
      "type" : "Feature",
      "id" : 170,
      "geometry" : {
        "type" : "Point",
        "coordinates" : [
          139.72025600000006,
          35.623804000000064
        ]
      },
      "properties" : {
        "OBJECTID" : 170,
        "name" : "株式会社Quark tokyo",
        "lon" : 139.72025600000001,
        "lat" : 35.623804
      }
    },
    {
      "type" : "Feature",
      "id" : 171,
      "geometry" : {
        "type" : "Point",
        "coordinates" : [
          139.720281,
          35.624736000000041
        ]
      },
      "properties" : {
        "OBJECTID" : 171,
        "name" : "株式会社デザインワン・ジャパン",
        "lon" : 139.720281,
        "lat" : 35.624735999999999
      }
    },
    {
      "type" : "Feature",
      "id" : 172,
      "geometry" : {
        "type" : "Point",
        "coordinates" : [
          139.72039600000005,
          35.631902000000082
        ]
      },
      "properties" : {
        "OBJECTID" : 172,
        "name" : "株式会社ネットネイティブ",
        "lon" : 139.72039599999999,
        "lat" : 35.631901999999997
      }
    },
    {
      "type" : "Feature",
      "id" : 173,
      "geometry" : {
        "type" : "Point",
        "coordinates" : [
          139.72041200000001,
          35.623371000000077
        ]
      },
      "properties" : {
        "OBJECTID" : 173,
        "name" : "株式会社ソニックス",
        "lon" : 139.72041200000001,
        "lat" : 35.623370999999999
      }
    },
    {
      "type" : "Feature",
      "id" : 174,
      "geometry" : {
        "type" : "Point",
        "coordinates" : [
          139.72057900000004,
          35.623741000000052
        ]
      },
      "properties" : {
        "OBJECTID" : 174,
        "name" : "株式会社識学",
        "lon" : 139.72057899999999,
        "lat" : 35.623741000000003
      }
    },
    {
      "type" : "Feature",
      "id" : 175,
      "geometry" : {
        "type" : "Point",
        "coordinates" : [
          139.72057900000004,
          35.623741000000052
        ]
      },
      "properties" : {
        "OBJECTID" : 175,
        "name" : "株式会社T4C",
        "lon" : 139.72057899999999,
        "lat" : 35.623741000000003
      }
    },
    {
      "type" : "Feature",
      "id" : 176,
      "geometry" : {
        "type" : "Point",
        "coordinates" : [
          139.72060700000009,
          35.62434200000007
        ]
      },
      "properties" : {
        "OBJECTID" : 176,
        "name" : "HiCustomer株式会社",
        "lon" : 139.720607,
        "lat" : 35.624341999999999
      }
    },
    {
      "type" : "Feature",
      "id" : 177,
      "geometry" : {
        "type" : "Point",
        "coordinates" : [
          139.72069700000009,
          35.622612000000061
        ]
      },
      "properties" : {
        "OBJECTID" : 177,
        "name" : "株式会社ビート",
        "lon" : 139.720697,
        "lat" : 35.622611999999997
      }
    },
    {
      "type" : "Feature",
      "id" : 178,
      "geometry" : {
        "type" : "Point",
        "coordinates" : [
          139.72069700000009,
          35.622612000000061
        ]
      },
      "properties" : {
        "OBJECTID" : 178,
        "name" : "株式会社NextNinja",
        "lon" : 139.720697,
        "lat" : 35.622611999999997
      }
    },
    {
      "type" : "Feature",
      "id" : 179,
      "geometry" : {
        "type" : "Point",
        "coordinates" : [
          139.72078400000009,
          35.624386000000072
        ]
      },
      "properties" : {
        "OBJECTID" : 179,
        "name" : "株式会社メディパス",
        "lon" : 139.72078400000001,
        "lat" : 35.624386000000001
      }
    },
    {
      "type" : "Feature",
      "id" : 180,
      "geometry" : {
        "type" : "Point",
        "coordinates" : [
          139.72079500000007,
          35.622920000000079
        ]
      },
      "properties" : {
        "OBJECTID" : 180,
        "name" : "InterRace株式会社",
        "lon" : 139.72079500000001,
        "lat" : 35.622920000000001
      }
    },
    {
      "type" : "Feature",
      "id" : 181,
      "geometry" : {
        "type" : "Point",
        "coordinates" : [
          139.72079500000007,
          35.622920000000079
        ]
      },
      "properties" : {
        "OBJECTID" : 181,
        "name" : "Klamp株式会社",
        "lon" : 139.72079500000001,
        "lat" : 35.622920000000001
      }
    },
    {
      "type" : "Feature",
      "id" : 182,
      "geometry" : {
        "type" : "Point",
        "coordinates" : [
          139.72088100000008,
          35.627134000000069
        ]
      },
      "properties" : {
        "OBJECTID" : 182,
        "name" : "株式会社ビースリー",
        "lon" : 139.72088099999999,
        "lat" : 35.627133999999998
      }
    },
    {
      "type" : "Feature",
      "id" : 183,
      "geometry" : {
        "type" : "Point",
        "coordinates" : [
          139.72088100000008,
          35.627134000000069
        ]
      },
      "properties" : {
        "OBJECTID" : 183,
        "name" : "ミドルマン株式会社",
        "lon" : 139.72088099999999,
        "lat" : 35.627133999999998
      }
    },
    {
      "type" : "Feature",
      "id" : 184,
      "geometry" : {
        "type" : "Point",
        "coordinates" : [
          139.7209150000001,
          35.624587000000076
        ]
      },
      "properties" : {
        "OBJECTID" : 184,
        "name" : "ブティックス株式会社",
        "lon" : 139.72091499999999,
        "lat" : 35.624586999999998
      }
    },
    {
      "type" : "Feature",
      "id" : 185,
      "geometry" : {
        "type" : "Point",
        "coordinates" : [
          139.7209150000001,
          35.624587000000076
        ]
      },
      "properties" : {
        "OBJECTID" : 185,
        "name" : "株式会社DYM",
        "lon" : 139.72091499999999,
        "lat" : 35.624586999999998
      }
    },
    {
      "type" : "Feature",
      "id" : 186,
      "geometry" : {
        "type" : "Point",
        "coordinates" : [
          139.72092100000009,
          35.624944000000085
        ]
      },
      "properties" : {
        "OBJECTID" : 186,
        "name" : "株式会社ディー･オー･エム",
        "lon" : 139.720921,
        "lat" : 35.624943999999999
      }
    },
    {
      "type" : "Feature",
      "id" : 187,
      "geometry" : {
        "type" : "Point",
        "coordinates" : [
          139.72092100000009,
          35.624944000000085
        ]
      },
      "properties" : {
        "OBJECTID" : 187,
        "name" : "テクノアルファ株式会社",
        "lon" : 139.720921,
        "lat" : 35.624943999999999
      }
    },
    {
      "type" : "Feature",
      "id" : 188,
      "geometry" : {
        "type" : "Point",
        "coordinates" : [
          139.72094700000002,
          35.624543000000074
        ]
      },
      "properties" : {
        "OBJECTID" : 188,
        "name" : "APAMAN株式会社",
        "lon" : 139.720947,
        "lat" : 35.624543000000003
      }
    },
    {
      "type" : "Feature",
      "id" : 189,
      "geometry" : {
        "type" : "Point",
        "coordinates" : [
          139.7210520000001,
          35.62295000000006
        ]
      },
      "properties" : {
        "OBJECTID" : 189,
        "name" : "株式会社Asobica",
        "lon" : 139.72105199999999,
        "lat" : 35.622950000000003
      }
    },
    {
      "type" : "Feature",
      "id" : 190,
      "geometry" : {
        "type" : "Point",
        "coordinates" : [
          139.7210530000001,
          35.629908000000057
        ]
      },
      "properties" : {
        "OBJECTID" : 190,
        "name" : "株式会社prd",
        "lon" : 139.72105300000001,
        "lat" : 35.629908
      }
    },
    {
      "type" : "Feature",
      "id" : 191,
      "geometry" : {
        "type" : "Point",
        "coordinates" : [
          139.7210530000001,
          35.629908000000057
        ]
      },
      "properties" : {
        "OBJECTID" : 191,
        "name" : "PSYGIG株式会社",
        "lon" : 139.72105300000001,
        "lat" : 35.629908
      }
    },
    {
      "type" : "Feature",
      "id" : 192,
      "geometry" : {
        "type" : "Point",
        "coordinates" : [
          139.72106800000006,
          35.625856000000056
        ]
      },
      "properties" : {
        "OBJECTID" : 192,
        "name" : "株式会社中川研究所",
        "lon" : 139.721068,
        "lat" : 35.625855999999999
      }
    },
    {
      "type" : "Feature",
      "id" : 193,
      "geometry" : {
        "type" : "Point",
        "coordinates" : [
          139.72106800000006,
          35.625856000000056
        ]
      },
      "properties" : {
        "OBJECTID" : 193,
        "name" : "株式会社ブルースカイマーケティング",
        "lon" : 139.721068,
        "lat" : 35.625855999999999
      }
    },
    {
      "type" : "Feature",
      "id" : 194,
      "geometry" : {
        "type" : "Point",
        "coordinates" : [
          139.72109399999999,
          35.627174000000082
        ]
      },
      "properties" : {
        "OBJECTID" : 194,
        "name" : "KISEKI ME株式会社",
        "lon" : 139.72109399999999,
        "lat" : 35.627173999999997
      }
    },
    {
      "type" : "Feature",
      "id" : 195,
      "geometry" : {
        "type" : "Point",
        "coordinates" : [
          139.72111100000006,
          35.623386000000039
        ]
      },
      "properties" : {
        "OBJECTID" : 195,
        "name" : "株式会社クロノス",
        "lon" : 139.72111100000001,
        "lat" : 35.623386000000004
      }
    },
    {
      "type" : "Feature",
      "id" : 196,
      "geometry" : {
        "type" : "Point",
        "coordinates" : [
          139.72114600000009,
          35.627418000000034
        ]
      },
      "properties" : {
        "OBJECTID" : 196,
        "name" : "セレクチュアー株式会社",
        "lon" : 139.721146,
        "lat" : 35.627417999999999
      }
    },
    {
      "type" : "Feature",
      "id" : 197,
      "geometry" : {
        "type" : "Point",
        "coordinates" : [
          139.72120100000006,
          35.625074000000041
        ]
      },
      "properties" : {
        "OBJECTID" : 197,
        "name" : "トヨクモ株式会社",
        "lon" : 139.72120100000001,
        "lat" : 35.625073999999998
      }
    },
    {
      "type" : "Feature",
      "id" : 198,
      "geometry" : {
        "type" : "Point",
        "coordinates" : [
          139.72120100000006,
          35.625074000000041
        ]
      },
      "properties" : {
        "OBJECTID" : 198,
        "name" : "ジェネクサス・ジャパン株式会社",
        "lon" : 139.72120100000001,
        "lat" : 35.625073999999998
      }
    },
    {
      "type" : "Feature",
      "id" : 199,
      "geometry" : {
        "type" : "Point",
        "coordinates" : [
          139.72120100000006,
          35.625074000000041
        ]
      },
      "properties" : {
        "OBJECTID" : 199,
        "name" : "エミック株式会社",
        "lon" : 139.72120100000001,
        "lat" : 35.625073999999998
      }
    },
    {
      "type" : "Feature",
      "id" : 200,
      "geometry" : {
        "type" : "Point",
        "coordinates" : [
          139.72121500000003,
          35.627685000000042
        ]
      },
      "properties" : {
        "OBJECTID" : 200,
        "name" : "株式会社ポーラ・オルビスホールディングス",
        "lon" : 139.721215,
        "lat" : 35.627685
      }
    },
    {
      "type" : "Feature",
      "id" : 201,
      "geometry" : {
        "type" : "Point",
        "coordinates" : [
          139.72124100000008,
          35.623165000000085
        ]
      },
      "properties" : {
        "OBJECTID" : 201,
        "name" : "株式会社BEAMING",
        "lon" : 139.72124099999999,
        "lat" : 35.623165
      }
    },
    {
      "type" : "Feature",
      "id" : 202,
      "geometry" : {
        "type" : "Point",
        "coordinates" : [
          139.72126700000001,
          35.62952000000007
        ]
      },
      "properties" : {
        "OBJECTID" : 202,
        "name" : "株式会社Rabbit",
        "lon" : 139.72126700000001,
        "lat" : 35.629519999999999
      }
    },
    {
      "type" : "Feature",
      "id" : 203,
      "geometry" : {
        "type" : "Point",
        "coordinates" : [
          139.72132700000009,
          35.626497000000086
        ]
      },
      "properties" : {
        "OBJECTID" : 203,
        "name" : "タッチスポット株式会社",
        "lon" : 139.721327,
        "lat" : 35.626497000000001
      }
    },
    {
      "type" : "Feature",
      "id" : 204,
      "geometry" : {
        "type" : "Point",
        "coordinates" : [
          139.72160200000008,
          35.626834000000088
        ]
      },
      "properties" : {
        "OBJECTID" : 204,
        "name" : "freee株式会社",
        "lon" : 139.72160199999999,
        "lat" : 35.626834000000002
      }
    },
    {
      "type" : "Feature",
      "id" : 205,
      "geometry" : {
        "type" : "Point",
        "coordinates" : [
          139.72160200000008,
          35.626834000000088
        ]
      },
      "properties" : {
        "OBJECTID" : 205,
        "name" : "サイトサポート・インスティテュート株式会社",
        "lon" : 139.72160199999999,
        "lat" : 35.626834000000002
      }
    },
    {
      "type" : "Feature",
      "id" : 206,
      "geometry" : {
        "type" : "Point",
        "coordinates" : [
          139.72160200000008,
          35.626834000000088
        ]
      },
      "properties" : {
        "OBJECTID" : 206,
        "name" : "freee finance lab株式会社",
        "lon" : 139.72160199999999,
        "lat" : 35.626834000000002
      }
    },
    {
      "type" : "Feature",
      "id" : 207,
      "geometry" : {
        "type" : "Point",
        "coordinates" : [
          139.72160200000008,
          35.626834000000088
        ]
      },
      "properties" : {
        "OBJECTID" : 207,
        "name" : "株式会社キャンサースキャン",
        "lon" : 139.72160199999999,
        "lat" : 35.626834000000002
      }
    },
    {
      "type" : "Feature",
      "id" : 208,
      "geometry" : {
        "type" : "Point",
        "coordinates" : [
          139.72161700000004,
          35.630995000000041
        ]
      },
      "properties" : {
        "OBJECTID" : 208,
        "name" : "株式会社ブレインパッド",
        "lon" : 139.72161700000001,
        "lat" : 35.630994999999999
      }
    },
    {
      "type" : "Feature",
      "id" : 209,
      "geometry" : {
        "type" : "Point",
        "coordinates" : [
          139.72161900000003,
          35.624184000000071
        ]
      },
      "properties" : {
        "OBJECTID" : 209,
        "name" : "HeaR株式会社",
        "lon" : 139.721619,
        "lat" : 35.624184
      }
    },
    {
      "type" : "Feature",
      "id" : 210,
      "geometry" : {
        "type" : "Point",
        "coordinates" : [
          139.7216370000001,
          35.626218000000051
        ]
      },
      "properties" : {
        "OBJECTID" : 210,
        "name" : "株式会社LeanGo",
        "lon" : 139.72163699999999,
        "lat" : 35.626218000000001
      }
    },
    {
      "type" : "Feature",
      "id" : 211,
      "geometry" : {
        "type" : "Point",
        "coordinates" : [
          139.7216370000001,
          35.626218000000051
        ]
      },
      "properties" : {
        "OBJECTID" : 211,
        "name" : "株式会社Pathee",
        "lon" : 139.72163699999999,
        "lat" : 35.626218000000001
      }
    },
    {
      "type" : "Feature",
      "id" : 212,
      "geometry" : {
        "type" : "Point",
        "coordinates" : [
          139.72169600000007,
          35.611521000000039
        ]
      },
      "properties" : {
        "OBJECTID" : 212,
        "name" : "キャリアライン株式会社",
        "lon" : 139.72169600000001,
        "lat" : 35.611521000000003
      }
    },
    {
      "type" : "Feature",
      "id" : 213,
      "geometry" : {
        "type" : "Point",
        "coordinates" : [
          139.72171300000002,
          35.618766000000051
        ]
      },
      "properties" : {
        "OBJECTID" : 213,
        "name" : "ミチシルベ株式会社",
        "lon" : 139.72171299999999,
        "lat" : 35.618766000000001
      }
    },
    {
      "type" : "Feature",
      "id" : 214,
      "geometry" : {
        "type" : "Point",
        "coordinates" : [
          139.7217710000001,
          35.628340000000037
        ]
      },
      "properties" : {
        "OBJECTID" : 214,
        "name" : "シールドバリュー株式会社",
        "lon" : 139.72177099999999,
        "lat" : 35.628340000000001
      }
    },
    {
      "type" : "Feature",
      "id" : 215,
      "geometry" : {
        "type" : "Point",
        "coordinates" : [
          139.7217710000001,
          35.628340000000037
        ]
      },
      "properties" : {
        "OBJECTID" : 215,
        "name" : "株式会社クリスク",
        "lon" : 139.72177099999999,
        "lat" : 35.628340000000001
      }
    },
    {
      "type" : "Feature",
      "id" : 216,
      "geometry" : {
        "type" : "Point",
        "coordinates" : [
          139.7217710000001,
          35.628340000000037
        ]
      },
      "properties" : {
        "OBJECTID" : 216,
        "name" : "ElectSheep株式会社",
        "lon" : 139.72177099999999,
        "lat" : 35.628340000000001
      }
    },
    {
      "type" : "Feature",
      "id" : 217,
      "geometry" : {
        "type" : "Point",
        "coordinates" : [
          139.7217710000001,
          35.628340000000037
        ]
      },
      "properties" : {
        "OBJECTID" : 217,
        "name" : "株式会社ジーンクエスト",
        "lon" : 139.72177099999999,
        "lat" : 35.628340000000001
      }
    },
    {
      "type" : "Feature",
      "id" : 218,
      "geometry" : {
        "type" : "Point",
        "coordinates" : [
          139.7217710000001,
          35.628340000000037
        ]
      },
      "properties" : {
        "OBJECTID" : 218,
        "name" : "株式会社職人さんドットコム",
        "lon" : 139.72177099999999,
        "lat" : 35.628340000000001
      }
    },
    {
      "type" : "Feature",
      "id" : 219,
      "geometry" : {
        "type" : "Point",
        "coordinates" : [
          139.7217710000001,
          35.628340000000037
        ]
      },
      "properties" : {
        "OBJECTID" : 219,
        "name" : "ディープインサイト株式会社",
        "lon" : 139.72177099999999,
        "lat" : 35.628340000000001
      }
    },
    {
      "type" : "Feature",
      "id" : 220,
      "geometry" : {
        "type" : "Point",
        "coordinates" : [
          139.7217710000001,
          35.628340000000037
        ]
      },
      "properties" : {
        "OBJECTID" : 220,
        "name" : "株式会社カンブリアン・プロジェクト",
        "lon" : 139.72177099999999,
        "lat" : 35.628340000000001
      }
    },
    {
      "type" : "Feature",
      "id" : 221,
      "geometry" : {
        "type" : "Point",
        "coordinates" : [
          139.7217710000001,
          35.628340000000037
        ]
      },
      "properties" : {
        "OBJECTID" : 221,
        "name" : "株式会社モフィリア",
        "lon" : 139.72177099999999,
        "lat" : 35.628340000000001
      }
    },
    {
      "type" : "Feature",
      "id" : 222,
      "geometry" : {
        "type" : "Point",
        "coordinates" : [
          139.7217710000001,
          35.628340000000037
        ]
      },
      "properties" : {
        "OBJECTID" : 222,
        "name" : "VANANAZ SYSTEMS Inc.",
        "lon" : 139.72177099999999,
        "lat" : 35.628340000000001
      }
    },
    {
      "type" : "Feature",
      "id" : 223,
      "geometry" : {
        "type" : "Point",
        "coordinates" : [
          139.72183800000005,
          35.601001000000053
        ]
      },
      "properties" : {
        "OBJECTID" : 223,
        "name" : "ミライアプリ株式会社",
        "lon" : 139.72183799999999,
        "lat" : 35.601000999999997
      }
    },
    {
      "type" : "Feature",
      "id" : 224,
      "geometry" : {
        "type" : "Point",
        "coordinates" : [
          139.721903,
          35.626292000000035
        ]
      },
      "properties" : {
        "OBJECTID" : 224,
        "name" : "株式会社グロウ・ムービージャパン",
        "lon" : 139.721903,
        "lat" : 35.626291999999999
      }
    },
    {
      "type" : "Feature",
      "id" : 225,
      "geometry" : {
        "type" : "Point",
        "coordinates" : [
          139.72191800000007,
          35.624809000000084
        ]
      },
      "properties" : {
        "OBJECTID" : 225,
        "name" : "株式会社ジモティー",
        "lon" : 139.72191799999999,
        "lat" : 35.624808999999999
      }
    },
    {
      "type" : "Feature",
      "id" : 226,
      "geometry" : {
        "type" : "Point",
        "coordinates" : [
          139.72196200000008,
          35.627238000000034
        ]
      },
      "properties" : {
        "OBJECTID" : 226,
        "name" : "株式会社スマートエデュケーション",
        "lon" : 139.72196199999999,
        "lat" : 35.627237999999998
      }
    },
    {
      "type" : "Feature",
      "id" : 227,
      "geometry" : {
        "type" : "Point",
        "coordinates" : [
          139.72196200000008,
          35.627238000000034
        ]
      },
      "properties" : {
        "OBJECTID" : 227,
        "name" : "株式会社アルト",
        "lon" : 139.72196199999999,
        "lat" : 35.627237999999998
      }
    },
    {
      "type" : "Feature",
      "id" : 228,
      "geometry" : {
        "type" : "Point",
        "coordinates" : [
          139.72197000000006,
          35.601217000000076
        ]
      },
      "properties" : {
        "OBJECTID" : 228,
        "name" : "XCIDIA, Inc.",
        "lon" : 139.72197,
        "lat" : 35.601216999999998
      }
    },
    {
      "type" : "Feature",
      "id" : 229,
      "geometry" : {
        "type" : "Point",
        "coordinates" : [
          139.72197000000006,
          35.601217000000076
        ]
      },
      "properties" : {
        "OBJECTID" : 229,
        "name" : "株式会社ミラクス",
        "lon" : 139.72197,
        "lat" : 35.601216999999998
      }
    },
    {
      "type" : "Feature",
      "id" : 230,
      "geometry" : {
        "type" : "Point",
        "coordinates" : [
          139.72205100000008,
          35.628613000000087
        ]
      },
      "properties" : {
        "OBJECTID" : 230,
        "name" : "株式会社Ales",
        "lon" : 139.72205099999999,
        "lat" : 35.628613000000001
      }
    },
    {
      "type" : "Feature",
      "id" : 231,
      "geometry" : {
        "type" : "Point",
        "coordinates" : [
          139.72205100000008,
          35.628613000000087
        ]
      },
      "properties" : {
        "OBJECTID" : 231,
        "name" : "株式会社バイオフィリア",
        "lon" : 139.72205099999999,
        "lat" : 35.628613000000001
      }
    },
    {
      "type" : "Feature",
      "id" : 232,
      "geometry" : {
        "type" : "Point",
        "coordinates" : [
          139.72209800000007,
          35.62615100000005
        ]
      },
      "properties" : {
        "OBJECTID" : 232,
        "name" : "株式会社ビーブレイクシステムズ",
        "lon" : 139.72209799999999,
        "lat" : 35.626151
      }
    },
    {
      "type" : "Feature",
      "id" : 233,
      "geometry" : {
        "type" : "Point",
        "coordinates" : [
          139.72222500000009,
          35.62364000000008
        ]
      },
      "properties" : {
        "OBJECTID" : 233,
        "name" : "株式会社アグリゲート",
        "lon" : 139.72222500000001,
        "lat" : 35.623640000000002
      }
    },
    {
      "type" : "Feature",
      "id" : 234,
      "geometry" : {
        "type" : "Point",
        "coordinates" : [
          139.722263,
          35.626700000000085
        ]
      },
      "properties" : {
        "OBJECTID" : 234,
        "name" : "株式会社ビヨンドメディア",
        "lon" : 139.722263,
        "lat" : 35.6267
      }
    },
    {
      "type" : "Feature",
      "id" : 235,
      "geometry" : {
        "type" : "Point",
        "coordinates" : [
          139.72230500000001,
          35.628062000000057
        ]
      },
      "properties" : {
        "OBJECTID" : 235,
        "name" : "株式会社フレイ・スリー",
        "lon" : 139.72230500000001,
        "lat" : 35.628062
      }
    },
    {
      "type" : "Feature",
      "id" : 236,
      "geometry" : {
        "type" : "Point",
        "coordinates" : [
          139.72230500000001,
          35.628062000000057
        ]
      },
      "properties" : {
        "OBJECTID" : 236,
        "name" : "株式会社バーニャカウダ",
        "lon" : 139.72230500000001,
        "lat" : 35.628062
      }
    },
    {
      "type" : "Feature",
      "id" : 237,
      "geometry" : {
        "type" : "Point",
        "coordinates" : [
          139.72238800000002,
          35.625518000000056
        ]
      },
      "properties" : {
        "OBJECTID" : 237,
        "name" : "株式会社けあらぶ",
        "lon" : 139.722388,
        "lat" : 35.625518
      }
    },
    {
      "type" : "Feature",
      "id" : 238,
      "geometry" : {
        "type" : "Point",
        "coordinates" : [
          139.72238800000002,
          35.625518000000056
        ]
      },
      "properties" : {
        "OBJECTID" : 238,
        "name" : "株式会社Kids Smile Holdings",
        "lon" : 139.722388,
        "lat" : 35.625518
      }
    },
    {
      "type" : "Feature",
      "id" : 239,
      "geometry" : {
        "type" : "Point",
        "coordinates" : [
          139.72238800000002,
          35.625518000000056
        ]
      },
      "properties" : {
        "OBJECTID" : 239,
        "name" : "株式会社iVOICE",
        "lon" : 139.722388,
        "lat" : 35.625518
      }
    },
    {
      "type" : "Feature",
      "id" : 240,
      "geometry" : {
        "type" : "Point",
        "coordinates" : [
          139.72239300000001,
          35.622874000000081
        ]
      },
      "properties" : {
        "OBJECTID" : 240,
        "name" : "株式会社キビテク",
        "lon" : 139.72239300000001,
        "lat" : 35.622874000000003
      }
    },
    {
      "type" : "Feature",
      "id" : 241,
      "geometry" : {
        "type" : "Point",
        "coordinates" : [
          139.72240600000009,
          35.62396700000005
        ]
      },
      "properties" : {
        "OBJECTID" : 241,
        "name" : "株式会社サインド",
        "lon" : 139.72240600000001,
        "lat" : 35.623967
      }
    },
    {
      "type" : "Feature",
      "id" : 242,
      "geometry" : {
        "type" : "Point",
        "coordinates" : [
          139.72240600000009,
          35.62396700000005
        ]
      },
      "properties" : {
        "OBJECTID" : 242,
        "name" : "Wonderwall株式会社",
        "lon" : 139.72240600000001,
        "lat" : 35.623967
      }
    },
    {
      "type" : "Feature",
      "id" : 243,
      "geometry" : {
        "type" : "Point",
        "coordinates" : [
          139.72240600000009,
          35.62396700000005
        ]
      },
      "properties" : {
        "OBJECTID" : 243,
        "name" : "リンパ球バンク株式会社",
        "lon" : 139.72240600000001,
        "lat" : 35.623967
      }
    },
    {
      "type" : "Feature",
      "id" : 244,
      "geometry" : {
        "type" : "Point",
        "coordinates" : [
          139.72251700000004,
          35.622784000000081
        ]
      },
      "properties" : {
        "OBJECTID" : 244,
        "name" : "株式会社Basset",
        "lon" : 139.72251700000001,
        "lat" : 35.622784000000003
      }
    },
    {
      "type" : "Feature",
      "id" : 245,
      "geometry" : {
        "type" : "Point",
        "coordinates" : [
          139.72254800000007,
          35.624304000000052
        ]
      },
      "properties" : {
        "OBJECTID" : 245,
        "name" : "株式会社レジデンツ",
        "lon" : 139.72254799999999,
        "lat" : 35.624304000000002
      }
    },
    {
      "type" : "Feature",
      "id" : 246,
      "geometry" : {
        "type" : "Point",
        "coordinates" : [
          139.72254800000007,
          35.624304000000052
        ]
      },
      "properties" : {
        "OBJECTID" : 246,
        "name" : "株式会社Craftie",
        "lon" : 139.72254799999999,
        "lat" : 35.624304000000002
      }
    },
    {
      "type" : "Feature",
      "id" : 247,
      "geometry" : {
        "type" : "Point",
        "coordinates" : [
          139.72254800000007,
          35.624304000000052
        ]
      },
      "properties" : {
        "OBJECTID" : 247,
        "name" : "FUNFAM株式会社",
        "lon" : 139.72254799999999,
        "lat" : 35.624304000000002
      }
    },
    {
      "type" : "Feature",
      "id" : 248,
      "geometry" : {
        "type" : "Point",
        "coordinates" : [
          139.72270500000002,
          35.622176000000081
        ]
      },
      "properties" : {
        "OBJECTID" : 248,
        "name" : "株式会社Galution",
        "lon" : 139.72270499999999,
        "lat" : 35.622176000000003
      }
    },
    {
      "type" : "Feature",
      "id" : 249,
      "geometry" : {
        "type" : "Point",
        "coordinates" : [
          139.72270500000002,
          35.622176000000081
        ]
      },
      "properties" : {
        "OBJECTID" : 249,
        "name" : "株式会社Hacksii",
        "lon" : 139.72270499999999,
        "lat" : 35.622176000000003
      }
    },
    {
      "type" : "Feature",
      "id" : 250,
      "geometry" : {
        "type" : "Point",
        "coordinates" : [
          139.72275500000001,
          35.623709000000076
        ]
      },
      "properties" : {
        "OBJECTID" : 250,
        "name" : "株式会社オンライフ",
        "lon" : 139.72275500000001,
        "lat" : 35.623708999999998
      }
    },
    {
      "type" : "Feature",
      "id" : 251,
      "geometry" : {
        "type" : "Point",
        "coordinates" : [
          139.72281200000009,
          35.623280000000079
        ]
      },
      "properties" : {
        "OBJECTID" : 251,
        "name" : "QNARY JAPAN株式会社",
        "lon" : 139.722812,
        "lat" : 35.623280000000001
      }
    },
    {
      "type" : "Feature",
      "id" : 252,
      "geometry" : {
        "type" : "Point",
        "coordinates" : [
          139.72286900000006,
          35.622558000000083
        ]
      },
      "properties" : {
        "OBJECTID" : 252,
        "name" : "株式会社グーフ",
        "lon" : 139.722869,
        "lat" : 35.622557999999998
      }
    },
    {
      "type" : "Feature",
      "id" : 253,
      "geometry" : {
        "type" : "Point",
        "coordinates" : [
          139.72290300000009,
          35.627835000000061
        ]
      },
      "properties" : {
        "OBJECTID" : 253,
        "name" : "株式会社グリムス",
        "lon" : 139.722903,
        "lat" : 35.627834999999997
      }
    },
    {
      "type" : "Feature",
      "id" : 254,
      "geometry" : {
        "type" : "Point",
        "coordinates" : [
          139.723029,
          35.623500000000035
        ]
      },
      "properties" : {
        "OBJECTID" : 254,
        "name" : "株式会社カンバン娘",
        "lon" : 139.723029,
        "lat" : 35.6235
      }
    },
    {
      "type" : "Feature",
      "id" : 255,
      "geometry" : {
        "type" : "Point",
        "coordinates" : [
          139.723029,
          35.623500000000035
        ]
      },
      "properties" : {
        "OBJECTID" : 255,
        "name" : "株式会社アリカ",
        "lon" : 139.723029,
        "lat" : 35.6235
      }
    },
    {
      "type" : "Feature",
      "id" : 256,
      "geometry" : {
        "type" : "Point",
        "coordinates" : [
          139.723029,
          35.623500000000035
        ]
      },
      "properties" : {
        "OBJECTID" : 256,
        "name" : "株式会社センティリオンシステム",
        "lon" : 139.723029,
        "lat" : 35.6235
      }
    },
    {
      "type" : "Feature",
      "id" : 257,
      "geometry" : {
        "type" : "Point",
        "coordinates" : [
          139.72306500000002,
          35.62532200000004
        ]
      },
      "properties" : {
        "OBJECTID" : 257,
        "name" : "株式会社カケコム",
        "lon" : 139.72306499999999,
        "lat" : 35.625321999999997
      }
    },
    {
      "type" : "Feature",
      "id" : 258,
      "geometry" : {
        "type" : "Point",
        "coordinates" : [
          139.72310500000003,
          35.625871000000075
        ]
      },
      "properties" : {
        "OBJECTID" : 258,
        "name" : "株式会社マルチブック",
        "lon" : 139.723105,
        "lat" : 35.625870999999997
      }
    },
    {
      "type" : "Feature",
      "id" : 259,
      "geometry" : {
        "type" : "Point",
        "coordinates" : [
          139.72310500000003,
          35.625871000000075
        ]
      },
      "properties" : {
        "OBJECTID" : 259,
        "name" : "タノシム株式会社",
        "lon" : 139.723105,
        "lat" : 35.625870999999997
      }
    },
    {
      "type" : "Feature",
      "id" : 260,
      "geometry" : {
        "type" : "Point",
        "coordinates" : [
          139.72310500000003,
          35.625871000000075
        ]
      },
      "properties" : {
        "OBJECTID" : 260,
        "name" : "株式会社レッジ",
        "lon" : 139.723105,
        "lat" : 35.625870999999997
      }
    },
    {
      "type" : "Feature",
      "id" : 261,
      "geometry" : {
        "type" : "Point",
        "coordinates" : [
          139.72310500000003,
          35.625871000000075
        ]
      },
      "properties" : {
        "OBJECTID" : 261,
        "name" : "株式会社ビットエー",
        "lon" : 139.723105,
        "lat" : 35.625870999999997
      }
    },
    {
      "type" : "Feature",
      "id" : 262,
      "geometry" : {
        "type" : "Point",
        "coordinates" : [
          139.72323700000004,
          35.627225000000067
        ]
      },
      "properties" : {
        "OBJECTID" : 262,
        "name" : "株式会社Cluex",
        "lon" : 139.72323700000001,
        "lat" : 35.627225000000003
      }
    },
    {
      "type" : "Feature",
      "id" : 263,
      "geometry" : {
        "type" : "Point",
        "coordinates" : [
          139.72331300000008,
          35.629846000000043
        ]
      },
      "properties" : {
        "OBJECTID" : 263,
        "name" : "株式会社ホールエナジー",
        "lon" : 139.72331299999999,
        "lat" : 35.629846000000001
      }
    },
    {
      "type" : "Feature",
      "id" : 264,
      "geometry" : {
        "type" : "Point",
        "coordinates" : [
          139.72331300000008,
          35.629846000000043
        ]
      },
      "properties" : {
        "OBJECTID" : 264,
        "name" : "株式会社クリーンエナジーコネクト",
        "lon" : 139.72331299999999,
        "lat" : 35.629846000000001
      }
    },
    {
      "type" : "Feature",
      "id" : 265,
      "geometry" : {
        "type" : "Point",
        "coordinates" : [
          139.72331500000007,
          35.635451000000046
        ]
      },
      "properties" : {
        "OBJECTID" : 265,
        "name" : "株式会社BCCKS",
        "lon" : 139.72331500000001,
        "lat" : 35.635451000000003
      }
    },
    {
      "type" : "Feature",
      "id" : 266,
      "geometry" : {
        "type" : "Point",
        "coordinates" : [
          139.723386,
          35.625651000000062
        ]
      },
      "properties" : {
        "OBJECTID" : 266,
        "name" : "セーフィー株式会社",
        "lon" : 139.723386,
        "lat" : 35.625650999999998
      }
    },
    {
      "type" : "Feature",
      "id" : 267,
      "geometry" : {
        "type" : "Point",
        "coordinates" : [
          139.723386,
          35.625651000000062
        ]
      },
      "properties" : {
        "OBJECTID" : 267,
        "name" : "株式会社ロンバード",
        "lon" : 139.723386,
        "lat" : 35.625650999999998
      }
    },
    {
      "type" : "Feature",
      "id" : 268,
      "geometry" : {
        "type" : "Point",
        "coordinates" : [
          139.72339800000009,
          35.627049000000056
        ]
      },
      "properties" : {
        "OBJECTID" : 268,
        "name" : "株式会社スプリューム",
        "lon" : 139.723398,
        "lat" : 35.627049
      }
    },
    {
      "type" : "Feature",
      "id" : 269,
      "geometry" : {
        "type" : "Point",
        "coordinates" : [
          139.72340000000008,
          35.623014000000069
        ]
      },
      "properties" : {
        "OBJECTID" : 269,
        "name" : "アディッシュ株式会社",
        "lon" : 139.7234,
        "lat" : 35.623013999999998
      }
    },
    {
      "type" : "Feature",
      "id" : 270,
      "geometry" : {
        "type" : "Point",
        "coordinates" : [
          139.72340000000008,
          35.623014000000069
        ]
      },
      "properties" : {
        "OBJECTID" : 270,
        "name" : "株式会社オンザボード",
        "lon" : 139.7234,
        "lat" : 35.623013999999998
      }
    },
    {
      "type" : "Feature",
      "id" : 271,
      "geometry" : {
        "type" : "Point",
        "coordinates" : [
          139.72340000000008,
          35.623014000000069
        ]
      },
      "properties" : {
        "OBJECTID" : 271,
        "name" : "株式会社ここおる",
        "lon" : 139.7234,
        "lat" : 35.623013999999998
      }
    },
    {
      "type" : "Feature",
      "id" : 272,
      "geometry" : {
        "type" : "Point",
        "coordinates" : [
          139.72350800000004,
          35.62448900000004
        ]
      },
      "properties" : {
        "OBJECTID" : 272,
        "name" : "株式会社スマートソフトウェア",
        "lon" : 139.72350800000001,
        "lat" : 35.624488999999997
      }
    },
    {
      "type" : "Feature",
      "id" : 273,
      "geometry" : {
        "type" : "Point",
        "coordinates" : [
          139.72350800000004,
          35.62448900000004
        ]
      },
      "properties" : {
        "OBJECTID" : 273,
        "name" : "株式会社Veritas In Silico",
        "lon" : 139.72350800000001,
        "lat" : 35.624488999999997
      }
    },
    {
      "type" : "Feature",
      "id" : 274,
      "geometry" : {
        "type" : "Point",
        "coordinates" : [
          139.72350800000004,
          35.62448900000004
        ]
      },
      "properties" : {
        "OBJECTID" : 274,
        "name" : "株式会社エッジコネクション",
        "lon" : 139.72350800000001,
        "lat" : 35.624488999999997
      }
    },
    {
      "type" : "Feature",
      "id" : 275,
      "geometry" : {
        "type" : "Point",
        "coordinates" : [
          139.72350800000004,
          35.62448900000004
        ]
      },
      "properties" : {
        "OBJECTID" : 275,
        "name" : "株式会社タップアラウンド",
        "lon" : 139.72350800000001,
        "lat" : 35.624488999999997
      }
    },