{
  "type" : "FeatureCollection",
  "features" : [
    {
      "type" : "Feature",
      "id" : 1,
      "geometry" : {
        "type" : "Point",
        "coordinates" : [
          139.761349,
          35.69162300000005
        ]
      },
      "properties" : {
        "OBJECTID" : 1,
        "name" : "A2-04.ちよだプラットフォームスクウェア /\u00A0Chiyoda Platform Square",
        "lon" : 139.761349,
        "lat" : 35.691623
      }
    },
    {
      "type" : "Feature",
      "id" : 2,
      "geometry" : {
        "type" : "Point",
        "coordinates" : [
          139.76397400000008,
          35.689654000000075
        ]
      },
      "properties" : {
        "OBJECTID" : 2,
        "name" : "A2-05.神田橋公園 /\u00A0Kandabashi Park",
        "lon" : 139.76397399999999,
        "lat" : 35.689653999999997
      }
    },
    {
      "type" : "Feature",
      "id" : 3,
      "geometry" : {
        "type" : "Point",
        "coordinates" : [
          139.75951800000007,
          35.700477000000035
        ]
      },
      "properties" : {
        "OBJECTID" : 3,
        "name" : "A2-08.KDX御茶ノ水ビル /\u00A0KDX Ochanomizu Building",
        "lon" : 139.75951800000001,
        "lat" : 35.700476999999999
      }
    },
    {
      "type" : "Feature",
      "id" : 4,
      "geometry" : {
        "type" : "Point",
        "coordinates" : [
          139.76002100000005,
          35.693393000000071
        ]
      },
      "properties" : {
        "OBJECTID" : 4,
        "name" : "A2-09.テラススクエア /\u00A0TERRACE SQUARE",
        "lon" : 139.76002099999999,
        "lat" : 35.693393
      }
    },
    {
      "type" : "Feature",
      "id" : 5,
      "geometry" : {
        "type" : "Point",
        "coordinates" : [
          139.75703900000008,
          35.699223000000075
        ]
      },
      "properties" : {
        "OBJECTID" : 5,
        "name" : "A2-06.東光電気工事 別館（屋内駐輪場） /\u00A0TOKO CO., LTD Annex(Indoor Parking)",
        "lon" : 139.75703899999999,
        "lat" : 35.699223000000003
      }
    },
    {
      "type" : "Feature",
      "id" : 6,
      "geometry" : {
        "type" : "Point",
        "coordinates" : [
          139.76028200000007,
          35.69425700000005
        ]
      },
      "properties" : {
        "OBJECTID" : 6,
        "name" : "A2-12.神保町三井ビルディング /\u00A0JINBOCHO MITSUI BUILDING",
        "lon" : 139.76028199999999,
        "lat" : 35.694257
      }
    },
    {
      "type" : "Feature",
      "id" : 7,
      "geometry" : {
        "type" : "Point",
        "coordinates" : [
          139.76320400000009,
          35.693125000000066
        ]
      },
      "properties" : {
        "OBJECTID" : 7,
        "name" : "A2-20.神田スクエア / KANDA SQUARE",
        "lon" : 139.763204,
        "lat" : 35.693125000000002
      }
    },
    {
      "type" : "Feature",
      "id" : 8,
      "geometry" : {
        "type" : "Point",
        "coordinates" : [
          139.75486000000001,
          35.694547000000057
        ]
      },
      "properties" : {
        "OBJECTID" : 8,
        "name" : "A2-21.神田神保町3丁目 / Kanda Jimbocho 3",
        "lon" : 139.75486000000001,
        "lat" : 35.694547
      }
    },
    {
      "type" : "Feature",
      "id" : 9,
      "geometry" : {
        "type" : "Point",
        "coordinates" : [
          139.75953800000002,
          35.698638000000074
        ]
      },
      "properties" : {
        "OBJECTID" : 9,
        "name" : "A2-18.猿楽町SSビル東 / Sarugakucho SS Bldg. east",
        "lon" : 139.75953799999999,
        "lat" : 35.698638000000003
      }
    },
    {
      "type" : "Feature",
      "id" : 10,
      "geometry" : {
        "type" : "Point",
        "coordinates" : [
          139.75953800000002,
          35.698638000000074
        ]
      },
      "properties" : {
        "OBJECTID" : 10,
        "name" : "A2-19.猿楽町SSビル西 / Sarugakucho SS Bldg. west",
        "lon" : 139.75953799999999,
        "lat" : 35.698638000000003
      }
    },
    {
      "type" : "Feature",
      "id" : 11,
      "geometry" : {
        "type" : "Point",
        "coordinates" : [
          139.76744400000007,
          35.693129000000056
        ]
      },
      "properties" : {
        "OBJECTID" : 11,
        "name" : "A3-01.神田児童公園（西側交番横） /\u00A0Kanda Children Park(West Side Next to the Police Box)",
        "lon" : 139.76744400000001,
        "lat" : 35.693128999999999
      }
    },
    {
      "type" : "Feature",
      "id" : 12,
      "geometry" : {
        "type" : "Point",
        "coordinates" : [
          139.75330900000006,
          35.702307000000076
        ]
      },
      "properties" : {
        "OBJECTID" : 12,
        "name" : "A2-24.水道橋駅西口前 / Suidobashi Station in front of West exit",
        "lon" : 139.753309,
        "lat" : 35.702306999999998
      }
    },
    {
      "type" : "Feature",
      "id" : 13,
      "geometry" : {
        "type" : "Point",
        "coordinates" : [
          139.7686460000001,
          35.692672000000073
        ]
      },
      "properties" : {
        "OBJECTID" : 13,
        "name" : "A3-03.NTT東日本神田ビル /\u00A0NTT-East Kanda Build",
        "lon" : 139.76864599999999,
        "lat" : 35.692672000000002
      }
    },
    {
      "type" : "Feature",
      "id" : 14,
      "geometry" : {
        "type" : "Point",
        "coordinates" : [
          139.76671700000009,
          35.697254000000044
        ]
      },
      "properties" : {
        "OBJECTID" : 14,
        "name" : "A3-07.淡路公園 /\u00A0Awaji Park",
        "lon" : 139.766717,
        "lat" : 35.697254000000001
      }
    },
    {
      "type" : "Feature",
      "id" : 15,
      "geometry" : {
        "type" : "Point",
        "coordinates" : [
          139.77846900000009,
          35.699084000000084
        ]
      },
      "properties" : {
        "OBJECTID" : 15,
        "name" : "A3-05.和泉公園（西側入口） / Izumi Park(Western Entrance)",
        "lon" : 139.778469,
        "lat" : 35.699083999999999
      }
    },
    {
      "type" : "Feature",
      "id" : 16,
      "geometry" : {
        "type" : "Point",
        "coordinates" : [
          139.77473600000008,
          35.697885000000042
        ]
      },
      "properties" : {
        "OBJECTID" : 16,
        "name" : "A3-04.秋葉原公園 /\u00A0Akihabara Park",
        "lon" : 139.77473599999999,
        "lat" : 35.697884999999999
      }
    },
    {
      "type" : "Feature",
      "id" : 17,
      "geometry" : {
        "type" : "Point",
        "coordinates" : [
          139.77774900000009,
          35.697044000000062
        ]
      },
      "properties" : {
        "OBJECTID" : 17,
        "name" : "A3-18.美倉橋北児童遊園 /\u00A0Mikurabashi North Children Park",
        "lon" : 139.777749,
        "lat" : 35.697043999999998
      }
    },
    {
      "type" : "Feature",
      "id" : 18,
      "geometry" : {
        "type" : "Point",
        "coordinates" : [
          139.77289100000007,
          35.695020000000056
        ]
      },
      "properties" : {
        "OBJECTID" : 18,
        "name" : "A3-19.神田ふれあい通り第１ /\u00A0Kanda Fureai-dori St. 1",
        "lon" : 139.77289099999999,
        "lat" : 35.69502
      }
    },
    {
      "type" : "Feature",
      "id" : 19,
      "geometry" : {
        "type" : "Point",
        "coordinates" : [
          139.77407400000004,
          35.700306000000069
        ]
      },
      "properties" : {
        "OBJECTID" : 19,
        "name" : "A3-13.富士ソフトビル（駐車場入口横） /\u00A0Fuji Soft Building(Side of Entrance to parking lot)",
        "lon" : 139.77407400000001,
        "lat" : 35.700305999999998
      }
    },
    {
      "type" : "Feature",
      "id" : 20,
      "geometry" : {
        "type" : "Point",
        "coordinates" : [
          139.77289100000007,
          35.695020000000056
        ]
      },
      "properties" : {
        "OBJECTID" : 20,
        "name" : "A3-20.神田ふれあい通り第２ /\u00A0Kanda Fureai-dori St. 2",
        "lon" : 139.77289099999999,
        "lat" : 35.69502
      }
    },
    {
      "type" : "Feature",
      "id" : 21,
      "geometry" : {
        "type" : "Point",
        "coordinates" : [
          139.77289100000007,
          35.695020000000056
        ]
      },
      "properties" : {
        "OBJECTID" : 21,
        "name" : "A3-21.神田ふれあい通り第３ /\u00A0Kanda Fureai-dori St. 3",
        "lon" : 139.77289099999999,
        "lat" : 35.69502
      }
    },
    {
      "type" : "Feature",
      "id" : 22,
      "geometry" : {
        "type" : "Point",
        "coordinates" : [
          139.77008000000001,
          35.692536000000075
        ]
      },
      "properties" : {
        "OBJECTID" : 22,
        "name" : "A3-42.内神田3丁目 / Uchikanda 3Chome",
        "lon" : 139.77008000000001,
        "lat" : 35.692535999999997
      }
    },
    {
      "type" : "Feature",
      "id" : 23,
      "geometry" : {
        "type" : "Point",
        "coordinates" : [
          139.77514300000007,
          35.698300000000074
        ]
      },
      "properties" : {
        "OBJECTID" : 23,
        "name" : "A3-39.トーシン東神田ビル / Toshin Higashikanda Build",
        "lon" : 139.77514300000001,
        "lat" : 35.698300000000003
      }
    },
    {
      "type" : "Feature",
      "id" : 24,
      "geometry" : {
        "type" : "Point",
        "coordinates" : [
          139.76425000000006,
          35.68553600000007
        ]
      },
      "properties" : {
        "OBJECTID" : 24,
        "name" : "A4-05.大手町タワー /\u00A0THE OTEMACHI TOWER",
        "lon" : 139.76425,
        "lat" : 35.685535999999999
      }
    },
    {
      "type" : "Feature",
      "id" : 25,
      "geometry" : {
        "type" : "Point",
        "coordinates" : [
          139.76380300000005,
          35.681040000000053
        ]
      },
      "properties" : {
        "OBJECTID" : 25,
        "name" : "A4-11.二重橋前駅（メトロ4番出口）/ Nijubashimae Sta. （Metro 4 Exit）",
        "lon" : 139.763803,
        "lat" : 35.681040000000003
      }
    },
    {
      "type" : "Feature",
      "id" : 26,
      "geometry" : {
        "type" : "Point",
        "coordinates" : [
          139.75380500000006,
          35.671223000000055
        ]
      },
      "properties" : {
        "OBJECTID" : 26,
        "name" : "A5-04.日比谷パークフロント前（日比谷公園南面向い歩道上）/ In front of \"HIBIYA PARKFRONT\" Building（On the sidewalk of the southside of Hibiya Park）",
        "lon" : 139.753805,
        "lat" : 35.671222999999998
      }
    },
    {
      "type" : "Feature",
      "id" : 27,
      "geometry" : {
        "type" : "Point",
        "coordinates" : [
          139.74089300000003,
          35.690764000000058
        ]
      },
      "properties" : {
        "OBJECTID" : 27,
        "name" : "A6-01.東郷元帥記念公園 /\u00A0General Togo memory park",
        "lon" : 139.740893,
        "lat" : 35.690764000000001
      }
    },
    {
      "type" : "Feature",
      "id" : 28,
      "geometry" : {
        "type" : "Point",
        "coordinates" : [
          139.73957600000006,
          35.686901000000034
        ]
      },
      "properties" : {
        "OBJECTID" : 28,
        "name" : "A6-02.いきいきプラザ一番町（西側駐輪場） /\u00A0Iki-iki Plaza Ichiban-cho(Western Cycle Port)",
        "lon" : 139.739576,
        "lat" : 35.686900999999999
      }
    },
    {
      "type" : "Feature",
      "id" : 29,
      "geometry" : {
        "type" : "Point",
        "coordinates" : [
          139.73397900000009,
          35.684974000000068
        ]
      },
      "properties" : {
        "OBJECTID" : 29,
        "name" : "A6-21.日本工営ビル / Nippon Koei Building",
        "lon" : 139.73397900000001,
        "lat" : 35.684973999999997
      }
    },
    {
      "type" : "Feature",
      "id" : 30,
      "geometry" : {
        "type" : "Point",
        "coordinates" : [
          139.74528400000008,
          35.689729000000057
        ]
      },
      "properties" : {
        "OBJECTID" : 30,
        "name" : "A6-23.セブン-イレブン千代田三番町店 / Seven-Eleven Chiyoda Sanbancho",
        "lon" : 139.745284,
        "lat" : 35.689729
      }
    },
    {
      "type" : "Feature",
      "id" : 31,
      "geometry" : {
        "type" : "Point",
        "coordinates" : [
          139.78502100000003,
          35.683657000000039
        ]
      },
      "properties" : {
        "OBJECTID" : 31,
        "name" : "B1-11.浜町川緑道 / Hamacho-gawa Ryokudo",
        "lon" : 139.785021,
        "lat" : 35.683656999999997
      }
    },
    {
      "type" : "Feature",
      "id" : 32,
      "geometry" : {
        "type" : "Point",
        "coordinates" : [
          139.78204900000003,
          35.687796000000048
        ]
      },
      "properties" : {
        "OBJECTID" : 32,
        "name" : "B1-12.ファミリーマート堀留町二丁目店 /\u00A0Familly Mart Horidomecho 2-chome Store",
        "lon" : 139.782049,
        "lat" : 35.687795999999999
      }
    },
    {
      "type" : "Feature",
      "id" : 33,
      "geometry" : {
        "type" : "Point",
        "coordinates" : [
          139.77989300000002,
          35.683748000000037
        ]
      },
      "properties" : {
        "OBJECTID" : 33,
        "name" : "B1-16.小網町児童遊園\n\u00A0/ Koamicho Children's Playground",
        "lon" : 139.77989299999999,
        "lat" : 35.683748000000001
      }
    },
    {
      "type" : "Feature",
      "id" : 34,
      "geometry" : {
        "type" : "Point",
        "coordinates" : [
          139.76920200000006,
          35.687951000000055
        ]
      },
      "properties" : {
        "OBJECTID" : 34,
        "name" : "B1-20.竜閑さくら橋際街角広場 / Ryuukan Sakura Bridge Street Corner Plaza",
        "lon" : 139.76920200000001,
        "lat" : 35.687950999999998
      }
    },
    {
      "type" : "Feature",
      "id" : 35,
      "geometry" : {
        "type" : "Point",
        "coordinates" : [
          139.77487300000007,
          35.680826000000081
        ]
      },
      "properties" : {
        "OBJECTID" : 35,
        "name" : "B1-21.日本橋二丁目街角広場 / Nihonbashi 2-Chome　Street Corner Plaza",
        "lon" : 139.77487300000001,
        "lat" : 35.680826000000003
      }
    },
    {
      "type" : "Feature",
      "id" : 36,
      "geometry" : {
        "type" : "Point",
        "coordinates" : [
          139.76888200000008,
          35.676058000000069
        ]
      },
      "properties" : {
        "OBJECTID" : 36,
        "name" : "B2-02.柳通り（東京スクエアガーデン前） \u00A0Yanagi-dori St. (In front of TOKYO SQUARE GARDEN)",
        "lon" : 139.76888199999999,
        "lat" : 35.676057999999998
      }
    },
    {
      "type" : "Feature",
      "id" : 37,
      "geometry" : {
        "type" : "Point",
        "coordinates" : [
          139.77151800000001,
          35.677760000000035
        ]
      },
      "properties" : {
        "OBJECTID" : 37,
        "name" : "B2-14.京橋1丁目 / Kyobashi Itchome",
        "lon" : 139.77151799999999,
        "lat" : 35.677759999999999
      }
    },
    {
      "type" : "Feature",
      "id" : 38,
      "geometry" : {
        "type" : "Point",
        "coordinates" : [
          139.77750900000001,
          35.665451000000076
        ]
      },
      "properties" : {
        "OBJECTID" : 38,
        "name" : "B3-16.明石町区民館 /\u00A0Akashicho Community Hall",
        "lon" : 139.77750900000001,
        "lat" : 35.665450999999997
      }
    },
    {
      "type" : "Feature",
      "id" : 39,
      "geometry" : {
        "type" : "Point",
        "coordinates" : [
          139.77987200000007,
          35.656717000000071
        ]
      },
      "properties" : {
        "OBJECTID" : 39,
        "name" : "B4-01.黎明橋公園（駐輪場） /\u00A0Reimeibashi Park(Parking Area)",
        "lon" : 139.77987200000001,
        "lat" : 35.656717
      }
    },
    {
      "type" : "Feature",
      "id" : 40,
      "geometry" : {
        "type" : "Point",
        "coordinates" : [
          139.78246200000001,
          35.657531000000063
        ]
      },
      "properties" : {
        "OBJECTID" : 40,
        "name" : "B4-03.桜の散歩道（晴海トリトンスクウエア前） /\u00A0Sakura no Sanpomichi (Harumi Triton Square)",
        "lon" : 139.78246200000001,
        "lat" : 35.657530999999999
      }
    },
    {
      "type" : "Feature",
      "id" : 41,
      "geometry" : {
        "type" : "Point",
        "coordinates" : [
          139.7719800000001,
          35.655681000000072
        ]
      },
      "properties" : {
        "OBJECTID" : 41,
        "name" : "B4-08.東京ミッドベイ勝どき（西仲通り） /\u00A0TOKYO MIDBAY KACHIDOKI（Nishinaka St.）",
        "lon" : 139.77198000000001,
        "lat" : 35.655681000000001
      }
    },
    {
      "type" : "Feature",
      "id" : 42,
      "geometry" : {
        "type" : "Point",
        "coordinates" : [
          139.75075400000003,
          35.66972300000009
        ]
      },
      "properties" : {
        "OBJECTID" : 42,
        "name" : "C1-01.虎ノ門1丁目暫定自転車置場（外堀通り） /\u00A0Toranomon 1Chome Provisional Cycle Port (Sotobori St.)",
        "lon" : 139.750754,
        "lat" : 35.669722999999998
      }
    },
    {
      "type" : "Feature",
      "id" : 43,
      "geometry" : {
        "type" : "Point",
        "coordinates" : [
          139.75638200000003,
          35.664340000000038
        ]
      },
      "properties" : {
        "OBJECTID" : 43,
        "name" : "C1-14.新橋プラザビル / Shinbashi Plaza Building",
        "lon" : 139.756382,
        "lat" : 35.664340000000003
      }
    },
    {
      "type" : "Feature",
      "id" : 44,
      "geometry" : {
        "type" : "Point",
        "coordinates" : [
          139.76313200000004,
          35.654236000000083
        ]
      },
      "properties" : {
        "OBJECTID" : 44,
        "name" : "C1-48.竹芝客船ターミナル / Takeshiba Passenger Ship Terminal",
        "lon" : 139.76313200000001,
        "lat" : 35.654235999999997
      }
    },
    {
      "type" : "Feature",
      "id" : 45,
      "geometry" : {
        "type" : "Point",
        "coordinates" : [
          139.75546500000007,
          35.655755000000056
        ]
      },
      "properties" : {
        "OBJECTID" : 45,
        "name" : "C1-45.浜松町クレアタワー\u00A0 / NIPPON LIFE HAMAMATSUCHO CREA TOWER",
        "lon" : 139.75546499999999,
        "lat" : 35.655754999999999
      }
    },
    {
      "type" : "Feature",
      "id" : 46,
      "geometry" : {
        "type" : "Point",
        "coordinates" : [
          139.75794100000007,
          35.663995000000057
        ]
      },
      "properties" : {
        "OBJECTID" : 46,
        "name" : "C1-51.環二新橋四丁目 / Kam-2 Shimbashi 4-chome",
        "lon" : 139.75794099999999,
        "lat" : 35.663995
      }
    },
    {
      "type" : "Feature",
      "id" : 47,
      "geometry" : {
        "type" : "Point",
        "coordinates" : [
          139.76185400000008,
          35.65429800000004
        ]
      },
      "properties" : {
        "OBJECTID" : 47,
        "name" : "C1-56.鈴与竹芝ビル / Suzuyo Takeshiba Building",
        "lon" : 139.761854,
        "lat" : 35.654297999999997
      }
    },
    {
      "type" : "Feature",
      "id" : 48,
      "geometry" : {
        "type" : "Point",
        "coordinates" : [
          139.76185400000008,
          35.656881000000055
        ]
      },
      "properties" : {
        "OBJECTID" : 48,
        "name" : "C1-58.ウォーターズ竹芝 / WATERS Takeshiba",
        "lon" : 139.761854,
        "lat" : 35.656880999999998
      }
    },
    {
      "type" : "Feature",
      "id" : 49,
      "geometry" : {
        "type" : "Point",
        "coordinates" : [
          139.75865900000008,
          35.653305000000046
        ]
      },
      "properties" : {
        "OBJECTID" : 49,
        "name" : "C1-61.環三浜松町駅南 / Kam-3 Hamamatsucho Station South",
        "lon" : 139.75865899999999,
        "lat" : 35.653305000000003
      }
    },
    {
      "type" : "Feature",
      "id" : 50,
      "geometry" : {
        "type" : "Point",
        "coordinates" : [
          139.75035500000001,
          35.653707000000054
        ]
      },
      "properties" : {
        "OBJECTID" : 50,
        "name" : "C1-63.芝公園二丁目 / Shiba Park 2-Chome",
        "lon" : 139.75035500000001,
        "lat" : 35.653706999999997
      }
    },
    {
      "type" : "Feature",
      "id" : 51,
      "geometry" : {
        "type" : "Point",
        "coordinates" : [
          139.760895,
          35.655062000000044
        ]
      },
      "properties" : {
        "OBJECTID" : 51,
        "name" : "C1-65.東京ポートシティ竹芝 / TOKYO PORTCITY TAKESHIBA",
        "lon" : 139.760895,
        "lat" : 35.655062000000001
      }
    },
    {
      "type" : "Feature",
      "id" : 52,
      "geometry" : {
        "type" : "Point",
        "coordinates" : [
          139.75686500000006,
          35.665032000000053
        ]
      },
      "properties" : {
        "OBJECTID" : 52,
        "name" : "C1-68.桜田公園 / Sakurada Park",
        "lon" : 139.756865,
        "lat" : 35.665031999999997
      }
    },
    {
      "type" : "Feature",
      "id" : 53,
      "geometry" : {
        "type" : "Point",
        "coordinates" : [
          139.73087500000008,
          35.656225000000063
        ]
      },
      "properties" : {
        "OBJECTID" : 53,
        "name" : "C2-10.元麻布三丁目\u00A0/ Motoazabu 3-Chome",
        "lon" : 139.730875,
        "lat" : 35.656224999999999
      }
    },
    {
      "type" : "Feature",
      "id" : 54,
      "geometry" : {
        "type" : "Point",
        "coordinates" : [
          139.72106100000008,
          35.661789000000056
        ]
      },
      "properties" : {
        "OBJECTID" : 54,
        "name" : "C2-08.ファミリーマート西麻布霞町店 /\u00A0Familly Mart Nishi-Azabu Kasumicho Store",
        "lon" : 139.72106099999999,
        "lat" : 35.661788999999999
      }
    },
    {
      "type" : "Feature",
      "id" : 55,
      "geometry" : {
        "type" : "Point",
        "coordinates" : [
          139.74308900000005,
          35.65660500000007
        ]
      },
      "properties" : {
        "OBJECTID" : 55,
        "name" : "C2-18.ブランシェ東麻布 / Branche Higashiazabu",
        "lon" : 139.743089,
        "lat" : 35.656604999999999
      }
    },
    {
      "type" : "Feature",
      "id" : 56,
      "geometry" : {
        "type" : "Point",
        "coordinates" : [
          139.72624600000006,
          35.648772000000065
        ]
      },
      "properties" : {
        "OBJECTID" : 56,
        "name" : "C2-19.広尾駅 / Hiroo Station",
        "lon" : 139.726246,
        "lat" : 35.648772000000001
      }
    },
    {
      "type" : "Feature",
      "id" : 57,
      "geometry" : {
        "type" : "Point",
        "coordinates" : [
          139.7355050000001,
          35.662530000000061
        ]
      },
      "properties" : {
        "OBJECTID" : 57,
        "name" : "C2-20.三井ガーデンホテル六本木プレミア /\u00A0 Mitsui Garden Hotel Roppongi Tokyo Premier",
        "lon" : 139.73550499999999,
        "lat" : 35.662529999999997
      }
    },
    {
      "type" : "Feature",
      "id" : 58,
      "geometry" : {
        "type" : "Point",
        "coordinates" : [
          139.73147400000005,
          35.673948000000053
        ]
      },
      "properties" : {
        "OBJECTID" : 58,
        "name" : "C3-16.赤坂ガーデンシティ / Akasaka Garden City",
        "lon" : 139.73147399999999,
        "lat" : 35.673948000000003
      }
    },
    {
      "type" : "Feature",
      "id" : 59,
      "geometry" : {
        "type" : "Point",
        "coordinates" : [
          139.7439270000001,
          35.670249000000069
        ]
      },
      "properties" : {
        "OBJECTID" : 59,
        "name" : "C3-17.セブン-イレブン 港区溜池山王店 / Seven-Eleven Minatoku Tameikesanno store",
        "lon" : 139.74392700000001,
        "lat" : 35.670248999999998
      }
    },
    {
      "type" : "Feature",
      "id" : 60,
      "geometry" : {
        "type" : "Point",
        "coordinates" : [
          139.72425700000008,
          35.668292000000065
        ]
      },
      "properties" : {
        "OBJECTID" : 60,
        "name" : "C3-23.LIFORK 南青山 北エントランス / LIFORK MINAMI AOYAMA North entrance",
        "lon" : 139.72425699999999,
        "lat" : 35.668292000000001
      }
    },
    {
      "type" : "Feature",
      "id" : 61,
      "geometry" : {
        "type" : "Point",
        "coordinates" : [
          139.72425700000008,
          35.668292000000065
        ]
      },
      "properties" : {
        "OBJECTID" : 61,
        "name" : "C3-24.SHARE GREEN 南青山 西エントランス / SHARE GREEN MINAMI AOYAMA West entrance",
        "lon" : 139.72425699999999,
        "lat" : 35.668292000000001
      }
    },
    {
      "type" : "Feature",
      "id" : 62,
      "geometry" : {
        "type" : "Point",
        "coordinates" : [
          139.71579100000008,
          35.669608000000039
        ]
      },
      "properties" : {
        "OBJECTID" : 62,
        "name" : "C3-27.the ARGYLE aoyama",
        "lon" : 139.715791,
        "lat" : 35.669607999999997
      }
    },
    {
      "type" : "Feature",
      "id" : 63,
      "geometry" : {
        "type" : "Point",
        "coordinates" : [
          139.73191300000008,
          35.632319000000052
        ]
      },
      "properties" : {
        "OBJECTID" : 63,
        "name" : "C4-04.ショパン高輪 / Chopin Takanawa",
        "lon" : 139.73191299999999,
        "lat" : 35.632319000000003
      }
    },
    {
      "type" : "Feature",
      "id" : 64,
      "geometry" : {
        "type" : "Point",
        "coordinates" : [
          139.75083400000005,
          35.637681000000043
        ]
      },
      "properties" : {
        "OBJECTID" : 64,
        "name" : "C5-13.区立芝浦西運河沿緑地 / Green Zone along the Shibaura-nishi Canal",
        "lon" : 139.750834,
        "lat" : 35.637681000000001
      }
    },
    {
      "type" : "Feature",
      "id" : 65,
      "geometry" : {
        "type" : "Point",
        "coordinates" : [
          139.75362000000007,
          35.640497000000039
        ]
      },
      "properties" : {
        "OBJECTID" : 65,
        "name" : "C5-14.セブン-イレブン 港区汐彩橋店 / Sevev-Eleven Minato Shiosaibashi store",
        "lon" : 139.75362000000001,
        "lat" : 35.640497000000003
      }
    },
    {
      "type" : "Feature",
      "id" : 66,
      "geometry" : {
        "type" : "Point",
        "coordinates" : [
          139.75599200000011,
          35.640177000000051
        ]
      },
      "properties" : {
        "OBJECTID" : 66,
        "name" : "C5-15.セブン-イレブン 港区芝浦ふ頭店 / Sevev-Eleven Minato\u00A0Shibautafuto store",
        "lon" : 139.75599199999999,
        "lat" : 35.640177000000001
      }
    },
    {
      "type" : "Feature",
      "id" : 67,
      "geometry" : {
        "type" : "Point",
        "coordinates" : [
          139.75488700000005,
          35.645556000000056
        ]
      },
      "properties" : {
        "OBJECTID" : 67,
        "name" : "C5-19.グランドメゾン田町 / GRANDE　MAISON TAMACHI",
        "lon" : 139.754887,
        "lat" : 35.645555999999999
      }
    },
    {
      "type" : "Feature",
      "id" : 68,
      "geometry" : {
        "type" : "Point",
        "coordinates" : [
          139.755,
          35.647582000000057
        ]
      },
      "properties" : {
        "OBJECTID" : 68,
        "name" : "C5-24.GLOBAL FRONT TOWER",
        "lon" : 139.755,
        "lat" : 35.647582
      }
    },
    {
      "type" : "Feature",
      "id" : 69,
      "geometry" : {
        "type" : "Point",
        "coordinates" : [
          139.71439800000007,
          35.687652000000071
        ]
      },
      "properties" : {
        "OBJECTID" : 69,
        "name" : "D1-02.四谷特別出張所 / Yotsuya Special District Office",
        "lon" : 139.71439799999999,
        "lat" : 35.687652
      }
    },
    {
      "type" : "Feature",
      "id" : 70,
      "geometry" : {
        "type" : "Point",
        "coordinates" : [
          139.72098900000003,
          35.684391000000062
        ]
      },
      "properties" : {
        "OBJECTID" : 70,
        "name" : "D1-03.新左門児童遊園 / Shin-samon Children's Playground",
        "lon" : 139.720989,
        "lat" : 35.684390999999998
      }
    },
    {
      "type" : "Feature",
      "id" : 71,
      "geometry" : {
        "type" : "Point",
        "coordinates" : [
          139.71180100000004,
          35.690665000000081
        ]
      },
      "properties" : {
        "OBJECTID" : 71,
        "name" : "D1-01.花園西公園 / Hanazono Nishi Park",
        "lon" : 139.71180100000001,
        "lat" : 35.690665000000003
      }
    },
    {
      "type" : "Feature",
      "id" : 72,
      "geometry" : {
        "type" : "Point",
        "coordinates" : [
          139.71549200000004,
          35.682199000000082
        ]
      },
      "properties" : {
        "OBJECTID" : 72,
        "name" : "D1-06.四谷第六小学校北 / Yotsuya Dairoku Elementary School North",
        "lon" : 139.71549200000001,
        "lat" : 35.682198999999997
      }
    },
    {
      "type" : "Feature",
      "id" : 73,
      "geometry" : {
        "type" : "Point",
        "coordinates" : [
          139.72865300000001,
          35.684117000000072
        ]
      },
      "properties" : {
        "OBJECTID" : 73,
        "name" : "D1-04.四谷見附公園 / Yotsuya Mitsuke Park",
        "lon" : 139.72865300000001,
        "lat" : 35.684117000000001
      }
    },
    {
      "type" : "Feature",
      "id" : 74,
      "geometry" : {
        "type" : "Point",
        "coordinates" : [
          139.71571100000006,
          35.680405000000064
        ]
      },
      "properties" : {
        "OBJECTID" : 74,
        "name" : "D1-11.三井ガーデンホテル神宮外苑の杜プレミア / Mitsui Garden Hotel Jingugaien Tokyo Premier",
        "lon" : 139.715711,
        "lat" : 35.680405
      }
    },
    {
      "type" : "Feature",
      "id" : 75,
      "geometry" : {
        "type" : "Point",
        "coordinates" : [
          139.71455900000001,
          35.688813000000039
        ]
      },
      "properties" : {
        "OBJECTID" : 75,
        "name" : "D1-12.ジェノヴィア新宿御苑グリーンヴェール / GENOVIA Shinjuku Gyoen green veil",
        "lon" : 139.71455900000001,
        "lat" : 35.688813000000003
      }
    },
    {
      "type" : "Feature",
      "id" : 76,
      "geometry" : {
        "type" : "Point",
        "coordinates" : [
          139.71130200000005,
          35.683707000000084
        ]
      },
      "properties" : {
        "OBJECTID" : 76,
        "name" : "D1-13.新宿御苑新宿門【西側】/ Shinjuku Gyoen National Garden Shinjuku Gate【West Side】",
        "lon" : 139.71130199999999,
        "lat" : 35.683706999999998
      }
    },
    {
      "type" : "Feature",
      "id" : 77,
      "geometry" : {
        "type" : "Point",
        "coordinates" : [
          139.73648300000002,
          35.700952000000086
        ]
      },
      "properties" : {
        "OBJECTID" : 77,
        "name" : "D2-09.セブン-イレブン 新宿岩戸町店 / Seven-Eleven Shinjuku Iwato-cho store",
        "lon" : 139.73648299999999,
        "lat" : 35.700952000000001
      }
    },
    {
      "type" : "Feature",
      "id" : 78,
      "geometry" : {
        "type" : "Point",
        "coordinates" : [
          139.73115400000006,
          35.700839000000087
        ]
      },
      "properties" : {
        "OBJECTID" : 78,
        "name" : "D2-08.旧市ヶ谷商業高校 / Former Ichigaya Commercial High Schoo",
        "lon" : 139.731154,
        "lat" : 35.700839000000002
      }
    },
    {
      "type" : "Feature",
      "id" : 79,
      "geometry" : {
        "type" : "Point",
        "coordinates" : [
          139.7233930000001,
          35.70617400000009
        ]
      },
      "properties" : {
        "OBJECTID" : 79,
        "name" : "【休止中】D3-04.鶴巻南公園 / Tsurumaki-Minami Park",
        "lon" : 139.72339299999999,
        "lat" : 35.706173999999997
      }
    },
    {
      "type" : "Feature",
      "id" : 80,
      "geometry" : {
        "type" : "Point",
        "coordinates" : [
          139.71634900000004,
          35.711633000000063
        ]
      },
      "properties" : {
        "OBJECTID" : 80,
        "name" : "D3-03.甘泉園公園 / Kansenen Park",
        "lon" : 139.71634900000001,
        "lat" : 35.711632999999999
      }
    },
    {
      "type" : "Feature",
      "id" : 81,
      "geometry" : {
        "type" : "Point",
        "coordinates" : [
          139.71999900000003,
          35.69986700000004
        ]
      },
      "properties" : {
        "OBJECTID" : 81,
        "name" : "D4-04.ジェノヴィア新宿早稲田グリーンヴェール / GENOVIA Shinjuku Waseda green veil",
        "lon" : 139.719999,
        "lat" : 35.699866999999998
      }
    },
    {
      "type" : "Feature",
      "id" : 82,
      "geometry" : {
        "type" : "Point",
        "coordinates" : [
          139.68890400000009,
          35.70232400000009
        ]
      },
      "properties" : {
        "OBJECTID" : 82,
        "name" : "D5-03.北新宿公園 / Kita-Shinjuku Park",
        "lon" : 139.68890400000001,
        "lat" : 35.702323999999997
      }
    },
    {
      "type" : "Feature",
      "id" : 83,
      "geometry" : {
        "type" : "Point",
        "coordinates" : [
          139.70454000000007,
          35.706602000000089
        ]
      },
      "properties" : {
        "OBJECTID" : 83,
        "name" : "D5-08. ウエリス新宿早稲田の森 / Wellith Shinjuku Waseda no Mori",
        "lon" : 139.70454000000001,
        "lat" : 35.706601999999997
      }
    },
    {
      "type" : "Feature",
      "id" : 84,
      "geometry" : {
        "type" : "Point",
        "coordinates" : [
          139.70102900000006,
          35.707771000000037
        ]
      },
      "properties" : {
        "OBJECTID" : 84,
        "name" : "D5-04.西戸山公園野球場 /\u00A0Nishi-Toyama Baseball Ground",
        "lon" : 139.70102900000001,
        "lat" : 35.707771000000001
      }
    },
    {
      "type" : "Feature",
      "id" : 85,
      "geometry" : {
        "type" : "Point",
        "coordinates" : [
          139.7015080000001,
          35.702660000000037
        ]
      },
      "properties" : {
        "OBJECTID" : 85,
        "name" : "D5-09.ハウジングステージ新宿 / HousingStage Shinjuku",
        "lon" : 139.70150799999999,
        "lat" : 35.702660000000002
      }
    },
    {
      "type" : "Feature",
      "id" : 86,
      "geometry" : {
        "type" : "Point",
        "coordinates" : [
          139.68922300000008,
          35.690124000000083
        ]
      },
      "properties" : {
        "OBJECTID" : 86,
        "name" : "D6-03.新宿中央公園（ポケットパーク）/ Shinjuku Central Park (Pocket Park)",
        "lon" : 139.689223,
        "lat" : 35.690123999999997
      }
    },
    {
      "type" : "Feature",
      "id" : 87,
      "geometry" : {
        "type" : "Point",
        "coordinates" : [
          139.68922300000008,
          35.690124000000083
        ]
      },
      "properties" : {
        "OBJECTID" : 87,
        "name" : "D6-05.新宿中央公園（水の広場）/ Shinjuku Central Park (Water Plaza)",
        "lon" : 139.689223,
        "lat" : 35.690123999999997
      }
    },
    {
      "type" : "Feature",
      "id" : 88,
      "geometry" : {
        "type" : "Point",
        "coordinates" : [
          139.68922300000008,
          35.690124000000083
        ]
      },
      "properties" : {
        "OBJECTID" : 88,
        "name" : "D6-04.新宿中央公園（ちびっこ広場）/Shinjuku Central Park (Playground)",
        "lon" : 139.689223,
        "lat" : 35.690123999999997
      }
    },
    {
      "type" : "Feature",
      "id" : 89,
      "geometry" : {
        "type" : "Point",
        "coordinates" : [
          139.68922300000008,
          35.690124000000083
        ]
      },
      "properties" : {
        "OBJECTID" : 89,
        "name" : "D6-06.新宿中央公園（エコギャラリー下）/ Shinjuku Central Park (Eco Gallery)",
        "lon" : 139.689223,
        "lat" : 35.690123999999997
      }
    },
    {
      "type" : "Feature",
      "id" : 90,
      "geometry" : {
        "type" : "Point",
        "coordinates" : [
          139.68922300000008,
          35.690124000000083
        ]
      },
      "properties" : {
        "OBJECTID" : 90,
        "name" : "D6-13.新宿中央公園（ジャブジャブ池下）/ Shinjuku Central Park (Water Play Pool)",
        "lon" : 139.689223,
        "lat" : 35.690123999999997
      }
    },
    {
      "type" : "Feature",
      "id" : 91,
      "geometry" : {
        "type" : "Point",
        "coordinates" : [
          139.6868300000001,
          35.693319000000088
        ]
      },
      "properties" : {
        "OBJECTID" : 91,
        "name" : "D6-19.西新宿五丁目中央 / Nishi-Shinjuku 5-chome center",
        "lon" : 139.68682999999999,
        "lat" : 35.693319000000002
      }
    },
    {
      "type" : "Feature",
      "id" : 92,
      "geometry" : {
        "type" : "Point",
        "coordinates" : [
          139.68611200000009,
          35.693389000000082
        ]
      },
      "properties" : {
        "OBJECTID" : 92,
        "name" : "D6-20.淀橋けやきばし公園 / Yodobashi Keyakibashi Park",
        "lon" : 139.68611200000001,
        "lat" : 35.693389000000003
      }
    },
    {
      "type" : "Feature",
      "id" : 93,
      "geometry" : {
        "type" : "Point",
        "coordinates" : [
          139.71124200000008,
          35.692377000000079
        ]
      },
      "properties" : {
        "OBJECTID" : 93,
        "name" : "D6-21.新宿5丁目 / Shinjuku 5-Chome",
        "lon" : 139.711242,
        "lat" : 35.692377
      }
    },
    {
      "type" : "Feature",
      "id" : 94,
      "geometry" : {
        "type" : "Point",
        "coordinates" : [
          139.7015080000001,
          35.689756000000045
        ]
      },
      "properties" : {
        "OBJECTID" : 94,
        "name" : "D6-25.新宿駅東南口自転車駐輪場 / Shinjuku Station Southeast Exit Bicycle Parking lot",
        "lon" : 139.70150799999999,
        "lat" : 35.689756000000003
      }
    },
    {
      "type" : "Feature",
      "id" : 95,
      "geometry" : {
        "type" : "Point",
        "coordinates" : [
          139.68738900000005,
          35.715546000000074
        ]
      },
      "properties" : {
        "OBJECTID" : 95,
        "name" : "D7-03.中井駅北 / Nakai Station North",
        "lon" : 139.687389,
        "lat" : 35.715546000000003
      }
    },
    {
      "type" : "Feature",
      "id" : 96,
      "geometry" : {
        "type" : "Point",
        "coordinates" : [
          139.79684400000008,
          35.653241000000037
        ]
      },
      "properties" : {
        "OBJECTID" : 96,
        "name" : "H1-02.豊洲駅 /\u00A0Toyosu Station",
        "lon" : 139.79684399999999,
        "lat" : 35.653241000000001
      }
    },
    {
      "type" : "Feature",
      "id" : 97,
      "geometry" : {
        "type" : "Point",
        "coordinates" : [
          139.7930080000001,
          35.659170000000074
        ]
      },
      "properties" : {
        "OBJECTID" : 97,
        "name" : "H1-01.豊洲IHIビル前（晴海通り） /\u00A0Toyosu IHI Building",
        "lon" : 139.79300799999999,
        "lat" : 35.659170000000003
      }
    },
    {
      "type" : "Feature",
      "id" : 98,
      "geometry" : {
        "type" : "Point",
        "coordinates" : [
          139.79045100000008,
          35.631155000000035
        ]
      },
      "properties" : {
        "OBJECTID" : 98,
        "name" : "H1-05.相鉄グランドフレッサ 東京ベイ有明 / SOTETSU GRAND FRESA TOKYO-BAY ARIAKE",
        "lon" : 139.79045099999999,
        "lat" : 35.631155
      }
    },
    {
      "type" : "Feature",
      "id" : 99,
      "geometry" : {
        "type" : "Point",
        "coordinates" : [
          139.80515500000001,
          35.641060000000039
        ]
      },
      "properties" : {
        "OBJECTID" : 99,
        "name" : "H1-03.東雲駅 /\u00A0Shinonome Station",
        "lon" : 139.80515500000001,
        "lat" : 35.641060000000003
      }
    },
    {
      "type" : "Feature",
      "id" : 100,
      "geometry" : {
        "type" : "Point",
        "coordinates" : [
          139.785977,
          35.631661000000065
        ]
      },
      "properties" : {
        "OBJECTID" : 100,
        "name" : "H1-06.武蔵野大学 /\u00A0Musashino University",
        "lon" : 139.785977,
        "lat" : 35.631661000000001
      }
    },
    {
      "type" : "Feature",
      "id" : 101,
      "geometry" : {
        "type" : "Point",
        "coordinates" : [
          139.792689,
          35.63291200000009
        ]
      },
      "properties" : {
        "OBJECTID" : 101,
        "name" : "H1-04.石と光の広場（国際展示場駅） / Ishito Hikarino Hiroba (Kokusai-tenjijo Station)",
        "lon" : 139.792689,
        "lat" : 35.632911999999997
      }
    },
    {
      "type" : "Feature",
      "id" : 102,
      "geometry" : {
        "type" : "Point",
        "coordinates" : [
          139.77415400000007,
          35.623768000000041
        ]
      },
      "properties" : {
        "OBJECTID" : 102,
        "name" : "H1-10.出会い橋 /\u00A0Deaibashi Bridge",
        "lon" : 139.77415400000001,
        "lat" : 35.623767999999998
      }
    },
    {
      "type" : "Feature",
      "id" : 103,
      "geometry" : {
        "type" : "Point",
        "coordinates" : [
          139.77766900000006,
          35.630058000000076
        ]
      },
      "properties" : {
        "OBJECTID" : 103,
        "name" : "H1-09.お台場海浜公園駅 /\u00A0Odaiba Kaihin Park Station",
        "lon" : 139.777669,
        "lat" : 35.630057999999998
      }
    },
    {
      "type" : "Feature",
      "id" : 104,
      "geometry" : {
        "type" : "Point",
        "coordinates" : [
          139.78118400000005,
          35.626009000000067
        ]
      },
      "properties" : {
        "OBJECTID" : 104,
        "name" : "H1-07.青海駅 /\u00A0Aomi Station",
        "lon" : 139.781184,
        "lat" : 35.626009000000003
      }
    },
    {
      "type" : "Feature",
      "id" : 105,
      "geometry" : {
        "type" : "Point",
        "coordinates" : [
          139.7799050000001,
          35.627794000000051
        ]
      },
      "properties" : {
        "OBJECTID" : 105,
        "name" : "H1-08.東京テレポート駅 /\u00A0Tokyo Teleport Station",
        "lon" : 139.77990500000001,
        "lat" : 35.627794000000002
      }
    },
    {
      "type" : "Feature",
      "id" : 106,
      "geometry" : {
        "type" : "Point",
        "coordinates" : [
          139.77862700000003,
          35.618093000000044
        ]
      },
      "properties" : {
        "OBJECTID" : 106,
        "name" : "H1-11.テレコムセンター駅 /\u00A0Telecom Center Station",
        "lon" : 139.778627,
        "lat" : 35.618093000000002
      }
    },
    {
      "type" : "Feature",
      "id" : 107,
      "geometry" : {
        "type" : "Point",
        "coordinates" : [
          139.79158700000005,
          35.654791000000046
        ]
      },
      "properties" : {
        "OBJECTID" : 107,
        "name" : "H1-13.アーバンドックららぽーと豊洲 /\u00A0Urban Dock LaLaport TOYOSU",
        "lon" : 139.79158699999999,
        "lat" : 35.654791000000003
      }
    },
    {
      "type" : "Feature",
      "id" : 108,
      "geometry" : {
        "type" : "Point",
        "coordinates" : [
          139.77766900000006,
          35.615698000000066
        ]
      },
      "properties" : {
        "OBJECTID" : 108,
        "name" : "H1-12.大江戸温泉物語 /\u00A0Ohedo Onsen Monogatari",
        "lon" : 139.777669,
        "lat" : 35.615698000000002
      }
    },
    {
      "type" : "Feature",
      "id" : 109,
      "geometry" : {
        "type" : "Point",
        "coordinates" : [
          139.77127800000005,
          35.625201000000061
        ]
      },
      "properties" : {
        "OBJECTID" : 109,
        "name" : "H1-15.台場駅 /\u00A0Daiba Station",
        "lon" : 139.771278,
        "lat" : 35.625200999999997
      }
    },
    {
      "type" : "Feature",
      "id" : 110,
      "geometry" : {
        "type" : "Point",
        "coordinates" : [
          139.79684400000008,
          35.657835000000034
        ]
      },
      "properties" : {
        "OBJECTID" : 110,
        "name" : "H1-16.豊洲三丁目公園 /\u00A0Toyosu 3-Chome Park",
        "lon" : 139.79684399999999,
        "lat" : 35.657834999999999
      }
    },
    {
      "type" : "Feature",
      "id" : 111,
      "geometry" : {
        "type" : "Point",
        "coordinates" : [
          139.79396700000007,
          35.629977000000054
        ]
      },
      "properties" : {
        "OBJECTID" : 111,
        "name" : "H1-18.東京ビッグサイト /\u00A0Tokyo Bigsight",
        "lon" : 139.79396700000001,
        "lat" : 35.629976999999997
      }
    },
    {
      "type" : "Feature",
      "id" : 112,
      "geometry" : {
        "type" : "Point",
        "coordinates" : [
          139.8025980000001,
          35.65382100000005
        ]
      },
      "properties" : {
        "OBJECTID" : 112,
        "name" : "H1-19.UR豊洲四丁目団地 /\u00A0UR Toyosu 4-Chome Danchi",
        "lon" : 139.80259799999999,
        "lat" : 35.653821000000001
      }
    },
    {
      "type" : "Feature",
      "id" : 113,
      "geometry" : {
        "type" : "Point",
        "coordinates" : [
          139.78246200000001,
          35.64145300000007
        ]
      },
      "properties" : {
        "OBJECTID" : 113,
        "name" : "H1-22.豊洲市場（7街区）/ Toyosu market block 7",
        "lon" : 139.78246200000001,
        "lat" : 35.641452999999998
      }
    },
    {
      "type" : "Feature",
      "id" : 114,
      "geometry" : {
        "type" : "Point",
        "coordinates" : [
          139.78565800000001,
          35.645604000000048
        ]
      },
      "properties" : {
        "OBJECTID" : 114,
        "name" : "H1-29.スカイズタワー&ガーデン /\u00A0SKYZ TOWER&GARDEN",
        "lon" : 139.78565800000001,
        "lat" : 35.645603999999999
      }
    },
    {
      "type" : "Feature",
      "id" : 115,
      "geometry" : {
        "type" : "Point",
        "coordinates" : [
          139.80419600000005,
          35.666233000000034
        ]
      },
      "properties" : {
        "OBJECTID" : 115,
        "name" : "H1-33.深川ギャザリア（ウエストスクエア） /\u00A0FUKAGAWA GATHARIA(West Square)",
        "lon" : 139.80419599999999,
        "lat" : 35.666232999999998
      }
    },
    {
      "type" : "Feature",
      "id" : 116,
      "geometry" : {
        "type" : "Point",
        "coordinates" : [
          139.80052000000001,
          35.639349000000038
        ]
      },
      "properties" : {
        "OBJECTID" : 116,
        "name" : "H1-37.東雲駅（東京湾岸道路）/ Shinonome Sta.(Wangan Road)",
        "lon" : 139.80052000000001,
        "lat" : 35.639349000000003
      }
    },
    {
      "type" : "Feature",
      "id" : 117,
      "geometry" : {
        "type" : "Point",
        "coordinates" : [
          139.80963100000008,
          35.644574000000034
        ]
      },
      "properties" : {
        "OBJECTID" : 117,
        "name" : "H1-39.辰巳駅東口自転車駐車場 / Tatsumi station east entrance bicycle garaje",
        "lon" : 139.809631,
        "lat" : 35.644573999999999
      }
    },
    {
      "type" : "Feature",
      "id" : 118,
      "geometry" : {
        "type" : "Point",
        "coordinates" : [
          139.80476300000009,
          35.676454000000035
        ]
      },
      "properties" : {
        "OBJECTID" : 118,
        "name" : "H1-41.深川北スポーツセンター / Fukagawa North Sports Center",
        "lon" : 139.80476300000001,
        "lat" : 35.676454
      }
    },
    {
      "type" : "Feature",
      "id" : 119,
      "geometry" : {
        "type" : "Point",
        "coordinates" : [
          139.79492600000003,
          35.65419600000007
        ]
      },
      "properties" : {
        "OBJECTID" : 119,
        "name" : "H1-50.豊洲交通広場北\u00A0/ Toyosu Transportation Square\nNorth",
        "lon" : 139.794926,
        "lat" : 35.654195999999999
      }
    },
    {
      "type" : "Feature",
      "id" : 120,
      "geometry" : {
        "type" : "Point",
        "coordinates" : [
          139.79492600000003,
          35.65419600000007
        ]
      },
      "properties" : {
        "OBJECTID" : 120,
        "name" : "H1-51.豊洲交通広場東\u00A0/ Toyosu Transportation Square\nEast",
        "lon" : 139.794926,
        "lat" : 35.654195999999999
      }
    },
    {
      "type" : "Feature",
      "id" : 121,
      "geometry" : {
        "type" : "Point",
        "coordinates" : [
          139.83009600000003,
          35.671713000000068
        ]
      },
      "properties" : {
        "OBJECTID" : 121,
        "name" : "H1-56.南砂三丁目緑地公園西 / Minamisuna 3-Chome Park West",
        "lon" : 139.830096,
        "lat" : 35.671712999999997
      }
    },
    {
      "type" : "Feature",
      "id" : 122,
      "geometry" : {
        "type" : "Point",
        "coordinates" : [
          139.82753700000001,
          35.646565000000066
        ]
      },
      "properties" : {
        "OBJECTID" : 122,
        "name" : "H1-57.新木場駅 / Shinkiba Station",
        "lon" : 139.82753700000001,
        "lat" : 35.646565000000002
      }
    },
    {
      "type" : "Feature",
      "id" : 123,
      "geometry" : {
        "type" : "Point",
        "coordinates" : [
          139.81746400000009,
          35.658190000000047
        ]
      },
      "properties" : {
        "OBJECTID" : 123,
        "name" : "H1-58.潮見駅 / Shiomi Station",
        "lon" : 139.817464,
        "lat" : 35.658189999999998
      }
    },
    {
      "type" : "Feature",
      "id" : 124,
      "geometry" : {
        "type" : "Point",
        "coordinates" : [
          139.84432900000002,
          35.679845000000057
        ]
      },
      "properties" : {
        "OBJECTID" : 124,
        "name" : "H1-60.荒川・砂町庭球場西 / Arakawa Sunamachi tennis court West",
        "lon" : 139.84432899999999,
        "lat" : 35.679845
      }
    },
    {
      "type" : "Feature",
      "id" : 125,
      "geometry" : {
        "type" : "Point",
        "coordinates" : [
          139.78610300000003,
          35.648347000000058
        ]
      },
      "properties" : {
        "OBJECTID" : 125,
        "name" : "H1-61.Brillia ランニングスタジアム マギーズ東京前 / Brillia Running Stadium Maggie's Tokyo Front",
        "lon" : 139.786103,
        "lat" : 35.648347000000001
      }
    },
    {
      "type" : "Feature",
      "id" : 126,
      "geometry" : {
        "type" : "Point",
        "coordinates" : [
          139.82715900000005,
          35.683572000000083
        ]
      },
      "properties" : {
        "OBJECTID" : 126,
        "name" : "H1-82.セブン-イレブン 北砂3丁目明治通り店 / Seven-Eleven Kitasuna 3-Chome Meijidori store",
        "lon" : 139.82715899999999,
        "lat" : 35.683571999999998
      }
    },
    {
      "type" : "Feature",
      "id" : 127,
      "geometry" : {
        "type" : "Point",
        "coordinates" : [
          139.8002580000001,
          35.642254000000037
        ]
      },
      "properties" : {
        "OBJECTID" : 127,
        "name" : "H1-83.ローソン江東東雲店 / LAWSON Koto Shinonome shop",
        "lon" : 139.80025800000001,
        "lat" : 35.642254000000001
      }
    },
    {
      "type" : "Feature",
      "id" : 128,
      "geometry" : {
        "type" : "Point",
        "coordinates" : [
          139.803764,
          35.662213000000065
        ]
      },
      "properties" : {
        "OBJECTID" : 128,
        "name" : "H1-87.パークアクシス木場キャナルウエスト / Park Axis Kiba Canal West",
        "lon" : 139.803764,
        "lat" : 35.662213000000001
      }
    },
    {
      "type" : "Feature",
      "id" : 129,
      "geometry" : {
        "type" : "Point",
        "coordinates" : [
          139.83585300000004,
          35.640697000000046
        ]
      },
      "properties" : {
        "OBJECTID" : 129,
        "name" : "H1-93.新木場一丁目公園 / Shinkiba 1chome Park",
        "lon" : 139.83585299999999,
        "lat" : 35.640697000000003
      }
    },
    {
      "type" : "Feature",
      "id" : 130,
      "geometry" : {
        "type" : "Point",
        "coordinates" : [
          139.82753700000001,
          35.697679000000051
        ]
      },
      "properties" : {
        "OBJECTID" : 130,
        "name" : "H1-92.亀戸駅東口第二自転車駐車場 / Kameido sta. East 2nd Bicycle garage",
        "lon" : 139.82753700000001,
        "lat" : 35.697679000000001
      }
    },
    {
      "type" : "Feature",
      "id" : 131,
      "geometry" : {
        "type" : "Point",
        "coordinates" : [
          139.83649200000002,
          35.644400000000076
        ]
      },
      "properties" : {
        "OBJECTID" : 131,
        "name" : "H1-94.新木場一丁目緑地公園 / Shinkiba 1chome Ryokchi Park",
        "lon" : 139.83649199999999,
        "lat" : 35.644399999999997
      }
    },
    {
      "type" : "Feature",
      "id" : 132,
      "geometry" : {
        "type" : "Point",
        "coordinates" : [
          139.834247,
          35.618807000000061
        ]
      },
      "properties" : {
        "OBJECTID" : 132,
        "name" : "H1-95.若洲公園 /\u00A0H1-95.Wakasu Park",
        "lon" : 139.834247,
        "lat" : 35.618806999999997
      }
    },
    {
      "type" : "Feature",
      "id" : 133,
      "geometry" : {
        "type" : "Point",
        "coordinates" : [
          139.80163900000002,
          35.662912000000063
        ]
      },
      "properties" : {
        "OBJECTID" : 133,
        "name" : "H1-97.浜園公園 / Hamazono Park",
        "lon" : 139.80163899999999,
        "lat" : 35.662911999999999
      }
    },
    {
      "type" : "Feature",
      "id" : 134,
      "geometry" : {
        "type" : "Point",
        "coordinates" : [
          139.78853400000003,
          35.670584000000076
        ]
      },
      "properties" : {
        "OBJECTID" : 134,
        "name" : "H1-96.越中島公園 / Etchujima Park",
        "lon" : 139.788534,
        "lat" : 35.670583999999998
      }
    },
    {
      "type" : "Feature",
      "id" : 135,
      "geometry" : {
        "type" : "Point",
        "coordinates" : [
          139.83233400000006,
          35.66945000000004
        ]
      },
      "properties" : {
        "OBJECTID" : 135,
        "name" : "H1-99.南砂三丁目公園 / Minamisuna 3chome Park",
        "lon" : 139.832334,
        "lat" : 35.669449999999998
      }
    },
    {
      "type" : "Feature",
      "id" : 136,
      "geometry" : {
        "type" : "Point",
        "coordinates" : [
          139.80951100000004,
          35.668611000000055
        ]
      },
      "properties" : {
        "OBJECTID" : 136,
        "name" : "H1-98.洲崎川緑道公園 / Suzakigawa Ryokdo Park",
        "lon" : 139.80951099999999,
        "lat" : 35.668610999999999
      }
    },
    {
      "type" : "Feature",
      "id" : 137,
      "geometry" : {
        "type" : "Point",
        "coordinates" : [
          139.79556500000001,
          35.680289000000073
        ]
      },
      "properties" : {
        "OBJECTID" : 137,
        "name" : "H1-103.清澄庭園 / Kiyosumi Teien Park",
        "lon" : 139.79556500000001,
        "lat" : 35.680289000000002
      }
    },
    {
      "type" : "Feature",
      "id" : 138,
      "geometry" : {
        "type" : "Point",
        "coordinates" : [
          139.80803200000003,
          35.678104000000076
        ]
      },
      "properties" : {
        "OBJECTID" : 138,
        "name" : "H1-104.木場公園 / Kiba Park",
        "lon" : 139.808032,
        "lat" : 35.678103999999998
      }
    },
    {
      "type" : "Feature",
      "id" : 139,
      "geometry" : {
        "type" : "Point",
        "coordinates" : [
          139.818264,
          35.690237000000081
        ]
      },
      "properties" : {
        "OBJECTID" : 139,
        "name" : "H1-105.猿江恩賜公園 / Sarue Onshi Park",
        "lon" : 139.818264,
        "lat" : 35.690237000000003
      }
    },
    {
      "type" : "Feature",
      "id" : 140,
      "geometry" : {
        "type" : "Point",
        "coordinates" : [
          139.8467280000001,
          35.692721000000063
        ]
      },
      "properties" : {
        "OBJECTID" : 140,
        "name" : "H1-107.大島小松川公園 / Ojima Komatsugawa Park",
        "lon" : 139.84672800000001,
        "lat" : 35.692720999999999
      }
    },
    {
      "type" : "Feature",
      "id" : 141,
      "geometry" : {
        "type" : "Point",
        "coordinates" : [
          139.83457300000009,
          35.699345000000051
        ]
      },
      "properties" : {
        "OBJECTID" : 141,
        "name" : "H1-106.亀戸中央公園 / Kameido Chuo Park",
        "lon" : 139.83457300000001,
        "lat" : 35.699345000000001
      }
    },
    {
      "type" : "Feature",
      "id" : 142,
      "geometry" : {
        "type" : "Point",
        "coordinates" : [
          139.80419600000005,
          35.646707000000049
        ]
      },
      "properties" : {
        "OBJECTID" : 142,
        "name" : "H1-108.Brillia ist 東雲キャナルコート北側 /Brillia ist Shinonome Canal Court North",
        "lon" : 139.80419599999999,
        "lat" : 35.646706999999999
      }
    },
    {
      "type" : "Feature",
      "id" : 143,
      "geometry" : {
        "type" : "Point",
        "coordinates" : [
          139.80419600000005,
          35.646707000000049
        ]
      },
      "properties" : {
        "OBJECTID" : 143,
        "name" : "H1-109.Brillia ist 東雲キャナルコート東側 / Brillia ist Shinonome Canal Court East",
        "lon" : 139.80419599999999,
        "lat" : 35.646706999999999
      }
    },
    {
      "type" : "Feature",
      "id" : 144,
      "geometry" : {
        "type" : "Point",
        "coordinates" : [
          139.807682,
          35.666862000000037
        ]
      },
      "properties" : {
        "OBJECTID" : 144,
        "name" : "H1-111.ファミリーマート木場六丁目店 / Family Mart Kiba 6Chome Store",
        "lon" : 139.807682,
        "lat" : 35.666862000000002
      }
    },
    {
      "type" : "Feature",
      "id" : 145,
      "geometry" : {
        "type" : "Point",
        "coordinates" : [
          139.83617200000003,
          35.65030500000006
        ]
      },
      "properties" : {
        "OBJECTID" : 145,
        "name" : "H1-115.東京夢の島マリーナ 第4駐車場 / Tokyo Yumenoshima Marina 4th Parking",
        "lon" : 139.836172,
        "lat" : 35.650305000000003
      }
    },
    {
      "type" : "Feature",
      "id" : 146,
      "geometry" : {
        "type" : "Point",
        "coordinates" : [
          139.8272300000001,
          35.650552000000062
        ]
      },
      "properties" : {
        "OBJECTID" : 146,
        "name" : "H1-114.東京夢の島マリーナ / Tokyo Yumenoshima Marina",
        "lon" : 139.82722999999999,
        "lat" : 35.650551999999998
      }
    },
    {
      "type" : "Feature",
      "id" : 147,
      "geometry" : {
        "type" : "Point",
        "coordinates" : [
          139.78118400000005,
          35.626009000000067
        ]
      },
      "properties" : {
        "OBJECTID" : 147,
        "name" : "H1-116.出会い橋高架下 / Deaibashi Bridge (underpass)",
        "lon" : 139.781184,
        "lat" : 35.626009000000003
      }
    },
    {
      "type" : "Feature",
      "id" : 148,
      "geometry" : {
        "type" : "Point",
        "coordinates" : [
          139.79508600000008,
          35.669620000000066
        ]
      },
      "properties" : {
        "OBJECTID" : 148,
        "name" : "H1-127.古石場川親水公園 / Furuishiba river water park",
        "lon" : 139.795086,
        "lat" : 35.669620000000002
      }
    },
    {
      "type" : "Feature",
      "id" : 149,
      "geometry" : {
        "type" : "Point",
        "coordinates" : [
          139.78757500000006,
          35.645797000000073
        ]
      },
      "properties" : {
        "OBJECTID" : 149,
        "name" : "H1-128.豊洲市場（5街区）/ Toyosu Market Block5",
        "lon" : 139.787575,
        "lat" : 35.645797000000002
      }
    },
    {
      "type" : "Feature",
      "id" : 150,
      "geometry" : {
        "type" : "Point",
        "coordinates" : [
          139.78323399999999,
          35.644155000000069
        ]
      },
      "properties" : {
        "OBJECTID" : 150,
        "name" : "H1-129.豊洲市場（6街区）/ Toyosu Market Block6",
        "lon" : 139.78323399999999,
        "lat" : 35.644154999999998
      }
    },
    {
      "type" : "Feature",
      "id" : 151,
      "geometry" : {
        "type" : "Point",
        "coordinates" : [
          139.78323399999999,
          35.644155000000069
        ]
      },
      "properties" : {
        "OBJECTID" : 151,
        "name" : "H1-134.豊洲ぐるり公園 / Toyosu Gururi park",
        "lon" : 139.78323399999999,
        "lat" : 35.644154999999998
      }
    },
    {
      "type" : "Feature",
      "id" : 152,
      "geometry" : {
        "type" : "Point",
        "coordinates" : [
          139.7934600000001,
          35.678920000000062
        ]
      },
      "properties" : {
        "OBJECTID" : 152,
        "name" : "H1-131.セブン-イレブン江東佐賀2丁目店 / Seven-Eleven Koto Saga 2chome Store",
        "lon" : 139.79346000000001,
        "lat" : 35.678919999999998
      }
    },
    {
      "type" : "Feature",
      "id" : 153,
      "geometry" : {
        "type" : "Point",
        "coordinates" : [
          139.826098,
          35.679447000000039
        ]
      },
      "properties" : {
        "OBJECTID" : 153,
        "name" : "H1-133.北砂2丁目公園 / Kitasuna 2 chome park",
        "lon" : 139.826098,
        "lat" : 35.679447000000003
      }
    },
    {
      "type" : "Feature",
      "id" : 154,
      "geometry" : {
        "type" : "Point",
        "coordinates" : [
          139.83297400000004,
          35.684063000000037
        ]
      },
      "properties" : {
        "OBJECTID" : 154,
        "name" : "H1-135.北砂5丁目団地 / Kitasuna 5 chome Danchi",
        "lon" : 139.83297400000001,
        "lat" : 35.684063000000002
      }
    },
    {
      "type" : "Feature",
      "id" : 155,
      "geometry" : {
        "type" : "Point",
        "coordinates" : [
          139.79220900000007,
          35.637459000000035
        ]
      },
      "properties" : {
        "OBJECTID" : 155,
        "name" : "H1-137.住友不動産ショッピングシティ有明ガーデン / ARIAKE GARDEN",
        "lon" : 139.79220900000001,
        "lat" : 35.637459
      }
    },
    {
      "type" : "Feature",
      "id" : 156,
      "geometry" : {
        "type" : "Point",
        "coordinates" : [
          139.83897100000002,
          35.694142000000056
        ]
      },
      "properties" : {
        "OBJECTID" : 156,
        "name" : "H1-148.大島七丁目団地 / Ojima 7 chome Danchi",
        "lon" : 139.83897099999999,
        "lat" : 35.694141999999999
      }
    },
    {
      "type" : "Feature",
      "id" : 157,
      "geometry" : {
        "type" : "Point",
        "coordinates" : [
          139.79220900000007,
          35.637459000000035
        ]
      },
      "properties" : {
        "OBJECTID" : 157,
        "name" : "H1-149.有明ガーデン 公園口 / ARIAKE GARDEN PARK ENTRANCE",
        "lon" : 139.79220900000001,
        "lat" : 35.637459
      }
    },
    {
      "type" : "Feature",
      "id" : 158,
      "geometry" : {
        "type" : "Point",
        "coordinates" : [
          139.79220900000007,
          35.637459000000035
        ]
      },
      "properties" : {
        "OBJECTID" : 158,
        "name" : "H1-150. ホテルヴィラフォンテーヌ南側 / Hotel Villa Fontaine South side",
        "lon" : 139.79220900000001,
        "lat" : 35.637459
      }
    },
    {
      "type" : "Feature",
      "id" : 159,
      "geometry" : {
        "type" : "Point",
        "coordinates" : [
          139.73470700000007,
          35.606382000000053
        ]
      },
      "properties" : {
        "OBJECTID" : 159,
        "name" : "I1-03.大井町駅中央口（西側）/ Oimachi Station Central Exit (West Side)",
        "lon" : 139.73470699999999,
        "lat" : 35.606382000000004
      }
    },
    {
      "type" : "Feature",
      "id" : 160,
      "geometry" : {
        "type" : "Point",
        "coordinates" : [
          139.73470700000007,
          35.606382000000053
        ]
      },
      "properties" : {
        "OBJECTID" : 160,
        "name" : "I1-04.大井町歩道橋 / Oimachi Footbridge",
        "lon" : 139.73470699999999,
        "lat" : 35.606382000000004
      }
    },
    {
      "type" : "Feature",
      "id" : 161,
      "geometry" : {
        "type" : "Point",
        "coordinates" : [
          139.73630300000002,
          35.590367000000072
        ]
      },
      "properties" : {
        "OBJECTID" : 161,
        "name" : "I1-07.しながわ水族館 / Shinagawa Aquarium",
        "lon" : 139.73630299999999,
        "lat" : 35.590367000000001
      }
    },
    {
      "type" : "Feature",
      "id" : 162,
      "geometry" : {
        "type" : "Point",
        "coordinates" : [
          139.74945400000001,
          35.607722000000081
        ]
      },
      "properties" : {
        "OBJECTID" : 162,
        "name" : "I1-10.品川シーサイド公園第1 / Shinagawa Sea Side Park Dai-1",
        "lon" : 139.74945399999999,
        "lat" : 35.607722000000003
      }
    },
    {
      "type" : "Feature",
      "id" : 163,
      "geometry" : {
        "type" : "Point",
        "coordinates" : [
          139.75132900000006,
          35.621943000000044
        ]
      },
      "properties" : {
        "OBJECTID" : 163,
        "name" : "I1-08.天王洲アイル第一水辺広場 / Tennozu Isle Dai-1 Waterside Square",
        "lon" : 139.751329,
        "lat" : 35.621943000000002
      }
    },
    {
      "type" : "Feature",
      "id" : 164,
      "geometry" : {
        "type" : "Point",
        "coordinates" : [
          139.74089500000002,
          35.596109000000069
        ]
      },
      "properties" : {
        "OBJECTID" : 164,
        "name" : "I1-12.しながわ区民公園（北側）/ Shinagawa-kumin Park (North Side)",
        "lon" : 139.74089499999999,
        "lat" : 35.596108999999998
      }
    },
    {
      "type" : "Feature",
      "id" : 165,
      "geometry" : {
        "type" : "Point",
        "coordinates" : [
          139.7453240000001,
          35.609275000000082
        ]
      },
      "properties" : {
        "OBJECTID" : 165,
        "name" : "I1-15.セブン-イレブン 東品川4丁目店 / Seven-Eleven Shinagawa Higashishinagawa 4 Chome shop",
        "lon" : 139.74532400000001,
        "lat" : 35.609274999999997
      }
    },
    {
      "type" : "Feature",
      "id" : 166,
      "geometry" : {
        "type" : "Point",
        "coordinates" : [
          139.74451500000009,
          35.604009000000076
        ]
      },
      "properties" : {
        "OBJECTID" : 166,
        "name" : "I1-11.鮫洲入江広場 / Samezu Irie Park",
        "lon" : 139.74451500000001,
        "lat" : 35.604008999999998
      }
    },
    {
      "type" : "Feature",
      "id" : 167,
      "geometry" : {
        "type" : "Point",
        "coordinates" : [
          139.74827900000003,
          35.609669000000054
        ]
      },
      "properties" : {
        "OBJECTID" : 167,
        "name" : "I1-19.品川シーサイド公園第2 / Shinagawa Sea Side Park Dai-2",
        "lon" : 139.748279,
        "lat" : 35.609668999999997
      }
    },
    {
      "type" : "Feature",
      "id" : 168,
      "geometry" : {
        "type" : "Point",
        "coordinates" : [
          139.74205100000006,
          35.621672000000046
        ]
      },
      "properties" : {
        "OBJECTID" : 168,
        "name" : "I1-16.品川浦第一 / Shinagawa-ura Dai-1",
        "lon" : 139.742051,
        "lat" : 35.621671999999997
      }
    },
    {
      "type" : "Feature",
      "id" : 169,
      "geometry" : {
        "type" : "Point",
        "coordinates" : [
          139.75051400000007,
          35.597642000000064
        ]
      },
      "properties" : {
        "OBJECTID" : 169,
        "name" : "I1-20.しおじ公園 / Shioji Park",
        "lon" : 139.75051400000001,
        "lat" : 35.597642
      }
    },
    {
      "type" : "Feature",
      "id" : 170,
      "geometry" : {
        "type" : "Point",
        "coordinates" : [
          139.74508500000002,
          35.601497000000052
        ]
      },
      "properties" : {
        "OBJECTID" : 170,
        "name" : "I1-22.ウィラ大井（ショッピングモール）/ WiRA Ooi (Shopping Mall)",
        "lon" : 139.74508499999999,
        "lat" : 35.601497000000002
      }
    },
    {
      "type" : "Feature",
      "id" : 171,
      "geometry" : {
        "type" : "Point",
        "coordinates" : [
          139.73933700000009,
          35.616421000000059
        ]
      },
      "properties" : {
        "OBJECTID" : 171,
        "name" : "I1-23.東海橋防災船着場 / Tokai Bridge Disaster Prevention Port",
        "lon" : 139.73933700000001,
        "lat" : 35.616421000000003
      }
    },
    {
      "type" : "Feature",
      "id" : 172,
      "geometry" : {
        "type" : "Point",
        "coordinates" : [
          139.72959800000001,
          35.616966000000048
        ]
      },
      "properties" : {
        "OBJECTID" : 172,
        "name" : "I1-26.大崎西口公園 / Osaki Nishiguchi Park",
        "lon" : 139.72959800000001,
        "lat" : 35.616965999999998
      }
    },
    {
      "type" : "Feature",
      "id" : 173,
      "geometry" : {
        "type" : "Point",
        "coordinates" : [
          139.73119400000007,
          35.62105100000008
        ]
      },
      "properties" : {
        "OBJECTID" : 173,
        "name" : "I1-27.小関橋公園\u00A0 / Koseki Bashi Park",
        "lon" : 139.73119399999999,
        "lat" : 35.621051000000001
      }
    },
    {
      "type" : "Feature",
      "id" : 174,
      "geometry" : {
        "type" : "Point",
        "coordinates" : [
          139.7328930000001,
          35.590752000000066
        ]
      },
      "properties" : {
        "OBJECTID" : 174,
        "name" : "I1-36.ローソン 南大井六丁目店 / LAWSON Minami-Oi 6 Chome shop",
        "lon" : 139.73289299999999,
        "lat" : 35.590752000000002
      }
    },
    {
      "type" : "Feature",
      "id" : 175,
      "geometry" : {
        "type" : "Point",
        "coordinates" : [
          139.736942,
          35.59550500000006
        ]
      },
      "properties" : {
        "OBJECTID" : 175,
        "name" : "I1-43.京急南大井駐車場 / KEIKYU Parking Minamioi",
        "lon" : 139.736942,
        "lat" : 35.595505000000003
      }
    },
    {
      "type" : "Feature",
      "id" : 176,
      "geometry" : {
        "type" : "Point",
        "coordinates" : [
          139.74237000000005,
          35.611177000000055
        ]
      },
      "properties" : {
        "OBJECTID" : 176,
        "name" : "I1-42.京急青横駐車場 / KEIKYU Parking Aoyoko",
        "lon" : 139.74236999999999,
        "lat" : 35.611176999999998
      }
    },
    {
      "type" : "Feature",
      "id" : 177,
      "geometry" : {
        "type" : "Point",
        "coordinates" : [
          139.73438700000008,
          35.604531000000065
        ]
      },
      "properties" : {
        "OBJECTID" : 177,
        "name" : "I1-44.大井三ツ又商店街入口 / Oi-Mitsumata-Shopping Street Entrance",
        "lon" : 139.734387,
        "lat" : 35.604531000000001
      }
    },
    {
      "type" : "Feature",
      "id" : 178,
      "geometry" : {
        "type" : "Point",
        "coordinates" : [
          139.74173200000007,
          35.603743000000065
        ]
      },
      "properties" : {
        "OBJECTID" : 178,
        "name" : "I1-49.京急鮫洲バイク駐輪場 / KEIKYU Bicycle Parking Samezu",
        "lon" : 139.74173200000001,
        "lat" : 35.603743000000001
      }
    },
    {
      "type" : "Feature",
      "id" : 179,
      "geometry" : {
        "type" : "Point",
        "coordinates" : [
          139.73885800000005,
          35.599145000000078
        ]
      },
      "properties" : {
        "OBJECTID" : 179,
        "name" : "I1-50.京急立会川第2バイク駐輪場 / KEIKYU Bicycle Parking Tachiaigawa 2",
        "lon" : 139.73885799999999,
        "lat" : 35.599145
      }
    },
    {
      "type" : "Feature",
      "id" : 180,
      "geometry" : {
        "type" : "Point",
        "coordinates" : [
          139.73566400000004,
          35.588388000000066
        ]
      },
      "properties" : {
        "OBJECTID" : 180,
        "name" : "I1-51.京急鈴ヶ森駐車場 / KEIKYU Parking Suzugamori",
        "lon" : 139.73566400000001,
        "lat" : 35.588388000000002
      }
    },
    {
      "type" : "Feature",
      "id" : 181,
      "geometry" : {
        "type" : "Point",
        "coordinates" : [
          139.73507000000006,
          35.593485000000044
        ]
      },
      "properties" : {
        "OBJECTID" : 181,
        "name" : "I1-55.鈴ヶ森公園 / Suzugamori Park",
        "lon" : 139.73507000000001,
        "lat" : 35.593485000000001
      }
    },
    {
      "type" : "Feature",
      "id" : 182,
      "geometry" : {
        "type" : "Point",
        "coordinates" : [
          139.7536980000001,
          35.600345000000061
        ]
      },
      "properties" : {
        "OBJECTID" : 182,
        "name" : "I1-67.八潮公園第一 / Yashio Park Dai-1",
        "lon" : 139.75369800000001,
        "lat" : 35.600344999999997
      }
    },
    {
      "type" : "Feature",
      "id" : 183,
      "geometry" : {
        "type" : "Point",
        "coordinates" : [
          139.7536980000001,
          35.600345000000061
        ]
      },
      "properties" : {
        "OBJECTID" : 183,
        "name" : "I1-68.八潮公園第二 / Yashio Park Dai-2",
        "lon" : 139.75369800000001,
        "lat" : 35.600344999999997
      }
    },
    {
      "type" : "Feature",
      "id" : 184,
      "geometry" : {
        "type" : "Point",
        "coordinates" : [
          139.74205100000006,
          35.621672000000046
        ]
      },
      "properties" : {
        "OBJECTID" : 184,
        "name" : "I1-79.品川浦第二 / Shinagawa-ura Dai-2",
        "lon" : 139.742051,
        "lat" : 35.621671999999997
      }
    },
    {
      "type" : "Feature",
      "id" : 185,
      "geometry" : {
        "type" : "Point",
        "coordinates" : [
          139.75019500000008,
          35.599525000000085
        ]
      },
      "properties" : {
        "OBJECTID" : 185,
        "name" : "I1-83.かもめ歩道橋 / Kamome Footbridge",
        "lon" : 139.75019499999999,
        "lat" : 35.599525
      }
    },
    {
      "type" : "Feature",
      "id" : 186,
      "geometry" : {
        "type" : "Point",
        "coordinates" : [
          139.7126320000001,
          35.643489000000045
        ]
      },
      "properties" : {
        "OBJECTID" : 186,
        "name" : "M2-02.アメリカ橋公園 / American Bridge Park",
        "lon" : 139.71263200000001,
        "lat" : 35.643489000000002
      }
    },
    {
      "type" : "Feature",
      "id" : 187,
      "geometry" : {
        "type" : "Point",
        "coordinates" : [
          139.69996500000002,
          35.655458000000067
        ]
      },
      "properties" : {
        "OBJECTID" : 187,
        "name" : "M3-02.文化総合センター大和田 / Shibuya Cultural Center Owada",
        "lon" : 139.69996499999999,
        "lat" : 35.655458000000003
      }
    },
    {
      "type" : "Feature",
      "id" : 188,
      "geometry" : {
        "type" : "Point",
        "coordinates" : [
          139.7193420000001,
          35.642306000000076
        ]
      },
      "properties" : {
        "OBJECTID" : 188,
        "name" : "M2-09.カーサス プレンディッド恵比寿 / CASA SPLENDIDO EBISU",
        "lon" : 139.71934200000001,
        "lat" : 35.642305999999998
      }
    },
    {
      "type" : "Feature",
      "id" : 189,
      "geometry" : {
        "type" : "Point",
        "coordinates" : [
          139.70374200000003,
          35.658244000000082
        ]
      },
      "properties" : {
        "OBJECTID" : 189,
        "name" : "M3-13.渋谷駅東口地下駐輪場 / Shibuya Station East Bicycle Basement",
        "lon" : 139.70374200000001,
        "lat" : 35.658244000000003
      }
    },
    {
      "type" : "Feature",
      "id" : 190,
      "geometry" : {
        "type" : "Point",
        "coordinates" : [
          139.70821000000001,
          35.671799000000078
        ]
      },
      "properties" : {
        "OBJECTID" : 190,
        "name" : "M4-06.THE SHARE 原宿 / THE SHARE Harajuku",
        "lon" : 139.70821000000001,
        "lat" : 35.671799
      }
    },
    {
      "type" : "Feature",
      "id" : 191,
      "geometry" : {
        "type" : "Point",
        "coordinates" : [
          139.71299800000008,
          35.680893000000083
        ]
      },
      "properties" : {
        "OBJECTID" : 191,
        "name" : "M4-07.千駄ヶ谷駅前 / Sendagaya Station",
        "lon" : 139.712998,
        "lat" : 35.680892999999998
      }
    },
    {
      "type" : "Feature",
      "id" : 192,
      "geometry" : {
        "type" : "Point",
        "coordinates" : [
          139.70350300000007,
          35.684751000000063
        ]
      },
      "properties" : {
        "OBJECTID" : 192,
        "name" : "M4-11.千駄ヶ谷5丁目 / Sendagaya 5 chome",
        "lon" : 139.70350300000001,
        "lat" : 35.684750999999999
      }
    },
    {
      "type" : "Feature",
      "id" : 193,
      "geometry" : {
        "type" : "Point",
        "coordinates" : [
          139.68619200000001,
          35.680446000000074
        ]
      },
      "properties" : {
        "OBJECTID" : 193,
        "name" : "M5-01.初台駅南口 / Hatsudai Sta. South Exit",
        "lon" : 139.68619200000001,
        "lat" : 35.680446000000003
      }
    },
    {
      "type" : "Feature",
      "id" : 194,
      "geometry" : {
        "type" : "Point",
        "coordinates" : [
          139.68084800000008,
          35.669624000000056
        ]
      },
      "properties" : {
        "OBJECTID" : 194,
        "name" : "M5-09.代々木上原駅前 / Yoyogi-Uehara Station",
        "lon" : 139.680848,
        "lat" : 35.669623999999999
      }
    },
    {
      "type" : "Feature",
      "id" : 195,
      "geometry" : {
        "type" : "Point",
        "coordinates" : [
          139.67670100000009,
          35.677419000000043
        ]
      },
      "properties" : {
        "OBJECTID" : 195,
        "name" : "M6-01.幡ヶ谷駅高架下第一 / Hatagaya Sta. Underpass 1st",
        "lon" : 139.67670100000001,
        "lat" : 35.677419
      }
    },
    {
      "type" : "Feature",
      "id" : 196,
      "geometry" : {
        "type" : "Point",
        "coordinates" : [
          139.67056100000002,
          35.675882000000058
        ]
      },
      "properties" : {
        "OBJECTID" : 196,
        "name" : "M6-07.笹塚東 / Sasazuka Higashi",
        "lon" : 139.67056099999999,
        "lat" : 35.675882000000001
      }
    },
    {
      "type" : "Feature",
      "id" : 197,
      "geometry" : {
        "type" : "Point",
        "coordinates" : [
          139.66960400000005,
          35.674637000000075
        ]
      },
      "properties" : {
        "OBJECTID" : 197,
        "name" : "M6-11.京王サイクルパーク笹塚 / KEIO Cyclepark Sasazuka",
        "lon" : 139.66960399999999,
        "lat" : 35.674636999999997
      }
    },
    {
      "type" : "Feature",
      "id" : 198,
      "geometry" : {
        "type" : "Point",
        "coordinates" : [
          139.74891500000001,
          35.66207600000007
        ]
      },
      "properties" : {
        "OBJECTID" : 198,
        "name" : "C1-09.愛宕グリーンヒルズ /\u00A0Atago GREEN HILLS",
        "lon" : 139.74891500000001,
        "lat" : 35.662075999999999
      }
    },
    {
      "type" : "Feature",
      "id" : 199,
      "geometry" : {
        "type" : "Point",
        "coordinates" : [
          139.75655600000005,
          35.692070000000058
        ]
      },
      "properties" : {
        "OBJECTID" : 199,
        "name" : "A2-17.竹橋ビル / Takebashi Building",
        "lon" : 139.75655599999999,
        "lat" : 35.692070000000001
      }
    },
    {
      "type" : "Feature",
      "id" : 200,
      "geometry" : {
        "type" : "Point",
        "coordinates" : [
          139.74426900000003,
          35.688416000000075
        ]
      },
      "properties" : {
        "OBJECTID" : 200,
        "name" : "A6-16.一番町第二TGビル / Ichibancho-daini TG Building",
        "lon" : 139.744269,
        "lat" : 35.688415999999997
      }
    },
    {
      "type" : "Feature",
      "id" : 201,
      "geometry" : {
        "type" : "Point",
        "coordinates" : [
          139.69851100000005,
          35.664101000000073
        ]
      },
      "properties" : {
        "OBJECTID" : 201,
        "name" : "M1-01.渋谷区役所 / Shibuya City Office",
        "lon" : 139.698511,
        "lat" : 35.664101000000002
      }
    },
    {
      "type" : "Feature",
      "id" : 202,
      "geometry" : {
        "type" : "Point",
        "coordinates" : [
          139.69920400000001,
          35.661450000000059
        ]
      },
      "properties" : {
        "OBJECTID" : 202,
        "name" : "M3-09.ティップ.クロス TOKYO 渋谷 / TIP.X TOKYO Shibuya",
        "lon" : 139.69920400000001,
        "lat" : 35.661450000000002
      }
    },
    {
      "type" : "Feature",
      "id" : 203,
      "geometry" : {
        "type" : "Point",
        "coordinates" : [
          139.70655600000009,
          35.617448000000081
        ]
      },
      "properties" : {
        "OBJECTID" : 203,
        "name" : "I1-28.ローソン 品川荏原三丁目店 / LAWSON Shinagawa Ebara 3 Chome shop",
        "lon" : 139.70655600000001,
        "lat" : 35.617448000000003
      }
    },
    {
      "type" : "Feature",
      "id" : 204,
      "geometry" : {
        "type" : "Point",
        "coordinates" : [
          139.74247300000002,
          35.678137000000049
        ]
      },
      "properties" : {
        "OBJECTID" : 204,
        "name" : "A5-03.参議院第二別館（永田町駅2番出口） /\u00A0Second Annex of House of Councillors（Nagatacho station No.2 Exit)",
        "lon" : 139.74247299999999,
        "lat" : 35.678137
      }
    },
    {
      "type" : "Feature",
      "id" : 205,
      "geometry" : {
        "type" : "Point",
        "coordinates" : [
          139.74072200000001,
          35.673050000000046
        ]
      },
      "properties" : {
        "OBJECTID" : 205,
        "name" : "A5-02.山王パークタワー /\u00A0Sanno Park",
        "lon" : 139.74072200000001,
        "lat" : 35.673050000000003
      }
    },
    {
      "type" : "Feature",
      "id" : 206,
      "geometry" : {
        "type" : "Point",
        "coordinates" : [
          139.74115200000006,
          35.674601000000052
        ]
      },
      "properties" : {
        "OBJECTID" : 206,
        "name" : "【休止中】A5-06.APA HOTEL PRIDE〈国会議事堂前〉/ APA HOTEL PRIDE〈KOKKAIGIJIDOMAE〉",
        "lon" : 139.741152,
        "lat" : 35.674601000000003
      }
    },
    {
      "type" : "Feature",
      "id" : 207,
      "geometry" : {
        "type" : "Point",
        "coordinates" : [
          139.69345500000009,
          35.656083000000081
        ]
      },
      "properties" : {
        "OBJECTID" : 207,
        "name" : "M3-18.渋谷カプセルバンブーホテル / Shibuya Capsule BAMBOO HOTEL",
        "lon" : 139.693455,
        "lat" : 35.656083000000002
      }
    },
    {
      "type" : "Feature",
      "id" : 208,
      "geometry" : {
        "type" : "Point",
        "coordinates" : [
          139.69977600000004,
          35.648884000000066
        ]
      },
      "properties" : {
        "OBJECTID" : 208,
        "name" : "M3-03.代官山T-SITE / DAIKANYAMA T-SITE",
        "lon" : 139.69977600000001,
        "lat" : 35.648884000000002
      }
    },
    {
      "type" : "Feature",
      "id" : 209,
      "geometry" : {
        "type" : "Point",
        "coordinates" : [
          139.81443400000001,
          35.664646000000062
        ]
      },
      "properties" : {
        "OBJECTID" : 209,
        "name" : "H1-32.区営塩浜住宅前 /\u00A0Shiohama Juutaku",
        "lon" : 139.81443400000001,
        "lat" : 35.664645999999998
      }
    },
    {
      "type" : "Feature",
      "id" : 210,
      "geometry" : {
        "type" : "Point",
        "coordinates" : [
          139.80866800000001,
          35.662992000000088
        ]
      },
      "properties" : {
        "OBJECTID" : 210,
        "name" : "H1-112.ファミリーマート江東塩浜二丁目店 / Family Mart Koto Shiohama 2Chome Store",
        "lon" : 139.80866800000001,
        "lat" : 35.662992000000003
      }
    },
    {
      "type" : "Feature",
      "id" : 211,
      "geometry" : {
        "type" : "Point",
        "coordinates" : [
          139.69891800000005,
          35.71595700000006
        ]
      },
      "properties" : {
        "OBJECTID" : 211,
        "name" : "D7-01.下落合図書館 / Shimo-Ochiai Library",
        "lon" : 139.69891799999999,
        "lat" : 35.715957000000003
      }
    },
    {
      "type" : "Feature",
      "id" : 212,
      "geometry" : {
        "type" : "Point",
        "coordinates" : [
          139.70199700000001,
          35.72273000000007
        ]
      },
      "properties" : {
        "OBJECTID" : 212,
        "name" : "D7-04.セブン-イレブン 新宿下落合3丁目店 / Seven-Eleven Shinjuku Shimoochiai 3chome store",
        "lon" : 139.70199700000001,
        "lat" : 35.722729999999999
      }
    },
    {
      "type" : "Feature",
      "id" : 213,
      "geometry" : {
        "type" : "Point",
        "coordinates" : [
          139.70342600000004,
          35.69389300000006
        ]
      },
      "properties" : {
        "OBJECTID" : 213,
        "name" : "D6-01.新宿区役所本庁舎 / Shinjuku City Office Main Bldg.",
        "lon" : 139.70342600000001,
        "lat" : 35.693893000000003
      }
    },
    {
      "type" : "Feature",
      "id" : 214,
      "geometry" : {
        "type" : "Point",
        "coordinates" : [
          139.70376300000009,
          35.697581000000071
        ]
      },
      "properties" : {
        "OBJECTID" : 214,
        "name" : "D6-23. アパホテル 東新宿 歌舞伎町西 / APA Hotel Higashi Shinjuku Kabukicho Nishi",
        "lon" : 139.70376300000001,
        "lat" : 35.697581
      }
    },
    {
      "type" : "Feature",
      "id" : 215,
      "geometry" : {
        "type" : "Point",
        "coordinates" : [
          139.71873700000003,
          35.69699200000008
        ]
      },
      "properties" : {
        "OBJECTID" : 215,
        "name" : "D4-06.グリーンフォート河田 / Green Fort Kawada",
        "lon" : 139.718737,
        "lat" : 35.696992000000002
      }
    },
    {
      "type" : "Feature",
      "id" : 216,
      "geometry" : {
        "type" : "Point",
        "coordinates" : [
          139.75940000000003,
          35.656851000000074
        ]
      },
      "properties" : {
        "OBJECTID" : 216,
        "name" : "C1-21.汐留ビルディング /\u00A0Shiodome Building",
        "lon" : 139.7594,
        "lat" : 35.656851000000003
      }
    },
    {
      "type" : "Feature",
      "id" : 217,
      "geometry" : {
        "type" : "Point",
        "coordinates" : [
          139.7588300000001,
          35.650876000000039
        ]
      },
      "properties" : {
        "OBJECTID" : 217,
        "name" : "C5-17.鈴与浜松町ビル / Suzuyo Hamamatsucho Building",
        "lon" : 139.75882999999999,
        "lat" : 35.650875999999997
      }
    },
    {
      "type" : "Feature",
      "id" : 218,
      "geometry" : {
        "type" : "Point",
        "coordinates" : [
          139.75769000000003,
          35.64858600000008
        ]
      },
      "properties" : {
        "OBJECTID" : 218,
        "name" : "C5-27.プレミア海岸ビル / Premier Kaigan Bldg",
        "lon" : 139.75769,
        "lat" : 35.648586000000002
      }
    },
    {
      "type" : "Feature",
      "id" : 219,
      "geometry" : {
        "type" : "Point",
        "coordinates" : [
          139.76075200000002,
          35.651658000000054
        ]
      },
      "properties" : {
        "OBJECTID" : 219,
        "name" : "C5-29.Hi-NODE（ハイノード）",
        "lon" : 139.760752,
        "lat" : 35.651657999999998
      }
    },
    {
      "type" : "Feature",
      "id" : 220,
      "geometry" : {
        "type" : "Point",
        "coordinates" : [
          139.75534700000003,
          35.639846000000034
        ]
      },
      "properties" : {
        "OBJECTID" : 220,
        "name" : "C5-25.NEX-TEC芝浦 / NEX-TEC Shibaura",
        "lon" : 139.755347,
        "lat" : 35.639845999999999
      }
    },
    {
      "type" : "Feature",
      "id" : 221,
      "geometry" : {
        "type" : "Point",
        "coordinates" : [
          139.75657699999999,
          35.644729000000041
        ]
      },
      "properties" : {
        "OBJECTID" : 221,
        "name" : "C5-26.ピアシティ芝浦ビル / PIRE CITY SHIBAURA BUILDING",
        "lon" : 139.75657699999999,
        "lat" : 35.644728999999998
      }
    },
    {
      "type" : "Feature",
      "id" : 222,
      "geometry" : {
        "type" : "Point",
        "coordinates" : [
          139.75161500000002,
          35.63657100000006
        ]
      },
      "properties" : {
        "OBJECTID" : 222,
        "name" : "C5-34.五色橋ビル /\nGOSHIKIBASHI BLDG.",
        "lon" : 139.75161499999999,
        "lat" : 35.636571000000004
      }
    },
    {
      "type" : "Feature",
      "id" : 223,
      "geometry" : {
        "type" : "Point",
        "coordinates" : [
          139.81796300000008,
          35.680497000000059
        ]
      },
      "properties" : {
        "OBJECTID" : 223,
        "name" : "H1-124.セブン‐イレブン江東海辺店 / Seven-Eleven Koto Umibe store",
        "lon" : 139.81796299999999,
        "lat" : 35.680497000000003
      }
    },
    {
      "type" : "Feature",
      "id" : 224,
      "geometry" : {
        "type" : "Point",
        "coordinates" : [
          139.76793800000007,
          35.702102000000082
        ]
      },
      "properties" : {
        "OBJECTID" : 224,
        "name" : "A3-08.神田明神（神田神社）/ Kanda Myoujin (Kanda Shrine )",
        "lon" : 139.76793799999999,
        "lat" : 35.702101999999996
      }
    },
    {
      "type" : "Feature",
      "id" : 225,
      "geometry" : {
        "type" : "Point",
        "coordinates" : [
          139.76975100000004,
          35.701897000000088
        ]
      },
      "properties" : {
        "OBJECTID" : 225,
        "name" : "A3-10.芳林公園（北側）/\u00A0Hourin Park(North Side)",
        "lon" : 139.76975100000001,
        "lat" : 35.701897000000002
      }
    },
    {
      "type" : "Feature",
      "id" : 226,
      "geometry" : {
        "type" : "Point",
        "coordinates" : [
          139.7725660000001,
          35.700325000000078
        ]
      },
      "properties" : {
        "OBJECTID" : 226,
        "name" : "A3-12.秋葉原UDX北側駐輪場前 /\u00A0Akihabara UDX(North Side)",
        "lon" : 139.77256600000001,
        "lat" : 35.700324999999999
      }
    },
    {
      "type" : "Feature",
      "id" : 227,
      "geometry" : {
        "type" : "Point",
        "coordinates" : [
          139.772155,
          35.699226000000067
        ]
      },
      "properties" : {
        "OBJECTID" : 227,
        "name" : "A3-41.秋葉原ダイビル / Akihabara Daibiru Building",
        "lon" : 139.772155,
        "lat" : 35.699226000000003
      }
    },
    {
      "type" : "Feature",
      "id" : 228,
      "geometry" : {
        "type" : "Point",
        "coordinates" : [
          139.77104200000008,
          35.703755000000058
        ]
      },
      "properties" : {
        "OBJECTID" : 228,
        "name" : "A3-11.練成公園 /\u00A0Rensei Park",
        "lon" : 139.77104199999999,
        "lat" : 35.703755000000001
      }
    },
    {
      "type" : "Feature",
      "id" : 229,
      "geometry" : {
        "type" : "Point",
        "coordinates" : [
          139.76641500000005,
          35.684122000000059
        ]
      },
      "properties" : {
        "OBJECTID" : 229,
        "name" : "A4-08.永代通り（大手町駅B2c出口前） / Eitai-dori（beside Otemachi Sta.B2c Exit）",
        "lon" : 139.76641499999999,
        "lat" : 35.684122000000002
      }
    },
    {
      "type" : "Feature",
      "id" : 230,
      "geometry" : {
        "type" : "Point",
        "coordinates" : [
          139.7637840000001,
          35.680976000000044
        ]
      },
      "properties" : {
        "OBJECTID" : 230,
        "name" : "A4-01.丸ビル（南側駐輪場） /\u00A0Marunouchi Build.(Southern Cycle Port)",
        "lon" : 139.76378399999999,
        "lat" : 35.680976000000001
      }
    },
    {
      "type" : "Feature",
      "id" : 231,
      "geometry" : {
        "type" : "Point",
        "coordinates" : [
          139.76352700000007,
          35.676751000000081
        ]
      },
      "properties" : {
        "OBJECTID" : 231,
        "name" : "A4-03.東京国際フォーラム（メトロD5出口） /\u00A0Tokyo International Forum (Metro D5 Exit)",
        "lon" : 139.76352700000001,
        "lat" : 35.676751000000003
      }
    },
    {
      "type" : "Feature",
      "id" : 232,
      "geometry" : {
        "type" : "Point",
        "coordinates" : [
          139.77531600000009,
          35.691136000000085
        ]
      },
      "properties" : {
        "OBJECTID" : 232,
        "name" : "A3-16.地蔵橋東児童遊園 /\u00A0Jizoubashi East Children Park",
        "lon" : 139.775316,
        "lat" : 35.691136
      }
    },
    {
      "type" : "Feature",
      "id" : 233,
      "geometry" : {
        "type" : "Point",
        "coordinates" : [
          139.77974500000005,
          35.693201000000045
        ]
      },
      "properties" : {
        "OBJECTID" : 233,
        "name" : "A3-22.龍閑児童公園 /\u00A0Ryukan Children’s Park",
        "lon" : 139.77974499999999,
        "lat" : 35.693201000000002
      }
    },
    {
      "type" : "Feature",
      "id" : 234,
      "geometry" : {
        "type" : "Point",
        "coordinates" : [
          139.77781200000004,
          35.694328000000041
        ]
      },
      "properties" : {
        "OBJECTID" : 234,
        "name" : "A3-24.岩本町ほほえみプラザ / Iwamoto-cho Hohoemi Plaza",
        "lon" : 139.77781200000001,
        "lat" : 35.694327999999999
      }
    },
    {
      "type" : "Feature",
      "id" : 235,
      "geometry" : {
        "type" : "Point",
        "coordinates" : [
          139.70511600000009,
          35.607151000000044
        ]
      },
      "properties" : {
        "OBJECTID" : 235,
        "name" : "I1-25.セブン-イレブン 品川旗の台２丁目店 / 7-Eleven Shinagawa Hatanodai 2 Chome shop",
        "lon" : 139.705116,
        "lat" : 35.607151000000002
      }
    },
    {
      "type" : "Feature",
      "id" : 236,
      "geometry" : {
        "type" : "Point",
        "coordinates" : [
          139.73693600000001,
          35.682223000000079
        ]
      },
      "properties" : {
        "OBJECTID" : 236,
        "name" : "A6-09.紀尾井町ビル（北側） /\u00A0Kioicho Building(North side)",
        "lon" : 139.73693599999999,
        "lat" : 35.682223
      }
    },
    {
      "type" : "Feature",
      "id" : 237,
      "geometry" : {
        "type" : "Point",
        "coordinates" : [
          139.73693600000001,
          35.682223000000079
        ]
      },
      "properties" : {
        "OBJECTID" : 237,
        "name" : "A6-10.紀尾井町ビル（西側） /\u00A0Kioicho Building(West side)",
        "lon" : 139.73693599999999,
        "lat" : 35.682223
      }
    },
    {
      "type" : "Feature",
      "id" : 238,
      "geometry" : {
        "type" : "Point",
        "coordinates" : [
          139.8238990000001,
          35.696998000000065
        ]
      },
      "properties" : {
        "OBJECTID" : 238,
        "name" : "H1-91.亀戸駅北口第三自転車駐車場 / Kameido sta. North 3rd Bicycle garage",
        "lon" : 139.82389900000001,
        "lat" : 35.696998000000001
      }
    },
    {
      "type" : "Feature",
      "id" : 239,
      "geometry" : {
        "type" : "Point",
        "coordinates" : [
          139.82192000000009,
          35.697545000000048
        ]
      },
      "properties" : {
        "OBJECTID" : 239,
        "name" : "H1-100. URアーバンライフ亀戸 / UR URBAN LIFE KAMEIDO",
        "lon" : 139.82192000000001,
        "lat" : 35.697544999999998
      }
    },
    {
      "type" : "Feature",
      "id" : 240,
      "geometry" : {
        "type" : "Point",
        "coordinates" : [
          139.8253840000001,
          35.698399000000052
        ]
      },
      "properties" : {
        "OBJECTID" : 240,
        "name" : "H1-118.ファミリーマート亀戸駅前店 / Family Mart Kameido Ekimae Store",
        "lon" : 139.82538400000001,
        "lat" : 35.698399000000002
      }
    },
    {
      "type" : "Feature",
      "id" : 241,
      "geometry" : {
        "type" : "Point",
        "coordinates" : [
          139.82276100000001,
          35.699054000000046
        ]
      },
      "properties" : {
        "OBJECTID" : 241,
        "name" : "H1-141.スーパーホテル東京・亀戸 / Super Hotel Tokyo Kameido",
        "lon" : 139.82276100000001,
        "lat" : 35.699053999999997
      }
    },
    {
      "type" : "Feature",
      "id" : 242,
      "geometry" : {
        "type" : "Point",
        "coordinates" : [
          139.84329400000001,
          35.697685000000035
        ]
      },
      "properties" : {
        "OBJECTID" : 242,
        "name" : "H1-67.セブン-イレブン 江東亀戸９丁目店 /\u00A0Seven-Eleven Koto Kameido 9chome store",
        "lon" : 139.84329399999999,
        "lat" : 35.697685
      }
    },
    {
      "type" : "Feature",
      "id" : 243,
      "geometry" : {
        "type" : "Point",
        "coordinates" : [
          139.77303300000005,
          35.676457000000084
        ]
      },
      "properties" : {
        "OBJECTID" : 243,
        "name" : "B2-04.清水建設本社（都営地下鉄宝町A08出口） /\u00A0Shimizu Corporation Head Office",
        "lon" : 139.773033,
        "lat" : 35.676456999999999
      }
    },
    {
      "type" : "Feature",
      "id" : 244,
      "geometry" : {
        "type" : "Point",
        "coordinates" : [
          139.76953400000002,
          35.677310000000034
        ]
      },
      "properties" : {
        "OBJECTID" : 244,
        "name" : "B2-11.京橋エドグラン / KYOBASHI EDOGRAND",
        "lon" : 139.76953399999999,
        "lat" : 35.677309999999999
      }
    },
    {
      "type" : "Feature",
      "id" : 245,
      "geometry" : {
        "type" : "Point",
        "coordinates" : [
          139.7653140000001,
          35.668580000000077
        ]
      },
      "properties" : {
        "OBJECTID" : 245,
        "name" : "B3-15.ACホテル・バイ・マリオット東京銀座 / AC Hotel Tokyo Ginza",
        "lon" : 139.76531399999999,
        "lat" : 35.668579999999999
      }
    },
    {
      "type" : "Feature",
      "id" : 246,
      "geometry" : {
        "type" : "Point",
        "coordinates" : [
          139.76650200000006,
          35.667487000000051
        ]
      },
      "properties" : {
        "OBJECTID" : 246,
        "name" : "B3-17.銀座6丁目-SQUARE / Ginza 6-chome SQUARE",
        "lon" : 139.766502,
        "lat" : 35.667487000000001
      }
    },
    {
      "type" : "Feature",
      "id" : 247,
      "geometry" : {
        "type" : "Point",
        "coordinates" : [
          139.75361800000007,
          35.694012000000043
        ]
      },
      "properties" : {
        "OBJECTID" : 247,
        "name" : "A1-01.千代田区役所 /\u00A0Chiyoda City Office",
        "lon" : 139.75361799999999,
        "lat" : 35.694012000000001
      }
    },
    {
      "type" : "Feature",
      "id" : 248,
      "geometry" : {
        "type" : "Point",
        "coordinates" : [
          139.75050600000009,
          35.696352000000047
        ]
      },
      "properties" : {
        "OBJECTID" : 248,
        "name" : "A1-10.ヒューリック九段ビル /\u00A0Hulic Kudan Building",
        "lon" : 139.750506,
        "lat" : 35.696351999999997
      }
    },
    {
      "type" : "Feature",
      "id" : 249,
      "geometry" : {
        "type" : "Point",
        "coordinates" : [
          139.75061600000004,
          35.69574300000005
        ]
      },
      "properties" : {
        "OBJECTID" : 249,
        "name" : "A1-12.北の丸スクエア / KITANOMARU SQUARE",
        "lon" : 139.75061600000001,
        "lat" : 35.695743
      }
    },
    {
      "type" : "Feature",
      "id" : 250,
      "geometry" : {
        "type" : "Point",
        "coordinates" : [
          139.7156050000001,
          35.647535000000062
        ]
      },
      "properties" : {
        "OBJECTID" : 250,
        "name" : "M2-06.あいおいニッセイ同和損保恵比寿ビル / Aioi Nissay Dowa Insurance Ebisu Bldg.",
        "lon" : 139.71560500000001,
        "lat" : 35.647534999999998
      }
    },
    {
      "type" : "Feature",
      "id" : 251,
      "geometry" : {
        "type" : "Point",
        "coordinates" : [
          139.71283200000005,
          35.647123000000079
        ]
      },