{
  "type" : "FeatureCollection",
  "features" : [
    {
      "type" : "Feature",
      "id" : 1,
      "geometry" : {
        "type" : "Point",
        "coordinates" : [
          130.40555000000006,
          33.589210000000037
        ]
      },
      "properties" : {
        "OBJECTID" : 1,
        "name" : "カンテサンス",
        "lon" : 130.40555000000001,
        "lat" : 33.589210000000001
      }
    },
    {
      "type" : "Feature",
      "id" : 2,
      "geometry" : {
        "type" : "Point",
        "coordinates" : [
          139.73539000000005,
          35.590740000000039
        ]
      },
      "properties" : {
        "OBJECTID" : 2,
        "name" : "まき村",
        "lon" : 139.73539,
        "lat" : 35.590739999999997
      }
    },
    {
      "type" : "Feature",
      "id" : 3,
      "geometry" : {
        "type" : "Point",
        "coordinates" : [
          139.7169100000001,
          35.63426000000004
        ]
      },
      "properties" : {
        "OBJECTID" : 3,
        "name" : "鳥しき",
        "lon" : 139.71691000000001,
        "lat" : 35.634259999999998
      }
    },
    {
      "type" : "Feature",
      "id" : 4,
      "geometry" : {
        "type" : "Point",
        "coordinates" : [
          139.77970000000005,
          35.669940000000054
        ]
      },
      "properties" : {
        "OBJECTID" : 4,
        "name" : "味ひろ",
        "lon" : 139.77969999999999,
        "lat" : 35.669939999999997
      }
    },
    {
      "type" : "Feature",
      "id" : 5,
      "geometry" : {
        "type" : "Point",
        "coordinates" : [
          139.78451000000007,
          35.686240000000055
        ]
      },
      "properties" : {
        "OBJECTID" : 5,
        "name" : "日本橋 蕎ノ字",
        "lon" : 139.78451000000001,
        "lat" : 35.686239999999998
      }
    },
    {
      "type" : "Feature",
      "id" : 6,
      "geometry" : {
        "type" : "Point",
        "coordinates" : [
          139.78167000000008,
          35.685370000000034
        ]
      },
      "properties" : {
        "OBJECTID" : 6,
        "name" : "川田",
        "lon" : 139.78166999999999,
        "lat" : 35.685369999999999
      }
    },
    {
      "type" : "Feature",
      "id" : 7,
      "geometry" : {
        "type" : "Point",
        "coordinates" : [
          139.77858000000003,
          35.687190000000044
        ]
      },
      "properties" : {
        "OBJECTID" : 7,
        "name" : "おにく 花柳",
        "lon" : 139.77858000000001,
        "lat" : 35.687190000000001
      }
    },
    {
      "type" : "Feature",
      "id" : 8,
      "geometry" : {
        "type" : "Point",
        "coordinates" : [
          135.49248,
          34.698430000000087
        ]
      },
      "properties" : {
        "OBJECTID" : 8,
        "name" : "ラ・ボンヌターブル",
        "lon" : 135.49248,
        "lat" : 34.698430000000002
      }
    },
    {
      "type" : "Feature",
      "id" : 9,
      "geometry" : {
        "type" : "Point",
        "coordinates" : [
          139.77250000000004,
          35.686890000000062
        ]
      },
      "properties" : {
        "OBJECTID" : 9,
        "name" : "aca 1ｰ",
        "lon" : 139.77250000000001,
        "lat" : 35.686889999999998
      }
    },
    {
      "type" : "Feature",
      "id" : 10,
      "geometry" : {
        "type" : "Point",
        "coordinates" : [
          139.77326000000005,
          35.686840000000075
        ]
      },
      "properties" : {
        "OBJECTID" : 10,
        "name" : "広東料理 センス",
        "lon" : 139.77325999999999,
        "lat" : 35.686839999999997
      }
    },
    {
      "type" : "Feature",
      "id" : 11,
      "geometry" : {
        "type" : "Point",
        "coordinates" : [
          139.77557000000002,
          35.685090000000059
        ]
      },
      "properties" : {
        "OBJECTID" : 11,
        "name" : "ラ ペ",
        "lon" : 139.77556999999999,
        "lat" : 35.685090000000002
      }
    },
    {
      "type" : "Feature",
      "id" : 12,
      "geometry" : {
        "type" : "Point",
        "coordinates" : [
          139.77936,
          35.682740000000081
        ]
      },
      "properties" : {
        "OBJECTID" : 12,
        "name" : "ASAHINA Gastronome",
        "lon" : 139.77936,
        "lat" : 35.682740000000003
      }
    },
    {
      "type" : "Feature",
      "id" : 13,
      "geometry" : {
        "type" : "Point",
        "coordinates" : [
          139.78496000000007,
          35.68187000000006
        ]
      },
      "properties" : {
        "OBJECTID" : 13,
        "name" : "日本橋蛎殻町 すぎた",
        "lon" : 139.78496000000001,
        "lat" : 35.681870000000004
      }
    },
    {
      "type" : "Feature",
      "id" : 14,
      "geometry" : {
        "type" : "Point",
        "coordinates" : [
          139.78399000000002,
          35.682760000000087
        ]
      },
      "properties" : {
        "OBJECTID" : 14,
        "name" : "高柿の鮨",
        "lon" : 139.78398999999999,
        "lat" : 35.682760000000002
      }
    },
    {
      "type" : "Feature",
      "id" : 15,
      "geometry" : {
        "type" : "Point",
        "coordinates" : [
          139.77337,
          35.680050000000051
        ]
      },
      "properties" : {
        "OBJECTID" : 15,
        "name" : "ウェスタ",
        "lon" : 139.77337,
        "lat" : 35.680050000000001
      }
    },
    {
      "type" : "Feature",
      "id" : 16,
      "geometry" : {
        "type" : "Point",
        "coordinates" : [
          139.77338000000009,
          35.665290000000084
        ]
      },
      "properties" : {
        "OBJECTID" : 16,
        "name" : "六寛",
        "lon" : 139.77338,
        "lat" : 35.665289999999999
      }
    },
    {
      "type" : "Feature",
      "id" : 17,
      "geometry" : {
        "type" : "Point",
        "coordinates" : [
          139.77157,
          35.669860000000085
        ]
      },
      "properties" : {
        "OBJECTID" : 17,
        "name" : "東京チャイニーズ 一凛",
        "lon" : 139.77157,
        "lat" : 35.66986
      }
    },
    {
      "type" : "Feature",
      "id" : 18,
      "geometry" : {
        "type" : "Point",
        "coordinates" : [
          139.77447000000006,
          35.67292000000009
        ]
      },
      "properties" : {
        "OBJECTID" : 18,
        "name" : "鮨 はしもと",
        "lon" : 139.77447000000001,
        "lat" : 35.672919999999998
      }
    },
    {
      "type" : "Feature",
      "id" : 19,
      "geometry" : {
        "type" : "Point",
        "coordinates" : [
          139.78295000000003,
          35.662330000000054
        ]
      },
      "properties" : {
        "OBJECTID" : 19,
        "name" : "在市 月島本店",
        "lon" : 139.78295,
        "lat" : 35.662329999999997
      }
    },
    {
      "type" : "Feature",
      "id" : 20,
      "geometry" : {
        "type" : "Point",
        "coordinates" : [
          139.76102000000003,
          35.668260000000089
        ]
      },
      "properties" : {
        "OBJECTID" : 20,
        "name" : "中華たかせ",
        "lon" : 139.76102,
        "lat" : 35.668259999999997
      }
    },
    {
      "type" : "Feature",
      "id" : 21,
      "geometry" : {
        "type" : "Point",
        "coordinates" : [
          139.75960000000009,
          35.669710000000066
        ]
      },
      "properties" : {
        "OBJECTID" : 21,
        "name" : "トロワフレーシュ",
        "lon" : 139.75960000000001,
        "lat" : 35.669710000000002
      }
    },
    {
      "type" : "Feature",
      "id" : 22,
      "geometry" : {
        "type" : "Point",
        "coordinates" : [
          139.75952000000007,
          35.669400000000053
        ]
      },
      "properties" : {
        "OBJECTID" : 22,
        "name" : "鮨 とかみ",
        "lon" : 139.75952000000001,
        "lat" : 35.669400000000003
      }
    },
    {
      "type" : "Feature",
      "id" : 23,
      "geometry" : {
        "type" : "Point",
        "coordinates" : [
          139.76193000000001,
          35.670930000000055
        ]
      },
      "properties" : {
        "OBJECTID" : 23,
        "name" : "銀座 鮨 かねさか 本店",
        "lon" : 139.76193000000001,
        "lat" : 35.670929999999998
      }
    },
    {
      "type" : "Feature",
      "id" : 24,
      "geometry" : {
        "type" : "Point",
        "coordinates" : [
          139.76269000000002,
          35.668050000000051
        ]
      },
      "properties" : {
        "OBJECTID" : 24,
        "name" : "鮨 あらい",
        "lon" : 139.76268999999999,
        "lat" : 35.668050000000001
      }
    },
    {
      "type" : "Feature",
      "id" : 25,
      "geometry" : {
        "type" : "Point",
        "coordinates" : [
          139.78167000000008,
          35.685370000000034
        ]
      },
      "properties" : {
        "OBJECTID" : 25,
        "name" : "かわむら",
        "lon" : 139.78166999999999,
        "lat" : 35.685369999999999
      }
    },
    {
      "type" : "Feature",
      "id" : 26,
      "geometry" : {
        "type" : "Point",
        "coordinates" : [
          139.7622100000001,
          35.669080000000065
        ]
      },
      "properties" : {
        "OBJECTID" : 26,
        "name" : "神戸牛炉釜炭焼ステーキ IDEA 銀座",
        "lon" : 139.76221000000001,
        "lat" : 35.669080000000001
      }
    },
    {
      "type" : "Feature",
      "id" : 27,
      "geometry" : {
        "type" : "Point",
        "coordinates" : [
          139.76206999999999,
          35.669280000000072
        ]
      },
      "properties" : {
        "OBJECTID" : 27,
        "name" : "USHIGORO S. GINZA",
        "lon" : 139.76206999999999,
        "lat" : 35.669280000000001
      }
    },
    {
      "type" : "Feature",
      "id" : 28,
      "geometry" : {
        "type" : "Point",
        "coordinates" : [
          139.76140000000009,
          35.66996000000006
        ]
      },
      "properties" : {
        "OBJECTID" : 28,
        "name" : "ロオジエ",
        "lon" : 139.76140000000001,
        "lat" : 35.669960000000003
      }
    },
    {
      "type" : "Feature",
      "id" : 29,
      "geometry" : {
        "type" : "Point",
        "coordinates" : [
          139.76110000000006,
          35.670130000000086
        ]
      },
      "properties" : {
        "OBJECTID" : 29,
        "name" : "銀座 きた福",
        "lon" : 139.7611,
        "lat" : 35.67013
      }
    },
    {
      "type" : "Feature",
      "id" : 30,
      "geometry" : {
        "type" : "Point",
        "coordinates" : [
          139.76110000000006,
          35.670130000000086
        ]
      },
      "properties" : {
        "OBJECTID" : 30,
        "name" : "レンゲ",
        "lon" : 139.7611,
        "lat" : 35.67013
      }
    },
    {
      "type" : "Feature",
      "id" : 31,
      "geometry" : {
        "type" : "Point",
        "coordinates" : [
          139.76022,
          35.670270000000073
        ]
      },
      "properties" : {
        "OBJECTID" : 31,
        "name" : "鮨 竜介",
        "lon" : 139.76022,
        "lat" : 35.670270000000002
      }
    },
    {
      "type" : "Feature",
      "id" : 32,
      "geometry" : {
        "type" : "Point",
        "coordinates" : [
          141.33090000000004,
          43.057750000000055
        ]
      },
      "properties" : {
        "OBJECTID" : 32,
        "name" : "スリオラ",
        "lon" : 141.33090000000001,
        "lat" : 43.057749999999999
      }
    },
    {
      "type" : "Feature",
      "id" : 33,
      "geometry" : {
        "type" : "Point",
        "coordinates" : [
          139.76274000000001,
          35.670510000000036
        ]
      },
      "properties" : {
        "OBJECTID" : 33,
        "name" : "はっこく",
        "lon" : 139.76274000000001,
        "lat" : 35.67051
      }
    },
    {
      "type" : "Feature",
      "id" : 34,
      "geometry" : {
        "type" : "Point",
        "coordinates" : [
          139.76206000000002,
          35.671090000000049
        ]
      },
      "properties" : {
        "OBJECTID" : 34,
        "name" : "鮨 鈴木",
        "lon" : 139.76205999999999,
        "lat" : 35.67109
      }
    },
    {
      "type" : "Feature",
      "id" : 35,
      "geometry" : {
        "type" : "Point",
        "coordinates" : [
          139.76193000000001,
          35.670930000000055
        ]
      },
      "properties" : {
        "OBJECTID" : 35,
        "name" : "GINZA JOTAKI",
        "lon" : 139.76193000000001,
        "lat" : 35.670929999999998
      }
    },
    {
      "type" : "Feature",
      "id" : 36,
      "geometry" : {
        "type" : "Point",
        "coordinates" : [
          139.76197000000002,
          35.671610000000044
        ]
      },
      "properties" : {
        "OBJECTID" : 36,
        "name" : "肉屋 田中",
        "lon" : 139.76196999999999,
        "lat" : 35.671610000000001
      }
    },
    {
      "type" : "Feature",
      "id" : 37,
      "geometry" : {
        "type" : "Point",
        "coordinates" : [
          139.76129000000003,
          35.671750000000088
        ]
      },
      "properties" : {
        "OBJECTID" : 37,
        "name" : "鮨 さえ?",
        "lon" : 139.76129,
        "lat" : 35.671750000000003
      }
    },
    {
      "type" : "Feature",
      "id" : 38,
      "geometry" : {
        "type" : "Point",
        "coordinates" : [
          139.76096000000007,
          35.671430000000043
        ]
      },
      "properties" : {
        "OBJECTID" : 38,
        "name" : "きよ田",
        "lon" : 139.76096000000001,
        "lat" : 35.671430000000001
      }
    },
    {
      "type" : "Feature",
      "id" : 39,
      "geometry" : {
        "type" : "Point",
        "coordinates" : [
          139.76549,
          35.667840000000069
        ]
      },
      "properties" : {
        "OBJECTID" : 39,
        "name" : "ル・ジャルダン・デ・サヴール",
        "lon" : 139.76549,
        "lat" : 35.667839999999998
      }
    },
    {
      "type" : "Feature",
      "id" : 40,
      "geometry" : {
        "type" : "Point",
        "coordinates" : [
          139.76693,
          35.668690000000083
        ]
      },
      "properties" : {
        "OBJECTID" : 40,
        "name" : "井雪",
        "lon" : 139.76693,
        "lat" : 35.668689999999998
      }
    },
    {
      "type" : "Feature",
      "id" : 41,
      "geometry" : {
        "type" : "Point",
        "coordinates" : [
          139.76529000000005,
          35.670450000000073
        ]
      },
      "properties" : {
        "OBJECTID" : 41,
        "name" : "さわ田",
        "lon" : 139.76528999999999,
        "lat" : 35.670450000000002
      }
    },
    {
      "type" : "Feature",
      "id" : 42,
      "geometry" : {
        "type" : "Point",
        "coordinates" : [
          139.76357000000007,
          35.670730000000049
        ]
      },
      "properties" : {
        "OBJECTID" : 42,
        "name" : "喰善 あべ",
        "lon" : 139.76356999999999,
        "lat" : 35.670729999999999
      }
    },
    {
      "type" : "Feature",
      "id" : 43,
      "geometry" : {
        "type" : "Point",
        "coordinates" : [
          139.76110000000006,
          35.670130000000086
        ]
      },
      "properties" : {
        "OBJECTID" : 43,
        "name" : "銀座 小十",
        "lon" : 139.7611,
        "lat" : 35.67013
      }
    },
    {
      "type" : "Feature",
      "id" : 44,
      "geometry" : {
        "type" : "Point",
        "coordinates" : [
          139.76330000000007,
          35.671710000000076
        ]
      },
      "properties" : {
        "OBJECTID" : 44,
        "name" : "エスキス",
        "lon" : 139.76329999999999,
        "lat" : 35.671709999999997
      }
    },
    {
      "type" : "Feature",
      "id" : 45,
      "geometry" : {
        "type" : "Point",
        "coordinates" : [
          139.76560000000006,
          35.669590000000085
        ]
      },
      "properties" : {
        "OBJECTID" : 45,
        "name" : "ふぐ 福治",
        "lon" : 139.76560000000001,
        "lat" : 35.669589999999999
      }
    },
    {
      "type" : "Feature",
      "id" : 46,
      "geometry" : {
        "type" : "Point",
        "coordinates" : [
          139.76541000000009,
          35.671870000000069
        ]
      },
      "properties" : {
        "OBJECTID" : 46,
        "name" : "銀座 レカン",
        "lon" : 139.76541,
        "lat" : 35.671869999999998
      }
    },
    {
      "type" : "Feature",
      "id" : 47,
      "geometry" : {
        "type" : "Point",
        "coordinates" : [
          139.76408000000004,
          35.672580000000039
        ]
      },
      "properties" : {
        "OBJECTID" : 47,
        "name" : "すきやばし 次郎",
        "lon" : 139.76408000000001,
        "lat" : 35.672580000000004
      }
    },
    {
      "type" : "Feature",
      "id" : 48,
      "geometry" : {
        "type" : "Point",
        "coordinates" : [
          139.76552000000004,
          35.67312000000004
        ]
      },
      "properties" : {
        "OBJECTID" : 48,
        "name" : "銀座ふじやま",
        "lon" : 139.76552000000001,
        "lat" : 35.673119999999997
      }
    },
    {
      "type" : "Feature",
      "id" : 49,
      "geometry" : {
        "type" : "Point",
        "coordinates" : [
          139.76787000000002,
          35.672970000000078
        ]
      },
      "properties" : {
        "OBJECTID" : 49,
        "name" : "銀座 しのはら",
        "lon" : 139.76786999999999,
        "lat" : 35.672969999999999
      }
    },
    {
      "type" : "Feature",
      "id" : 50,
      "geometry" : {
        "type" : "Point",
        "coordinates" : [
          135.10026000000005,
          35.679990000000089
        ]
      },
      "properties" : {
        "OBJECTID" : 50,
        "name" : "銀座 大石",
        "lon" : 135.10025999999999,
        "lat" : 35.679989999999997
      }
    },
    {
      "type" : "Feature",
      "id" : 51,
      "geometry" : {
        "type" : "Point",
        "coordinates" : [
          139.76860000000011,
          35.674060000000054
        ]
      },
      "properties" : {
        "OBJECTID" : 51,
        "name" : "神戸牛炉釜ステーキ GINZA KOKO炉",
        "lon" : 139.76859999999999,
        "lat" : 35.674059999999997
      }
    },
    {
      "type" : "Feature",
      "id" : 52,
      "geometry" : {
        "type" : "Point",
        "coordinates" : [
          139.76702,
          35.674870000000055
        ]
      },
      "properties" : {
        "OBJECTID" : 52,
        "name" : "すし家 一柳",
        "lon" : 139.76702,
        "lat" : 35.674869999999999
      }
    },
    {
      "type" : "Feature",
      "id" : 53,
      "geometry" : {
        "type" : "Point",
        "coordinates" : [
          139.77075000000002,
          35.671930000000089
        ]
      },
      "properties" : {
        "OBJECTID" : 53,
        "name" : "CHIUnE",
        "lon" : 139.77074999999999,
        "lat" : 35.671930000000003
      }
    },
    {
      "type" : "Feature",
      "id" : 54,
      "geometry" : {
        "type" : "Point",
        "coordinates" : [
          139.77076,
          35.672550000000058
        ]
      },
      "properties" : {
        "OBJECTID" : 54,
        "name" : "フルタ",
        "lon" : 139.77076,
        "lat" : 35.672550000000001
      }
    },
    {
      "type" : "Feature",
      "id" : 55,
      "geometry" : {
        "type" : "Point",
        "coordinates" : [
          139.76958999999999,
          35.673240000000078
        ]
      },
      "properties" : {
        "OBJECTID" : 55,
        "name" : "鮨 たかはし",
        "lon" : 139.76958999999999,
        "lat" : 35.67324
      }
    },
    {
      "type" : "Feature",
      "id" : 56,
      "geometry" : {
        "type" : "Point",
        "coordinates" : [
          139.76989000000003,
          35.675140000000056
        ]
      },
      "properties" : {
        "OBJECTID" : 56,
        "name" : "イデミスギノ",
        "lon" : 139.76989,
        "lat" : 35.675139999999999
      }
    },
    {
      "type" : "Feature",
      "id" : 57,
      "geometry" : {
        "type" : "Point",
        "coordinates" : [
          139.77050000000008,
          35.676470000000052
        ]
      },
      "properties" : {
        "OBJECTID" : 57,
        "name" : "てんぷら 深町",
        "lon" : 139.7705,
        "lat" : 35.676470000000002
      }
    },
    {
      "type" : "Feature",
      "id" : 58,
      "geometry" : {
        "type" : "Point",
        "coordinates" : [
          139.76871000000006,
          35.676900000000046
        ]
      },
      "properties" : {
        "OBJECTID" : 58,
        "name" : "シェ・イノ",
        "lon" : 139.76871,
        "lat" : 35.676900000000003
      }
    },
    {
      "type" : "Feature",
      "id" : 59,
      "geometry" : {
        "type" : "Point",
        "coordinates" : [
          139.77157,
          35.669860000000085
        ]
      },
      "properties" : {
        "OBJECTID" : 59,
        "name" : "東京肉しゃぶ家",
        "lon" : 139.77157,
        "lat" : 35.66986
      }
    },
    {
      "type" : "Feature",
      "id" : 60,
      "geometry" : {
        "type" : "Point",
        "coordinates" : [
          139.76206999999999,
          35.669280000000072
        ]
      },
      "properties" : {
        "OBJECTID" : 60,
        "name" : "USHIGORO S. NISHIAZABU",
        "lon" : 139.76206999999999,
        "lat" : 35.669280000000001
      }
    },
    {
      "type" : "Feature",
      "id" : 61,
      "geometry" : {
        "type" : "Point",
        "coordinates" : [
          139.73523,
          35.689150000000041
        ]
      },
      "properties" : {
        "OBJECTID" : 61,
        "name" : "炭火焼肉 なかはら",
        "lon" : 139.73523,
        "lat" : 35.689149999999998
      }
    },
    {
      "type" : "Feature",
      "id" : 62,
      "geometry" : {
        "type" : "Point",
        "coordinates" : [
          139.76092000000006,
          35.675010000000043
        ]
      },
      "properties" : {
        "OBJECTID" : 62,
        "name" : "アピシウス",
        "lon" : 139.76092,
        "lat" : 35.67501
      }
    },
    {
      "type" : "Feature",
      "id" : 63,
      "geometry" : {
        "type" : "Point",
        "coordinates" : [
          139.7591900000001,
          35.673580000000072
        ]
      },
      "properties" : {
        "OBJECTID" : 63,
        "name" : "鮨 なんば 日比谷",
        "lon" : 139.75918999999999,
        "lat" : 35.673580000000001
      }
    },
    {
      "type" : "Feature",
      "id" : 64,
      "geometry" : {
        "type" : "Point",
        "coordinates" : [
          139.75907000000007,
          35.674170000000061
        ]
      },
      "properties" : {
        "OBJECTID" : 64,
        "name" : "龍吟",
        "lon" : 139.75907000000001,
        "lat" : 35.674169999999997
      }
    },
    {
      "type" : "Feature",
      "id" : 65,
      "geometry" : {
        "type" : "Point",
        "coordinates" : [
          139.75816000000009,
          35.672600000000045
        ]
      },
      "properties" : {
        "OBJECTID" : 65,
        "name" : "レ セゾン",
        "lon" : 139.75816,
        "lat" : 35.672600000000003
      }
    },
    {
      "type" : "Feature",
      "id" : 66,
      "geometry" : {
        "type" : "Point",
        "coordinates" : [
          139.73419000000001,
          35.680920000000071
        ]
      },
      "properties" : {
        "OBJECTID" : 66,
        "name" : "トゥールダルジャン 東京",
        "lon" : 139.73419000000001,
        "lat" : 35.68092
      }
    },
    {
      "type" : "Feature",
      "id" : 67,
      "geometry" : {
        "type" : "Point",
        "coordinates" : [
          139.73775000000001,
          35.680260000000089
        ]
      },
      "properties" : {
        "OBJECTID" : 67,
        "name" : "紀尾井町 三谷",
        "lon" : 139.73775000000001,
        "lat" : 35.680259999999997
      }
    },
    {
      "type" : "Feature",
      "id" : 68,
      "geometry" : {
        "type" : "Point",
        "coordinates" : [
          139.7166400000001,
          35.688020000000051
        ]
      },
      "properties" : {
        "OBJECTID" : 68,
        "name" : "青空",
        "lon" : 139.71664000000001,
        "lat" : 35.688020000000002
      }
    },
    {
      "type" : "Feature",
      "id" : 69,
      "geometry" : {
        "type" : "Point",
        "coordinates" : [
          139.71713,
          35.694900000000075
        ]
      },
      "properties" : {
        "OBJECTID" : 69,
        "name" : "天ぷら 蕎楽亭",
        "lon" : 139.71713,
        "lat" : 35.694899999999997
      }
    },
    {
      "type" : "Feature",
      "id" : 70,
      "geometry" : {
        "type" : "Point",
        "coordinates" : [
          139.73261000000002,
          35.702390000000037
        ]
      },
      "properties" : {
        "OBJECTID" : 70,
        "name" : "串揚げはやし",
        "lon" : 139.73260999999999,
        "lat" : 35.702390000000001
      }
    },
    {
      "type" : "Feature",
      "id" : 71,
      "geometry" : {
        "type" : "Point",
        "coordinates" : [
          139.69757000000004,
          35.698600000000056
        ]
      },
      "properties" : {
        "OBJECTID" : 71,
        "name" : "SPICY CURRY 魯珈",
        "lon" : 139.69757000000001,
        "lat" : 35.698599999999999
      }
    },
    {
      "type" : "Feature",
      "id" : 72,
      "geometry" : {
        "type" : "Point",
        "coordinates" : [
          139.7324000000001,
          35.69805000000008
        ]
      },
      "properties" : {
        "OBJECTID" : 72,
        "name" : "ル・マンジュ・トゥー",
        "lon" : 139.73240000000001,
        "lat" : 35.698050000000002
      }
    },
    {
      "type" : "Feature",
      "id" : 73,
      "geometry" : {
        "type" : "Point",
        "coordinates" : [
          139.7397400000001,
          35.706360000000075
        ]
      },
      "properties" : {
        "OBJECTID" : 73,
        "name" : "紀茂登",
        "lon" : 139.73974000000001,
        "lat" : 35.706359999999997
      }
    },
    {
      "type" : "Feature",
      "id" : 74,
      "geometry" : {
        "type" : "Point",
        "coordinates" : [
          139.73941000000002,
          35.701250000000073
        ]
      },
      "properties" : {
        "OBJECTID" : 74,
        "name" : "神楽坂 石かわ",
        "lon" : 139.73940999999999,
        "lat" : 35.701250000000002
      }
    },
    {
      "type" : "Feature",
      "id" : 75,
      "geometry" : {
        "type" : "Point",
        "coordinates" : [
          139.74015000000009,
          35.700970000000041
        ]
      },
      "properties" : {
        "OBJECTID" : 75,
        "name" : "神楽坂　鉄板焼 中むら",
        "lon" : 139.74015,
        "lat" : 35.700969999999998
      }
    },
    {
      "type" : "Feature",
      "id" : 76,
      "geometry" : {
        "type" : "Point",
        "coordinates" : [
          139.74098000000004,
          35.700750000000085
        ]
      },
      "properties" : {
        "OBJECTID" : 76,
        "name" : "虎白",
        "lon" : 139.74098000000001,
        "lat" : 35.700749999999999
      }
    },
    {
      "type" : "Feature",
      "id" : 77,
      "geometry" : {
        "type" : "Point",
        "coordinates" : [
          139.71239000000003,
          35.692750000000046
        ]
      },
      "properties" : {
        "OBJECTID" : 77,
        "name" : "ヴィンチェロ",
        "lon" : 139.71239,
        "lat" : 35.692749999999997
      }
    },
    {
      "type" : "Feature",
      "id" : 78,
      "geometry" : {
        "type" : "Point",
        "coordinates" : [
          139.72154,
          35.692070000000058
        ]
      },
      "properties" : {
        "OBJECTID" : 78,
        "name" : "まる富",
        "lon" : 139.72154,
        "lat" : 35.692070000000001
      }
    },
    {
      "type" : "Feature",
      "id" : 79,
      "geometry" : {
        "type" : "Point",
        "coordinates" : [
          139.7166400000001,
          35.688020000000051
        ]
      },
      "properties" : {
        "OBJECTID" : 79,
        "name" : "はらまさ",
        "lon" : 139.71664000000001,
        "lat" : 35.688020000000002
      }
    },
    {
      "type" : "Feature",
      "id" : 80,
      "geometry" : {
        "type" : "Point",
        "coordinates" : [
          139.72807,
          35.686000000000035
        ]
      },
      "properties" : {
        "OBJECTID" : 80,
        "name" : "くすのき",
        "lon" : 139.72807,
        "lat" : 35.686
      }
    },
    {
      "type" : "Feature",
      "id" : 81,
      "geometry" : {
        "type" : "Point",
        "coordinates" : [
          139.72752000000003,
          35.687600000000089
        ]
      },
      "properties" : {
        "OBJECTID" : 81,
        "name" : "三谷",
        "lon" : 139.72752,
        "lat" : 35.687600000000003
      }
    },
    {
      "type" : "Feature",
      "id" : 82,
      "geometry" : {
        "type" : "Point",
        "coordinates" : [
          139.72831000000008,
          35.685570000000041
        ]
      },
      "properties" : {
        "OBJECTID" : 82,
        "name" : "すし匠",
        "lon" : 139.72830999999999,
        "lat" : 35.685569999999998
      }
    },
    {
      "type" : "Feature",
      "id" : 83,
      "geometry" : {
        "type" : "Point",
        "coordinates" : [
          139.72700000000009,
          35.687860000000057
        ]
      },
      "properties" : {
        "OBJECTID" : 83,
        "name" : "北島亭",
        "lon" : 139.727,
        "lat" : 35.687860000000001
      }
    },
    {
      "type" : "Feature",
      "id" : 84,
      "geometry" : {
        "type" : "Point",
        "coordinates" : [
          139.72225000000003,
          35.689080000000047
        ]
      },
      "properties" : {
        "OBJECTID" : 84,
        "name" : "オオクサ",
        "lon" : 139.72225,
        "lat" : 35.689079999999997
      }
    },
    {
      "type" : "Feature",
      "id" : 85,
      "geometry" : {
        "type" : "Point",
        "coordinates" : [
          139.72298000000001,
          35.688600000000065
        ]
      },
      "properties" : {
        "OBJECTID" : 85,
        "name" : "多仁本",
        "lon" : 139.72298000000001,
        "lat" : 35.688600000000001
      }
    },
    {
      "type" : "Feature",
      "id" : 86,
      "geometry" : {
        "type" : "Point",
        "coordinates" : [
          139.72236000000009,
          35.69026000000008
        ]
      },
      "properties" : {
        "OBJECTID" : 86,
        "name" : "青華こばやし",
        "lon" : 139.72236000000001,
        "lat" : 35.690260000000002
      }
    },
    {
      "type" : "Feature",
      "id" : 87,
      "geometry" : {
        "type" : "Point",
        "coordinates" : [
          139.70356000000004,
          35.650690000000054
        ]
      },
      "properties" : {
        "OBJECTID" : 87,
        "name" : "アロマフレスカ",
        "lon" : 139.70356000000001,
        "lat" : 35.650689999999997
      }
    },
    {
      "type" : "Feature",
      "id" : 88,
      "geometry" : {
        "type" : "Point",
        "coordinates" : [
          139.6927300000001,
          35.678380000000061
        ]
      },
      "properties" : {
        "OBJECTID" : 88,
        "name" : "焼肉 うしごろ 銀座店",
        "lon" : 139.69273000000001,
        "lat" : 35.678379999999997
      }
    },
    {
      "type" : "Feature",
      "id" : 89,
      "geometry" : {
        "type" : "Point",
        "coordinates" : [
          139.69715000000008,
          35.650820000000067
        ]
      },
      "properties" : {
        "OBJECTID" : 89,
        "name" : "マダム・トキ",
        "lon" : 139.69714999999999,
        "lat" : 35.650820000000003
      }
    },
    {
      "type" : "Feature",
      "id" : 90,
      "geometry" : {
        "type" : "Point",
        "coordinates" : [
          139.69127000000003,
          35.681280000000072
        ]
      },
      "properties" : {
        "OBJECTID" : 90,
        "name" : "ボニュ",
        "lon" : 139.69127,
        "lat" : 35.681280000000001
      }
    },
    {
      "type" : "Feature",
      "id" : 91,
      "geometry" : {
        "type" : "Point",
        "coordinates" : [
          139.6927300000001,
          35.678380000000061
        ]
      },
      "properties" : {
        "OBJECTID" : 91,
        "name" : "焼肉 いぶさな",
        "lon" : 139.69273000000001,
        "lat" : 35.678379999999997
      }
    },
    {
      "type" : "Feature",
      "id" : 92,
      "geometry" : {
        "type" : "Point",
        "coordinates" : [
          139.69890000000009,
          35.687930000000051
        ]
      },
      "properties" : {
        "OBJECTID" : 92,
        "name" : "鳥茂",
        "lon" : 139.69890000000001,
        "lat" : 35.687930000000001
      }
    },
    {
      "type" : "Feature",
      "id" : 93,
      "geometry" : {
        "type" : "Point",
        "coordinates" : [
          139.70356000000004,
          35.650690000000054
        ]
      },
      "properties" : {
        "OBJECTID" : 93,
        "name" : "ARMONICO",
        "lon" : 139.70356000000001,
        "lat" : 35.650689999999997
      }
    },
    {
      "type" : "Feature",
      "id" : 94,
      "geometry" : {
        "type" : "Point",
        "coordinates" : [
          139.70428000000004,
          35.676890000000071
        ]
      },
      "properties" : {
        "OBJECTID" : 94,
        "name" : "Sinc鑽e",
        "lon" : 139.70428000000001,
        "lat" : 35.67689
      }
    },
    {
      "type" : "Feature",
      "id" : 95,
      "geometry" : {
        "type" : "Point",
        "coordinates" : [
          139.70770000000005,
          35.67757000000006
        ]
      },
      "properties" : {
        "OBJECTID" : 95,
        "name" : "L'Octave Hayato KOBAYASHI",
        "lon" : 139.70769999999999,
        "lat" : 35.677570000000003
      }
    },
    {
      "type" : "Feature",
      "id" : 96,
      "geometry" : {
        "type" : "Point",
        "coordinates" : [
          139.70468000000005,
          35.664450000000045
        ]
      },
      "properties" : {
        "OBJECTID" : 96,
        "name" : "玉笑",
        "lon" : 139.70468,
        "lat" : 35.664450000000002
      }
    },
    {
      "type" : "Feature",
      "id" : 97,
      "geometry" : {
        "type" : "Point",
        "coordinates" : [
          139.71341000000007,
          35.672390000000064
        ]
      },
      "properties" : {
        "OBJECTID" : 97,
        "name" : "フロリレージュ",
        "lon" : 139.71341000000001,
        "lat" : 35.67239
      }
    },
    {
      "type" : "Feature",
      "id" : 98,
      "geometry" : {
        "type" : "Point",
        "coordinates" : [
          139.71015,
          35.67348000000004
        ]
      },
      "properties" : {
        "OBJECTID" : 98,
        "name" : "樋口",
        "lon" : 139.71015,
        "lat" : 35.673479999999998
      }
    },
    {
      "type" : "Feature",
      "id" : 99,
      "geometry" : {
        "type" : "Point",
        "coordinates" : [
          139.68248000000006,
          35.668990000000065
        ]
      },
      "properties" : {
        "OBJECTID" : 99,
        "name" : "イル プレージョ",
        "lon" : 139.68248,
        "lat" : 35.668990000000001
      }
    },
    {
      "type" : "Feature",
      "id" : 100,
      "geometry" : {
        "type" : "Point",
        "coordinates" : [
          139.70881000000008,
          35.659920000000056
        ]
      },
      "properties" : {
        "OBJECTID" : 100,
        "name" : "ラ・ブランシュ",
        "lon" : 139.70881,
        "lat" : 35.65992
      }
    },
    {
      "type" : "Feature",
      "id" : 101,
      "geometry" : {
        "type" : "Point",
        "coordinates" : [
          139.70853,
          35.66077000000007
        ]
      },
      "properties" : {
        "OBJECTID" : 101,
        "name" : "ラチュレ",
        "lon" : 139.70853,
        "lat" : 35.660769999999999
      }
    },
    {
      "type" : "Feature",
      "id" : 102,
      "geometry" : {
        "type" : "Point",
        "coordinates" : [
          139.70578,
          35.661070000000052
        ]
      },
      "properties" : {
        "OBJECTID" : 102,
        "name" : "くろ﨑",
        "lon" : 139.70578,
        "lat" : 35.661070000000002
      }
    },
    {
      "type" : "Feature",
      "id" : 103,
      "geometry" : {
        "type" : "Point",
        "coordinates" : [
          139.72039000000007,
          35.64946000000009
        ]
      },
      "properties" : {
        "OBJECTID" : 103,
        "name" : "ボッテガ",
        "lon" : 139.72039000000001,
        "lat" : 35.649459999999998
      }
    },
    {
      "type" : "Feature",
      "id" : 104,
      "geometry" : {
        "type" : "Point",
        "coordinates" : [
          139.7190700000001,
          35.649120000000039
        ]
      },
      "properties" : {
        "OBJECTID" : 104,
        "name" : "Ode",
        "lon" : 139.71906999999999,
        "lat" : 35.649120000000003
      }
    },
    {
      "type" : "Feature",
      "id" : 105,
      "geometry" : {
        "type" : "Point",
        "coordinates" : [
          139.71411000000001,
          35.648730000000057
        ]
      },
      "properties" : {
        "OBJECTID" : 105,
        "name" : "AMOUR",
        "lon" : 139.71411000000001,
        "lat" : 35.64873
      }
    },
    {
      "type" : "Feature",
      "id" : 106,
      "geometry" : {
        "type" : "Point",
        "coordinates" : [
          139.70602000000008,
          35.650810000000035
        ]
      },
      "properties" : {
        "OBJECTID" : 106,
        "name" : "TACUBO",
        "lon" : 139.70602,
        "lat" : 35.65081
      }
    },
    {
      "type" : "Feature",
      "id" : 107,
      "geometry" : {
        "type" : "Point",
        "coordinates" : [
          139.71445000000006,
          35.645090000000039
        ]
      },
      "properties" : {
        "OBJECTID" : 107,
        "name" : "恵比寿 くろいわ",
        "lon" : 139.71445,
        "lat" : 35.645090000000003
      }
    },
    {
      "type" : "Feature",
      "id" : 108,
      "geometry" : {
        "type" : "Point",
        "coordinates" : [
          130.36904000000004,
          32.798470000000066
        ]
      },
      "properties" : {
        "OBJECTID" : 108,
        "name" : "ペレグリーノ",
        "lon" : 130.36904000000001,
        "lat" : 32.798470000000002
      }
    },
    {
      "type" : "Feature",
      "id" : 109,
      "geometry" : {
        "type" : "Point",
        "coordinates" : [
          139.72038000000009,
          35.647920000000056
        ]
      },
      "properties" : {
        "OBJECTID" : 109,
        "name" : "レストラン アラジン",
        "lon" : 139.72038000000001,
        "lat" : 35.647919999999999
      }
    },
    {
      "type" : "Feature",
      "id" : 110,
      "geometry" : {
        "type" : "Point",
        "coordinates" : [
          139.71684000000005,
          35.645650000000046
        ]
      },
      "properties" : {
        "OBJECTID" : 110,
        "name" : "鍈輝",
        "lon" : 139.71683999999999,
        "lat" : 35.645650000000003
      }
    },
    {
      "type" : "Feature",
      "id" : 111,
      "geometry" : {
        "type" : "Point",
        "coordinates" : [
          139.71453000000008,
          35.646660000000054
        ]
      },
      "properties" : {
        "OBJECTID" : 111,
        "name" : "MASA’S KITCHEN 恵比寿",
        "lon" : 139.71453,
        "lat" : 35.646659999999997
      }
    },
    {
      "type" : "Feature",
      "id" : 112,
      "geometry" : {
        "type" : "Point",
        "coordinates" : [
          139.7118200000001,
          35.646290000000079
        ]
      },
      "properties" : {
        "OBJECTID" : 112,
        "name" : "蕃 YORONIKU",
        "lon" : 139.71181999999999,
        "lat" : 35.64629
      }
    },
    {
      "type" : "Feature",
      "id" : 113,
      "geometry" : {
        "type" : "Point",
        "coordinates" : [
          135.77594000000011,
          35.005210000000034
        ]
      },
      "properties" : {
        "OBJECTID" : 113,
        "name" : "サンプリシテ",
        "lon" : 135.77593999999999,
        "lat" : 35.005209999999998
      }
    },
    {
      "type" : "Feature",
      "id" : 114,
      "geometry" : {
        "type" : "Point",
        "coordinates" : [
          139.70479,
          35.653010000000052
        ]
      },
      "properties" : {
        "OBJECTID" : 114,
        "name" : "ﾄta",
        "lon" : 139.70479,
        "lat" : 35.653010000000002
      }
    },
    {
      "type" : "Feature",
      "id" : 115,
      "geometry" : {
        "type" : "Point",
        "coordinates" : [
          139.69735000000003,
          35.662600000000054
        ]
      },
      "properties" : {
        "OBJECTID" : 115,
        "name" : "炭火焼 ゆうじ",
        "lon" : 139.69735,
        "lat" : 35.662599999999998
      }
    },
    {
      "type" : "Feature",
      "id" : 116,
      "geometry" : {
        "type" : "Point",
        "coordinates" : [
          139.73180000000002,
          35.67292000000009
        ]
      },
      "properties" : {
        "OBJECTID" : 116,
        "name" : "麺庵ちとせ",
        "lon" : 139.73179999999999,
        "lat" : 35.672919999999998
      }
    },
    {
      "type" : "Feature",
      "id" : 117,
      "geometry" : {
        "type" : "Point",
        "coordinates" : [
          139.71725000000004,
          35.667810000000088
        ]
      },
      "properties" : {
        "OBJECTID" : 117,
        "name" : "傳",
        "lon" : 139.71725000000001,
        "lat" : 35.667810000000003
      }
    },
    {
      "type" : "Feature",
      "id" : 118,
      "geometry" : {
        "type" : "Point",
        "coordinates" : [
          139.72999000000004,
          35.664460000000076
        ]
      },
      "properties" : {
        "OBJECTID" : 118,
        "name" : "ル スプートニク",
        "lon" : 139.72998999999999,
        "lat" : 35.664459999999998
      }
    },
    {
      "type" : "Feature",
      "id" : 119,
      "geometry" : {
        "type" : "Point",
        "coordinates" : [
          139.73574000000008,
          35.653580000000034
        ]
      },
      "properties" : {
        "OBJECTID" : 119,
        "name" : "la Brianza",
        "lon" : 139.73573999999999,
        "lat" : 35.653579999999998
      }
    },
    {
      "type" : "Feature",
      "id" : 120,
      "geometry" : {
        "type" : "Point",
        "coordinates" : [
          139.72921000000008,
          35.658690000000036
        ]
      },
      "properties" : {
        "OBJECTID" : 120,
        "name" : "すきやばし 次郎 六本木ヒルズ店",
        "lon" : 139.72920999999999,
        "lat" : 35.65869
      }
    },
    {
      "type" : "Feature",
      "id" : 121,
      "geometry" : {
        "type" : "Point",
        "coordinates" : [
          139.72927000000004,
          35.658790000000067
        ]
      },
      "properties" : {
        "OBJECTID" : 121,
        "name" : "茶寮 宮坂",
        "lon" : 139.72927000000001,
        "lat" : 35.658790000000003
      }
    },
    {
      "type" : "Feature",
      "id" : 122,
      "geometry" : {
        "type" : "Point",
        "coordinates" : [
          139.7324000000001,
          35.664710000000071
        ]
      },
      "properties" : {
        "OBJECTID" : 122,
        "name" : "鮨 由う",
        "lon" : 139.73240000000001,
        "lat" : 35.664709999999999
      }
    },
    {
      "type" : "Feature",
      "id" : 123,
      "geometry" : {
        "type" : "Point",
        "coordinates" : [
          139.73346000000004,
          35.664720000000045
        ]
      },
      "properties" : {
        "OBJECTID" : 123,
        "name" : "レストラン リューズ",
        "lon" : 139.73346000000001,
        "lat" : 35.664720000000003
      }
    },
    {
      "type" : "Feature",
      "id" : 124,
      "geometry" : {
        "type" : "Point",
        "coordinates" : [
          139.73473000000001,
          35.663320000000056
        ]
      },
      "properties" : {
        "OBJECTID" : 124,
        "name" : "味満ん",
        "lon" : 139.73473000000001,
        "lat" : 35.663319999999999
      }
    },
    {
      "type" : "Feature",
      "id" : 125,
      "geometry" : {
        "type" : "Point",
        "coordinates" : [
          139.73449000000005,
          35.663330000000087
        ]
      },
      "properties" : {
        "OBJECTID" : 125,
        "name" : "虎峰",
        "lon" : 139.73448999999999,
        "lat" : 35.663330000000002
      }
    },
    {
      "type" : "Feature",
      "id" : 126,
      "geometry" : {
        "type" : "Point",
        "coordinates" : [
          139.73942,
          35.665360000000078
        ]
      },
      "properties" : {
        "OBJECTID" : 126,
        "name" : "鮨 さいとう",
        "lon" : 139.73942,
        "lat" : 35.66536
      }
    },
    {
      "type" : "Feature",
      "id" : 127,
      "geometry" : {
        "type" : "Point",
        "coordinates" : [
          139.73945000000003,
          35.665610000000072
        ]
      },
      "properties" : {
        "OBJECTID" : 127,
        "name" : "鮨 しゅんじ",
        "lon" : 139.73945000000001,
        "lat" : 35.665610000000001
      }
    },
    {
      "type" : "Feature",
      "id" : 128,
      "geometry" : {
        "type" : "Point",
        "coordinates" : [
          139.59161000000006,
          35.560840000000042
        ]
      },
      "properties" : {
        "OBJECTID" : 128,
        "name" : "SUGALABO",
        "lon" : 139.59161,
        "lat" : 35.560839999999999
      }
    },
    {
      "type" : "Feature",
      "id" : 129,
      "geometry" : {
        "type" : "Point",
        "coordinates" : [
          139.73507000000006,
          35.653630000000078
        ]
      },
      "properties" : {
        "OBJECTID" : 129,
        "name" : "麻布十番 ふくだ",
        "lon" : 139.73507000000001,
        "lat" : 35.65363
      }
    },
    {
      "type" : "Feature",
      "id" : 130,
      "geometry" : {
        "type" : "Point",
        "coordinates" : [
          139.73574000000008,
          35.653580000000034
        ]
      },
      "properties" : {
        "OBJECTID" : 130,
        "name" : "ラパルタメント ディ ナオキ",
        "lon" : 139.73573999999999,
        "lat" : 35.653579999999998
      }
    },
    {
      "type" : "Feature",
      "id" : 131,
      "geometry" : {
        "type" : "Point",
        "coordinates" : [
          139.73472000000004,
          35.655010000000061
        ]
      },
      "properties" : {
        "OBJECTID" : 131,
        "name" : "鮓 ふじなが",
        "lon" : 139.73472000000001,
        "lat" : 35.655009999999997
      }
    },
    {
      "type" : "Feature",
      "id" : 132,
      "geometry" : {
        "type" : "Point",
        "coordinates" : [
          139.73473000000001,
          35.655600000000049
        ]
      },
      "properties" : {
        "OBJECTID" : 132,
        "name" : "たきや",
        "lon" : 139.73473000000001,
        "lat" : 35.6556
      }
    },
    {
      "type" : "Feature",
      "id" : 133,
      "geometry" : {
        "type" : "Point",
        "coordinates" : [
          139.73358000000007,
          35.655940000000044
        ]
      },
      "properties" : {
        "OBJECTID" : 133,
        "name" : "麻布 かどわき",
        "lon" : 139.73357999999999,
        "lat" : 35.655940000000001
      }
    },
    {
      "type" : "Feature",
      "id" : 134,
      "geometry" : {
        "type" : "Point",
        "coordinates" : [
          139.73595,
          35.654780000000073
        ]
      },
      "properties" : {
        "OBJECTID" : 134,
        "name" : "羊SUNRISE",
        "lon" : 139.73595,
        "lat" : 35.654780000000002
      }
    },
    {
      "type" : "Feature",
      "id" : 135,
      "geometry" : {
        "type" : "Point",
        "coordinates" : [
          139.73589000000004,
          35.654050000000041
        ]
      },
      "properties" : {
        "OBJECTID" : 135,
        "name" : "VIA BRIANZA",
        "lon" : 139.73589000000001,
        "lat" : 35.654049999999998
      }
    },
    {
      "type" : "Feature",
      "id" : 136,
      "geometry" : {
        "type" : "Point",
        "coordinates" : [
          139.73507000000006,
          35.653630000000078
        ]
      },
      "properties" : {
        "OBJECTID" : 136,
        "name" : "麻布 幸村",
        "lon" : 139.73507000000001,
        "lat" : 35.65363
      }
    },
    {
      "type" : "Feature",
      "id" : 137,
      "geometry" : {
        "type" : "Point",
        "coordinates" : [
          139.70944000000009,
          35.66408000000007
        ]
      },
      "properties" : {
        "OBJECTID" : 137,
        "name" : "日本料理 太月",
        "lon" : 139.70944,
        "lat" : 35.664079999999998
      }
    },
    {
      "type" : "Feature",
      "id" : 138,
      "geometry" : {
        "type" : "Point",
        "coordinates" : [
          139.72173000000009,
          35.641810000000078
        ]
      },
      "properties" : {
        "OBJECTID" : 138,
        "name" : "broc 長谷川稔Lab",
        "lon" : 139.72173000000001,
        "lat" : 35.64181
      }
    },
    {
      "type" : "Feature",
      "id" : 139,
      "geometry" : {
        "type" : "Point",
        "coordinates" : [
          139.72286000000008,
          35.637500000000045
        ]
      },
      "properties" : {
        "OBJECTID" : 139,
        "name" : "アルシミスト",
        "lon" : 139.72286,
        "lat" : 35.637500000000003
      }
    },
    {
      "type" : "Feature",
      "id" : 140,
      "geometry" : {
        "type" : "Point",
        "coordinates" : [
          139.71935000000008,
          35.64140000000009
        ]
      },
      "properties" : {
        "OBJECTID" : 140,
        "name" : "白金台こばやし",
        "lon" : 139.71934999999999,
        "lat" : 35.641399999999997
      }
    },
    {
      "type" : "Feature",
      "id" : 141,
      "geometry" : {
        "type" : "Point",
        "coordinates" : [
          139.72811000000002,
          35.639360000000067
        ]
      },
      "properties" : {
        "OBJECTID" : 141,
        "name" : "ShinoiS",
        "lon" : 139.72810999999999,
        "lat" : 35.639360000000003
      }
    },
    {
      "type" : "Feature",
      "id" : 142,
      "geometry" : {
        "type" : "Point",
        "coordinates" : [
          139.72520000000009,
          35.644350000000088
        ]
      },
      "properties" : {
        "OBJECTID" : 142,
        "name" : "私厨房 勇",
        "lon" : 139.7252,
        "lat" : 35.644350000000003
      }
    },
    {
      "type" : "Feature",
      "id" : 143,
      "geometry" : {
        "type" : "Point",
        "coordinates" : [
          139.72673000000009,
          35.644240000000082
        ]
      },
      "properties" : {
        "OBJECTID" : 143,
        "name" : "蓮香",
        "lon" : 139.72673,
        "lat" : 35.644240000000003
      }
    },
    {
      "type" : "Feature",
      "id" : 144,
      "geometry" : {
        "type" : "Point",
        "coordinates" : [
          139.72815000000003,
          35.645160000000089
        ]
      },
      "properties" : {
        "OBJECTID" : 144,
        "name" : "ラ クレリエール",
        "lon" : 139.72815,
        "lat" : 35.645159999999997
      }
    },
    {
      "type" : "Feature",
      "id" : 145,
      "geometry" : {
        "type" : "Point",
        "coordinates" : [
          139.72831000000008,
          35.64534000000009
        ]
      },
      "properties" : {
        "OBJECTID" : 145,
        "name" : "炭焼 金竜山",
        "lon" : 139.72830999999999,
        "lat" : 35.645339999999997
      }
    },
    {
      "type" : "Feature",
      "id" : 146,
      "geometry" : {
        "type" : "Point",
        "coordinates" : [
          139.72835000000009,
          35.649580000000071
        ]
      },
      "properties" : {
        "OBJECTID" : 146,
        "name" : "茶禅華",
        "lon" : 139.72835000000001,
        "lat" : 35.64958
      }
    },
    {
      "type" : "Feature",
      "id" : 147,
      "geometry" : {
        "type" : "Point",
        "coordinates" : [
          139.7237100000001,
          35.651100000000042
        ]
      },
      "properties" : {
        "OBJECTID" : 147,
        "name" : "薫 HIROO",
        "lon" : 139.72371000000001,
        "lat" : 35.6511
      }
    },
    {
      "type" : "Feature",
      "id" : 148,
      "geometry" : {
        "type" : "Point",
        "coordinates" : [
          135.49609000000009,
          34.688680000000033
        ]
      },
      "properties" : {
        "OBJECTID" : 148,
        "name" : "長谷川 稔",
        "lon" : 135.49609000000001,
        "lat" : 34.688679999999998
      }
    },
    {
      "type" : "Feature",
      "id" : 149,
      "geometry" : {
        "type" : "Point",
        "coordinates" : [
          139.72399000000007,
          35.647340000000042
        ]
      },
      "properties" : {
        "OBJECTID" : 149,
        "name" : "インカント",
        "lon" : 139.72398999999999,
        "lat" : 35.64734
      }
    },
    {
      "type" : "Feature",
      "id" : 150,
      "geometry" : {
        "type" : "Point",
        "coordinates" : [
          139.73588000000007,
          35.647970000000043
        ]
      },
      "properties" : {
        "OBJECTID" : 150,
        "name" : "いちかわ",
        "lon" : 139.73588000000001,
        "lat" : 35.647970000000001
      }
    },
    {
      "type" : "Feature",
      "id" : 151,
      "geometry" : {
        "type" : "Point",
        "coordinates" : [
          139.71801000000005,
          35.657090000000039
        ]
      },
      "properties" : {
        "OBJECTID" : 151,
        "name" : "南青山 七鳥目",
        "lon" : 139.71800999999999,
        "lat" : 35.657089999999997
      }
    },
    {
      "type" : "Feature",
      "id" : 152,
      "geometry" : {
        "type" : "Point",
        "coordinates" : [
          136.91501000000005,
          35.157010000000071
        ]
      },
      "properties" : {
        "OBJECTID" : 152,
        "name" : "リストランテ ペガソ",
        "lon" : 136.91501,
        "lat" : 35.15701
      }
    },
    {
      "type" : "Feature",
      "id" : 153,
      "geometry" : {
        "type" : "Point",
        "coordinates" : [
          139.71868000000006,
          35.658460000000048
        ]
      },
      "properties" : {
        "OBJECTID" : 153,
        "name" : "イル テアトリーノ ダ サローネ",
        "lon" : 139.71868000000001,
        "lat" : 35.658459999999998
      }
    },
    {
      "type" : "Feature",
      "id" : 154,
      "geometry" : {
        "type" : "Point",
        "coordinates" : [
          139.71875,
          35.658790000000067
        ]
      },
      "properties" : {
        "OBJECTID" : 154,
        "name" : "4000 Chinese Restaurant",
        "lon" : 139.71875,
        "lat" : 35.658790000000003
      }
    },
    {
      "type" : "Feature",
      "id" : 155,
      "geometry" : {
        "type" : "Point",
        "coordinates" : [
          139.71759000000009,
          35.660310000000038
        ]
      },
      "properties" : {
        "OBJECTID" : 155,
        "name" : "よろにく",
        "lon" : 139.71759,
        "lat" : 35.660310000000003
      }
    },
    {
      "type" : "Feature",
      "id" : 156,
      "geometry" : {
        "type" : "Point",
        "coordinates" : [
          139.72173000000009,
          35.641810000000078
        ]
      },
      "properties" : {
        "OBJECTID" : 156,
        "name" : "プリズマ",
        "lon" : 139.72173000000001,
        "lat" : 35.64181
      }
    },
    {
      "type" : "Feature",
      "id" : 157,
      "geometry" : {
        "type" : "Point",
        "coordinates" : [
          139.71821,
          35.662110000000041
        ]
      },
      "properties" : {
        "OBJECTID" : 157,
        "name" : "御料理 宮坂",
        "lon" : 139.71821,
        "lat" : 35.662109999999998
      }
    },
    {
      "type" : "Feature",
      "id" : 158,
      "geometry" : {
        "type" : "Point",
        "coordinates" : [
          139.71762000000001,
          35.665680000000066
        ]
      },
      "properties" : {
        "OBJECTID" : 158,
        "name" : "リストランテ 濱崎",
        "lon" : 139.71762000000001,
        "lat" : 35.665680000000002
      }
    },
    {
      "type" : "Feature",
      "id" : 159,
      "geometry" : {
        "type" : "Point",
        "coordinates" : [
          139.7172700000001,
          35.667240000000049
        ]
      },
      "properties" : {
        "OBJECTID" : 159,
        "name" : "いち太",
        "lon" : 139.71727000000001,
        "lat" : 35.66724
      }
    },
    {
      "type" : "Feature",
      "id" : 160,
      "geometry" : {
        "type" : "Point",
        "coordinates" : [
          139.71795000000009,
          35.667630000000088
        ]
      },
      "properties" : {
        "OBJECTID" : 160,
        "name" : "海味",
        "lon" : 139.71795,
        "lat" : 35.667630000000003
      }
    },
    {
      "type" : "Feature",
      "id" : 161,
      "geometry" : {
        "type" : "Point",
        "coordinates" : [
          139.71725000000004,
          35.667810000000088
        ]
      },
      "properties" : {
        "OBJECTID" : 161,
        "name" : "天ぷら 元吉",
        "lon" : 139.71725000000001,
        "lat" : 35.667810000000003
      }
    },
    {
      "type" : "Feature",
      "id" : 162,
      "geometry" : {
        "type" : "Point",
        "coordinates" : [
          139.71422000000007,
          35.666480000000035
        ]
      },
      "properties" : {
        "OBJECTID" : 162,
        "name" : "ミモザ",
        "lon" : 139.71422000000001,
        "lat" : 35.66648
      }
    },
    {
      "type" : "Feature",
      "id" : 163,
      "geometry" : {
        "type" : "Point",
        "coordinates" : [
          139.72191000000009,
          35.671610000000044
        ]
      },
      "properties" : {
        "OBJECTID" : 163,
        "name" : "NARISAWA",
        "lon" : 139.72191000000001,
        "lat" : 35.671610000000001
      }
    },
    {
      "type" : "Feature",
      "id" : 164,
      "geometry" : {
        "type" : "Point",
        "coordinates" : [
          139.72381000000007,
          35.671420000000069
        ]
      },
      "properties" : {
        "OBJECTID" : 164,
        "name" : "匠 進吾",
        "lon" : 139.72380999999999,
        "lat" : 35.671419999999998
      }
    },
    {
      "type" : "Feature",
      "id" : 165,
      "geometry" : {
        "type" : "Point",
        "coordinates" : [
          139.72025000000008,
          35.670180000000073
        ]
      },
      "properties" : {
        "OBJECTID" : 165,
        "name" : "L'EAU",
        "lon" : 139.72024999999999,
        "lat" : 35.670180000000002
      }
    },
    {
      "type" : "Feature",
      "id" : 166,
      "geometry" : {
        "type" : "Point",
        "coordinates" : [
          139.72109,
          35.671310000000062
        ]
      },
      "properties" : {
        "OBJECTID" : 166,
        "name" : "鮨 龍次郎",
        "lon" : 139.72109,
        "lat" : 35.671309999999998
      }
    },
    {
      "type" : "Feature",
      "id" : 167,
      "geometry" : {
        "type" : "Point",
        "coordinates" : [
          135.50481000000002,
          34.68921000000006
        ]
      },
      "properties" : {
        "OBJECTID" : 167,
        "name" : "中国飯店 富麗華",
        "lon" : 135.50480999999999,
        "lat" : 34.689210000000003
      }
    },
    {
      "type" : "Feature",
      "id" : 168,
      "geometry" : {
        "type" : "Point",
        "coordinates" : [
          135.19215000000008,
          34.700180000000046
        ]
      },
      "properties" : {
        "OBJECTID" : 168,
        "name" : "鮨 すが弥",
        "lon" : 135.19215,
        "lat" : 34.700180000000003
      }
    },
    {
      "type" : "Feature",
      "id" : 169,
      "geometry" : {
        "type" : "Point",
        "coordinates" : [
          139.73415,
          35.669860000000085
        ]
      },
      "properties" : {
        "OBJECTID" : 169,
        "name" : "赤坂 菊乃井",
        "lon" : 139.73415,
        "lat" : 35.66986
      }
    },
    {
      "type" : "Feature",
      "id" : 170,
      "geometry" : {
        "type" : "Point",
        "coordinates" : [
          139.73565000000008,
          35.676030000000083
        ]
      },
      "properties" : {
        "OBJECTID" : 170,
        "name" : "すし匠 齋藤",
        "lon" : 139.73564999999999,
        "lat" : 35.676029999999997
      }
    },
    {
      "type" : "Feature",
      "id" : 171,
      "geometry" : {
        "type" : "Point",
        "coordinates" : [
          139.73180000000002,
          35.67292000000009
        ]
      },
      "properties" : {
        "OBJECTID" : 171,
        "name" : "メゾン・ド・ユーロン",
        "lon" : 139.73179999999999,
        "lat" : 35.672919999999998
      }
    },
    {
      "type" : "Feature",
      "id" : 172,
      "geometry" : {
        "type" : "Point",
        "coordinates" : [
          139.73617000000002,
          35.676660000000084
        ]
      },
      "properties" : {
        "OBJECTID" : 172,
        "name" : "もりかわ　（移転予定）",
        "lon" : 139.73616999999999,
        "lat" : 35.676659999999998
      }
    },
    {
      "type" : "Feature",
      "id" : 173,
      "geometry" : {
        "type" : "Point",
        "coordinates" : [
          139.73621000000003,
          35.67686000000009
        ]
      },
      "properties" : {
        "OBJECTID" : 173,
        "name" : "赤坂 らいもん",
        "lon" : 139.73621,
        "lat" : 35.676859999999998
      }
    },
    {
      "type" : "Feature",
      "id" : 174,
      "geometry" : {
        "type" : "Point",
        "coordinates" : [
          139.73761000000002,
          35.673070000000052
        ]
      },
      "properties" : {
        "OBJECTID" : 174,
        "name" : "赤坂 きた福",
        "lon" : 139.73760999999999,
        "lat" : 35.673070000000003
      }
    },
    {
      "type" : "Feature",
      "id" : 175,
      "geometry" : {
        "type" : "Point",
        "coordinates" : [
          139.73761999999999,
          35.674530000000061
        ]
      },
      "properties" : {
        "OBJECTID" : 175,
        "name" : "赤坂 詠月",
        "lon" : 139.73761999999999,
        "lat" : 35.674529999999997
      }
    },
    {
      "type" : "Feature",
      "id" : 176,
      "geometry" : {
        "type" : "Point",
        "coordinates" : [
          139.74236000000008,
          35.667460000000062
        ]
      },
      "properties" : {
        "OBJECTID" : 176,
        "name" : "松川",
        "lon" : 139.74235999999999,
        "lat" : 35.667459999999998
      }
    },
    {
      "type" : "Feature",
      "id" : 177,
      "geometry" : {
        "type" : "Point",
        "coordinates" : [
          139.72314000000006,
          35.656520000000057
        ]
      },
      "properties" : {
        "OBJECTID" : 177,
        "name" : "K+",
        "lon" : 139.72314,
        "lat" : 35.65652
      }
    },
    {
      "type" : "Feature",
      "id" : 178,
      "geometry" : {
        "type" : "Point",
        "coordinates" : [
          139.7231700000001,
          35.658640000000048
        ]
      },
      "properties" : {
        "OBJECTID" : 178,
        "name" : "山上",
        "lon" : 139.72317000000001,
        "lat" : 35.658639999999998
      }
    },
    {
      "type" : "Feature",
      "id" : 179,
      "geometry" : {
        "type" : "Point",
        "coordinates" : [
          139.7187100000001,
          35.658180000000073
        ]
      },
      "properties" : {
        "OBJECTID" : 179,
        "name" : "鳥さわ22",
        "lon" : 139.71870999999999,
        "lat" : 35.658180000000002
      }
    },
    {
      "type" : "Feature",
      "id" : 180,
      "geometry" : {
        "type" : "Point",
        "coordinates" : [
          139.72251000000006,
          35.659340000000043
        ]
      },
      "properties" : {
        "OBJECTID" : 180,
        "name" : "とく山",
        "lon" : 139.72251,
        "lat" : 35.65934
      }
    },
    {
      "type" : "Feature",
      "id" : 181,
      "geometry" : {
        "type" : "Point",
        "coordinates" : [
          139.72266999999999,
          35.658200000000079
        ]
      },
      "properties" : {
        "OBJECTID" : 181,
        "name" : "臼杵ふぐ 山田屋 西麻布",
        "lon" : 139.72266999999999,
        "lat" : 35.658200000000001
      }
    },
    {
      "type" : "Feature",
      "id" : 182,
      "geometry" : {
        "type" : "Point",
        "coordinates" : [
          139.72394000000008,
          35.658030000000053
        ]
      },
      "properties" : {
        "OBJECTID" : 182,
        "name" : "グルマンディーズ",
        "lon" : 139.72394,
        "lat" : 35.658029999999997
      }
    },
    {
      "type" : "Feature",
      "id" : 183,
      "geometry" : {
        "type" : "Point",
        "coordinates" : [
          139.72518000000002,
          35.659860000000037
        ]
      },
      "properties" : {
        "OBJECTID" : 183,
        "name" : "蒼 西麻布",
        "lon" : 139.72517999999999,
        "lat" : 35.659860000000002
      }
    },
    {
      "type" : "Feature",
      "id" : 184,
      "geometry" : {
        "type" : "Point",
        "coordinates" : [
          139.72660000000008,
          35.660110000000088
        ]
      },
      "properties" : {
        "OBJECTID" : 184,
        "name" : "江戸前鮓 すし通",
        "lon" : 139.72659999999999,
        "lat" : 35.660110000000003
      }
    },
    {
      "type" : "Feature",
      "id" : 185,
      "geometry" : {
        "type" : "Point",
        "coordinates" : [
          139.71940000000006,
          35.660210000000063
        ]
      },
      "properties" : {
        "OBJECTID" : 185,
        "name" : "レフェルヴェソンス",
        "lon" : 139.71940000000001,
        "lat" : 35.660209999999999
      }
    },
    {
      "type" : "Feature",
      "id" : 186,
      "geometry" : {
        "type" : "Point",
        "coordinates" : [
          139.72129000000007,
          35.659830000000056
        ]
      },
      "properties" : {
        "OBJECTID" : 186,
        "name" : "Crony",
        "lon" : 139.72129000000001,
        "lat" : 35.659829999999999
      }
    },
    {
      "type" : "Feature",
      "id" : 187,
      "geometry" : {
        "type" : "Point",
        "coordinates" : [
          139.72181,
          35.66101000000009
        ]
      },
      "properties" : {
        "OBJECTID" : 187,
        "name" : "AZUR et MASA UEKI",
        "lon" : 139.72181,
        "lat" : 35.661009999999997
      }
    },
    {
      "type" : "Feature",
      "id" : 188,
      "geometry" : {
        "type" : "Point",
        "coordinates" : [
          139.72246000000007,
          35.660160000000076
        ]
      },
      "properties" : {
        "OBJECTID" : 188,
        "name" : "肉割烹 上",
        "lon" : 139.72246000000001,
        "lat" : 35.660159999999998
      }
    },
    {
      "type" : "Feature",
      "id" : 189,
      "geometry" : {
        "type" : "Point",
        "coordinates" : [
          139.72093000000007,
          35.661630000000059
        ]
      },
      "properties" : {
        "OBJECTID" : 189,
        "name" : "豪龍久保",
        "lon" : 139.72093000000001,
        "lat" : 35.661630000000002
      }
    },
    {
      "type" : "Feature",
      "id" : 190,
      "geometry" : {
        "type" : "Point",
        "coordinates" : [
          139.72575000000006,
          35.662100000000066
        ]
      },
      "properties" : {
        "OBJECTID" : 190,
        "name" : "海鮮名菜　香宮",
        "lon" : 139.72575000000001,
        "lat" : 35.662100000000002
      }
    },
    {
      "type" : "Feature",
      "id" : 191,
      "geometry" : {
        "type" : "Point",
        "coordinates" : [
          139.72327000000007,
          35.661780000000078
        ]
      },
      "properties" : {
        "OBJECTID" : 191,
        "name" : "山﨑",
        "lon" : 139.72327000000001,
        "lat" : 35.66178
      }
    },
    {
      "type" : "Feature",
      "id" : 192,
      "geometry" : {
        "type" : "Point",
        "coordinates" : [
          139.75155000000007,
          35.668050000000051
        ]
      },
      "properties" : {
        "OBJECTID" : 192,
        "name" : "新ばし 笹田",
        "lon" : 139.75155000000001,
        "lat" : 35.668050000000001
      }
    },
    {
      "type" : "Feature",
      "id" : 193,
      "geometry" : {
        "type" : "Point",
        "coordinates" : [
          139.75325000000009,
          35.667590000000075
        ]
      },
      "properties" : {
        "OBJECTID" : 193,
        "name" : "味享",
        "lon" : 139.75325000000001,
        "lat" : 35.667589999999997
      }
    },
    {
      "type" : "Feature",
      "id" : 194,
      "geometry" : {
        "type" : "Point",
        "coordinates" : [
          139.75529000000006,
          35.662410000000079
        ]
      },
      "properties" : {
        "OBJECTID" : 194,
        "name" : "新ばし 星野",
        "lon" : 139.75529,
        "lat" : 35.662410000000001
      }
    },
    {
      "type" : "Feature",
      "id" : 195,
      "geometry" : {
        "type" : "Point",
        "coordinates" : [
          139.75701000000004,
          35.664100000000076
        ]
      },
      "properties" : {
        "OBJECTID" : 195,
        "name" : "レストラン ラ フィネス",
        "lon" : 139.75701000000001,
        "lat" : 35.664099999999998
      }
    },
    {
      "type" : "Feature",
      "id" : 196,
      "geometry" : {
        "type" : "Point",
        "coordinates" : [
          139.75517000000002,
          35.666240000000073
        ]
      },
      "properties" : {
        "OBJECTID" : 196,
        "name" : "ひろ作",
        "lon" : 139.75516999999999,
        "lat" : 35.666240000000002
      }
    },
    {
      "type" : "Feature",
      "id" : 197,
      "geometry" : {
        "type" : "Point",
        "coordinates" : [
          139.7564000000001,
          35.666460000000086
        ]
      },
      "properties" : {
        "OBJECTID" : 197,
        "name" : "新ばし しみづ",
        "lon" : 139.75640000000001,
        "lat" : 35.666460000000001
      }
    },
    {
      "type" : "Feature",
      "id" : 198,
      "geometry" : {
        "type" : "Point",
        "coordinates" : [
          139.76019000000008,
          35.667610000000082
        ]
      },
      "properties" : {
        "OBJECTID" : 198,
        "name" : "趙楊",
        "lon" : 139.76018999999999,
        "lat" : 35.667610000000003
      }
    },
    {
      "type" : "Feature",
      "id" : 199,
      "geometry" : {
        "type" : "Point",
        "coordinates" : [
          139.75265000000002,
          35.657420000000059
        ]
      },
      "properties" : {
        "OBJECTID" : 199,
        "name" : "くろぎ",
        "lon" : 139.75264999999999,
        "lat" : 35.657420000000002
      }
    },
    {
      "type" : "Feature",
      "id" : 200,
      "geometry" : {
        "type" : "Point",
        "coordinates" : [
          139.73724000000004,
          35.646980000000042
        ]
      },
      "properties" : {
        "OBJECTID" : 200,
        "name" : "コート ドール",
        "lon" : 139.73724000000001,
        "lat" : 35.646979999999999
      }
    },
    {
      "type" : "Feature",
      "id" : 201,
      "geometry" : {
        "type" : "Point",
        "coordinates" : [
          139.73996,
          35.647420000000068
        ]
      },
      "properties" : {
        "OBJECTID" : 201,
        "name" : "日本料理 晴山",
        "lon" : 139.73996,
        "lat" : 35.647419999999997
      }
    },
    {
      "type" : "Feature",
      "id" : 202,
      "geometry" : {
        "type" : "Point",
        "coordinates" : [
          139.73282000000006,
          35.635050000000035
        ]
      },
      "properties" : {
        "OBJECTID" : 202,
        "name" : "パティスリー リョーコ",
        "lon" : 139.73282,
        "lat" : 35.63505
      }
    },
    {
      "type" : "Feature",
      "id" : 203,
      "geometry" : {
        "type" : "Point",
        "coordinates" : [
          139.75021000000004,
          35.668950000000052
        ]
      },
      "properties" : {
        "OBJECTID" : 203,
        "name" : "と村",
        "lon" : 139.75021000000001,
        "lat" : 35.668950000000002
      }
    },
    {
      "type" : "Feature",
      "id" : 204,
      "geometry" : {
        "type" : "Point",
        "coordinates" : [
          139.72869000000003,
          35.657050000000083
        ]
      },
      "properties" : {
        "OBJECTID" : 204,
        "name" : "エクアトゥール",
        "lon" : 139.72869,
        "lat" : 35.657049999999998
      }
    },
    {
      "type" : "Feature",
      "id" : 205,
      "geometry" : {
        "type" : "Point",
        "coordinates" : [
          139.73244,
          35.677540000000079
        ]
      },
      "properties" : {
        "OBJECTID" : 205,
        "name" : "鮨 はしぐち",
        "lon" : 139.73244,
        "lat" : 35.67754
      }
    },
    {
      "type" : "Feature",
      "id" : 206,
      "geometry" : {
        "type" : "Point",
        "coordinates" : [
          139.79306000000008,
          35.675460000000044
        ]
      },
      "properties" : {
        "OBJECTID" : 206,
        "name" : "みかわ 是山居",
        "lon" : 139.79306,
        "lat" : 35.675460000000001
      }
    },
    {
      "type" : "Feature",
      "id" : 207,
      "geometry" : {
        "type" : "Point",
        "coordinates" : [
          139.79837000000009,
          35.684350000000052
        ]
      },
      "properties" : {
        "OBJECTID" : 207,
        "name" : "静龍苑",
        "lon" : 139.79837000000001,
        "lat" : 35.684350000000002
      }
    },
    {
      "type" : "Feature",
      "id" : 208,
      "geometry" : {
        "type" : "Point",
        "coordinates" : [
          139.82370000000003,
          35.698350000000062
        ]
      },
      "properties" : {
        "OBJECTID" : 208,
        "name" : "鳥さわ",
        "lon" : 139.8237,
        "lat" : 35.698349999999998
      }
    }
  ]
}