{
  "type" : "FeatureCollection",
  "features" : [
    {
      "type" : "Feature",
      "id" : 1,
      "geometry" : {
        "type" : "Point",
        "coordinates" : [
          139.73010750000003,
          35.664840000000083
        ]
      },
      "properties" : {
        "OBJECTID" : 1,
        "lat" : 35.664839999999998,
        "lon" : 139.7301075,
        "name" : "さわやか信用金庫六本木支店"
      }
    },
    {
      "type" : "Feature",
      "id" : 2,
      "geometry" : {
        "type" : "Point",
        "coordinates" : [
          139.72841100000005,
          35.66593800000004
        ]
      },
      "properties" : {
        "OBJECTID" : 2,
        "lat" : 35.665937999999997,
        "lon" : 139.72841099999999,
        "name" : "セブンイレブン 港区乃木坂駅南店"
      }
    },
    {
      "type" : "Feature",
      "id" : 3,
      "geometry" : {
        "type" : "Point",
        "coordinates" : [
          139.72907700000007,
          35.664651000000049
        ]
      },
      "properties" : {
        "OBJECTID" : 3,
        "lat" : 35.664650999999999,
        "lon" : 139.72907699999999,
        "name" : "セブンイレブン 六本木7丁目店"
      }
    },
    {
      "type" : "Feature",
      "id" : 4,
      "geometry" : {
        "type" : "Point",
        "coordinates" : [
          139.73143500000003,
          35.663589000000059
        ]
      },
      "properties" : {
        "OBJECTID" : 4,
        "lat" : 35.663589000000002,
        "lon" : 139.731435,
        "name" : "セブンイレブン 六本木駅北店"
      }
    },
    {
      "type" : "Feature",
      "id" : 5,
      "geometry" : {
        "type" : "Point",
        "coordinates" : [
          139.73144850000006,
          35.662833000000035
        ]
      },
      "properties" : {
        "OBJECTID" : 5,
        "lat" : 35.662832999999999,
        "lon" : 139.7314485,
        "name" : "セブン銀行 東京メトロ 日比谷線 六本木駅 共同出張所"
      }
    },
    {
      "type" : "Feature",
      "id" : 6,
      "geometry" : {
        "type" : "Point",
        "coordinates" : [
          139.73084100000005,
          35.664255000000082
        ]
      },
      "properties" : {
        "OBJECTID" : 6,
        "lat" : 35.664254999999997,
        "lon" : 139.730841,
        "name" : "ファミリーマート六本木七丁目 共同出張所(イーネットATM)"
      }
    },
    {
      "type" : "Feature",
      "id" : 7,
      "geometry" : {
        "type" : "Point",
        "coordinates" : [
          139.73102100000006,
          35.663085000000081
        ]
      },
      "properties" : {
        "OBJECTID" : 7,
        "lat" : 35.663085000000002,
        "lon" : 139.731021,
        "name" : "みずほ銀行六本木支店"
      }
    },
    {
      "type" : "Feature",
      "id" : 8,
      "geometry" : {
        "type" : "Point",
        "coordinates" : [
          139.72962600000005,
          35.662293000000034
        ]
      },
      "properties" : {
        "OBJECTID" : 8,
        "lat" : 35.662292999999998,
        "lon" : 139.729626,
        "name" : "ゆうちょ銀行 本店 ファミリーマート六本木通り店内出張所(ATM)"
      }
    },
    {
      "type" : "Feature",
      "id" : 9,
      "geometry" : {
        "type" : "Point",
        "coordinates" : [
          139.7277855000001,
          35.666424000000063
        ]
      },
      "properties" : {
        "OBJECTID" : 9,
        "lat" : 35.666423999999999,
        "lon" : 139.72778550000001,
        "name" : "乃木坂駅前郵便局"
      }
    },
    {
      "type" : "Feature",
      "id" : 10,
      "geometry" : {
        "type" : "Point",
        "coordinates" : [
          139.72902750000003,
          35.660331000000042
        ]
      },
      "properties" : {
        "OBJECTID" : 10,
        "lat" : 35.660330999999999,
        "lon" : 139.7290275,
        "name" : "さわやか信用金庫 ATM 六本木ヒルズ店"
      }
    },
    {
      "type" : "Feature",
      "id" : 11,
      "geometry" : {
        "type" : "Point",
        "coordinates" : [
          139.73081850000005,
          35.659638000000086
        ]
      },
      "properties" : {
        "OBJECTID" : 11,
        "lat" : 35.659638000000001,
        "lon" : 139.7308185,
        "name" : "セブンイレブン 7FSテレビ朝日本社ビル店"
      }
    },
    {
      "type" : "Feature",
      "id" : 12,
      "geometry" : {
        "type" : "Point",
        "coordinates" : [
          139.73233950000008,
          35.662707000000069
        ]
      },
      "properties" : {
        "OBJECTID" : 12,
        "lat" : 35.662706999999997,
        "lon" : 139.73233949999999,
        "name" : "セブンイレブン 六本木6丁目店"
      }
    },
    {
      "type" : "Feature",
      "id" : 13,
      "geometry" : {
        "type" : "Point",
        "coordinates" : [
          139.73013450000008,
          35.661339000000055
        ]
      },
      "properties" : {
        "OBJECTID" : 13,
        "lat" : 35.661338999999998,
        "lon" : 139.73013449999999,
        "name" : "セブン銀行 六本木ヒルズハリウッドビューティプラザ 共同出張所"
      }
    },
    {
      "type" : "Feature",
      "id" : 14,
      "geometry" : {
        "type" : "Point",
        "coordinates" : [
          139.72926150000001,
          35.660430000000076
        ]
      },
      "properties" : {
        "OBJECTID" : 14,
        "lat" : 35.660429999999998,
        "lon" : 139.72926150000001,
        "name" : "セブン銀行 六本木ヒルズ森タワー 共同出張所"
      }
    },
    {
      "type" : "Feature",
      "id" : 15,
      "geometry" : {
        "type" : "Point",
        "coordinates" : [
          139.73191200000008,
          35.662563000000034
        ]
      },
      "properties" : {
        "OBJECTID" : 15,
        "lat" : 35.662562999999999,
        "lon" : 139.73191199999999,
        "name" : "ファミリーマート地下鉄六本木駅1号機 共同出張所(イーネットATM)"
      }
    },
    {
      "type" : "Feature",
      "id" : 16,
      "geometry" : {
        "type" : "Point",
        "coordinates" : [
          139.73191200000008,
          35.662563000000034
        ]
      },
      "properties" : {
        "OBJECTID" : 16,
        "lat" : 35.662562999999999,
        "lon" : 139.73191199999999,
        "name" : "ファミリーマート地下鉄六本木駅2号機 共同出張所(イーネットATM)"
      }
    },
    {
      "type" : "Feature",
      "id" : 17,
      "geometry" : {
        "type" : "Point",
        "coordinates" : [
          139.73015250000003,
          35.661789000000056
        ]
      },
      "properties" : {
        "OBJECTID" : 17,
        "lat" : 35.661788999999999,
        "lon" : 139.7301525,
        "name" : "ファミリーマート六本木ヒルズ 共同出張所(イーネットATM)"
      }
    },
    {
      "type" : "Feature",
      "id" : 18,
      "geometry" : {
        "type" : "Point",
        "coordinates" : [
          139.72902750000003,
          35.660331000000042
        ]
      },
      "properties" : {
        "OBJECTID" : 18,
        "lat" : 35.660330999999999,
        "lon" : 139.7290275,
        "name" : "みずほ銀行 ATM 六本木ヒルズ店"
      }
    },
    {
      "type" : "Feature",
      "id" : 19,
      "geometry" : {
        "type" : "Point",
        "coordinates" : [
          139.7325330000001,
          35.661249000000055
        ]
      },
      "properties" : {
        "OBJECTID" : 19,
        "lat" : 35.661248999999998,
        "lon" : 139.73253299999999,
        "name" : "ゆうちょ銀行 本店 ファミリーマート六本木六丁目店内出張所(ATM)"
      }
    },
    {
      "type" : "Feature",
      "id" : 20,
      "geometry" : {
        "type" : "Point",
        "coordinates" : [
          139.72926150000001,
          35.660430000000076
        ]
      },
      "properties" : {
        "OBJECTID" : 20,
        "lat" : 35.660429999999998,
        "lon" : 139.72926150000001,
        "name" : "ゆうちょ銀行 本店 六本木ヒルズ内出張所(ATM)"
      }
    },
    {
      "type" : "Feature",
      "id" : 21,
      "geometry" : {
        "type" : "Point",
        "coordinates" : [
          139.72926150000001,
          35.660430000000076
        ]
      },
      "properties" : {
        "OBJECTID" : 21,
        "lat" : 35.660429999999998,
        "lon" : 139.72926150000001,
        "name" : "外貨両替ワールドカレンシーショップ (三菱UFJフィナンシャル・グループ) 六本木ヒルズ店"
      }
    },
    {
      "type" : "Feature",
      "id" : 22,
      "geometry" : {
        "type" : "Point",
        "coordinates" : [
          139.72902750000003,
          35.660331000000042
        ]
      },
      "properties" : {
        "OBJECTID" : 22,
        "lat" : 35.660330999999999,
        "lon" : 139.7290275,
        "name" : "三井住友銀行 ATM 六本木ヒルズ店"
      }
    },
    {
      "type" : "Feature",
      "id" : 23,
      "geometry" : {
        "type" : "Point",
        "coordinates" : [
          139.73143950000008,
          35.662482000000068
        ]
      },
      "properties" : {
        "OBJECTID" : 23,
        "lat" : 35.662481999999997,
        "lon" : 139.73143949999999,
        "name" : "三井住友銀行六本木支店"
      }
    },
    {
      "type" : "Feature",
      "id" : 24,
      "geometry" : {
        "type" : "Point",
        "coordinates" : [
          139.72926150000001,
          35.660430000000076
        ]
      },
      "properties" : {
        "OBJECTID" : 24,
        "lat" : 35.660429999999998,
        "lon" : 139.72926150000001,
        "name" : "六本木ヒルズ郵便局"
      }
    },
    {
      "type" : "Feature",
      "id" : 25,
      "geometry" : {
        "type" : "Point",
        "coordinates" : [
          139.73252850000006,
          35.662221000000045
        ]
      },
      "properties" : {
        "OBJECTID" : 25,
        "lat" : 35.662221000000002,
        "lon" : 139.7325285,
        "name" : "六本木駅前郵便局"
      }
    },
    {
      "type" : "Feature",
      "id" : 26,
      "geometry" : {
        "type" : "Point",
        "coordinates" : [
          139.73350950000008,
          35.662419000000057
        ]
      },
      "properties" : {
        "OBJECTID" : 26,
        "lat" : 35.662419,
        "lon" : 139.7335095,
        "name" : "セブンイレブン 六本木5丁目店"
      }
    },
    {
      "type" : "Feature",
      "id" : 27,
      "geometry" : {
        "type" : "Point",
        "coordinates" : [
          139.73564250000004,
          35.661726000000044
        ]
      },
      "properties" : {
        "OBJECTID" : 27,
        "lat" : 35.661726000000002,
        "lon" : 139.73564250000001,
        "name" : "デイリーヤマザキ六本木5丁目 共同出張所(イーネットATM)"
      }
    },
    {
      "type" : "Feature",
      "id" : 28,
      "geometry" : {
        "type" : "Point",
        "coordinates" : [
          139.73362650000001,
          35.660088000000087
        ]
      },
      "properties" : {
        "OBJECTID" : 28,
        "lat" : 35.660088000000002,
        "lon" : 139.73362650000001,
        "name" : "日本銀行 鳥居坂分館"
      }
    },
    {
      "type" : "Feature",
      "id" : 29,
      "geometry" : {
        "type" : "Point",
        "coordinates" : [
          139.73251950000008,
          35.66360700000007
        ]
      },
      "properties" : {
        "OBJECTID" : 29,
        "lat" : 35.663606999999999,
        "lon" : 139.7325195,
        "name" : "デイリーヤマザキ六本木交差点 共同出張所(イーネットATM)"
      }
    },
    {
      "type" : "Feature",
      "id" : 30,
      "geometry" : {
        "type" : "Point",
        "coordinates" : [
          139.73236650000001,
          35.66356200000007
        ]
      },
      "properties" : {
        "OBJECTID" : 30,
        "lat" : 35.663561999999999,
        "lon" : 139.73236650000001,
        "name" : "外貨両替ワールドカレンシーショップ (三菱UFJフィナンシャル・グループ) 六本木店"
      }
    },
    {
      "type" : "Feature",
      "id" : 31,
      "geometry" : {
        "type" : "Point",
        "coordinates" : [
          139.73236650000001,
          35.66356200000007
        ]
      },
      "properties" : {
        "OBJECTID" : 31,
        "lat" : 35.663561999999999,
        "lon" : 139.73236650000001,
        "name" : "三菱UFJ銀行六本木支店"
      }
    },
    {
      "type" : "Feature",
      "id" : 32,
      "geometry" : {
        "type" : "Point",
        "coordinates" : [
          139.73773500000004,
          35.66466900000006
        ]
      },
      "properties" : {
        "OBJECTID" : 32,
        "lat" : 35.664669000000004,
        "lon" : 139.73773499999999,
        "name" : "セブンイレブン テレビ東京本社店"
      }
    },
    {
      "type" : "Feature",
      "id" : 33,
      "geometry" : {
        "type" : "Point",
        "coordinates" : [
          139.73587200000009,
          35.66475900000006
        ]
      },
      "properties" : {
        "OBJECTID" : 33,
        "lat" : 35.664758999999997,
        "lon" : 139.735872,
        "name" : "セブンイレブン 六本木3丁目店"
      }
    },
    {
      "type" : "Feature",
      "id" : 34,
      "geometry" : {
        "type" : "Point",
        "coordinates" : [
          139.73817150000002,
          35.66555100000005
        ]
      },
      "properties" : {
        "OBJECTID" : 34,
        "lat" : 35.665551000000001,
        "lon" : 139.73817149999999,
        "name" : "セブンイレブン 六本木ティーキューブ店"
      }
    },
    {
      "type" : "Feature",
      "id" : 35,
      "geometry" : {
        "type" : "Point",
        "coordinates" : [
          139.73773500000004,
          35.66466900000006
        ]
      },
      "properties" : {
        "OBJECTID" : 35,
        "lat" : 35.664669000000004,
        "lon" : 139.73773499999999,
        "name" : "セブン銀行 住友不動産 六本木グランドタワー 共同出張所"
      }
    },
    {
      "type" : "Feature",
      "id" : 36,
      "geometry" : {
        "type" : "Point",
        "coordinates" : [
          139.73487299999999,
          35.664147000000071
        ]
      },
      "properties" : {
        "OBJECTID" : 36,
        "lat" : 35.664147,
        "lon" : 139.73487299999999,
        "name" : "デイリーヤマザキ六本木3丁目 共同出張所(イーネットATM)"
      }
    },
    {
      "type" : "Feature",
      "id" : 37,
      "geometry" : {
        "type" : "Point",
        "coordinates" : [
          139.73467049999999,
          35.662437000000068
        ]
      },
      "properties" : {
        "OBJECTID" : 37,
        "lat" : 35.662436999999997,
        "lon" : 139.73467049999999,
        "name" : "ドン・キホーテ六本木 共同出張所(イーネットATM)"
      }
    },
    {
      "type" : "Feature",
      "id" : 38,
      "geometry" : {
        "type" : "Point",
        "coordinates" : [
          139.73296500000004,
          35.663292000000069
        ]
      },
      "properties" : {
        "OBJECTID" : 38,
        "lat" : 35.663291999999998,
        "lon" : 139.73296500000001,
        "name" : "ファミリーマート六本木駅前 共同出張所(イーネットATM)"
      }
    },
    {
      "type" : "Feature",
      "id" : 39,
      "geometry" : {
        "type" : "Point",
        "coordinates" : [
          139.73746500000004,
          35.663436000000047
        ]
      },
      "properties" : {
        "OBJECTID" : 39,
        "lat" : 35.663435999999997,
        "lon" : 139.73746499999999,
        "name" : "ファミリーマート六本木三丁目 共同出張所(イーネットATM)"
      }
    },
    {
      "type" : "Feature",
      "id" : 40,
      "geometry" : {
        "type" : "Point",
        "coordinates" : [
          139.73490450000008,
          35.662293000000034
        ]
      },
      "properties" : {
        "OBJECTID" : 40,
        "lat" : 35.662292999999998,
        "lon" : 139.7349045,
        "name" : "ファミリーマート六本木東 共同出張所(イーネットATM)"
      }
    },
    {
      "type" : "Feature",
      "id" : 41,
      "geometry" : {
        "type" : "Point",
        "coordinates" : [
          139.73772600000007,
          35.664408000000037
        ]
      },
      "properties" : {
        "OBJECTID" : 41,
        "lat" : 35.664408000000002,
        "lon" : 139.73772600000001,
        "name" : "リーベンハウス六本木グランドタワー 共同出張所(イーネットATM)"
      }
    },
    {
      "type" : "Feature",
      "id" : 42,
      "geometry" : {
        "type" : "Point",
        "coordinates" : [
          139.7366505,
          35.662689000000057
        ]
      },
      "properties" : {
        "OBJECTID" : 42,
        "lat" : 35.662689,
        "lon" : 139.7366505,
        "name" : "世田谷信用金庫六本木支店"
      }
    },
    {
      "type" : "Feature",
      "id" : 43,
      "geometry" : {
        "type" : "Point",
        "coordinates" : [
          139.73782950000009,
          35.666523000000041
        ]
      },
      "properties" : {
        "OBJECTID" : 43,
        "lat" : 35.666522999999998,
        "lon" : 139.7378295,
        "name" : "きらぼし銀行 六本木一丁目駅前"
      }
    },
    {
      "type" : "Feature",
      "id" : 44,
      "geometry" : {
        "type" : "Point",
        "coordinates" : [
          139.73873400000002,
          35.667243000000042
        ]
      },
      "properties" : {
        "OBJECTID" : 44,
        "lat" : 35.667242999999999,
        "lon" : 139.73873399999999,
        "name" : "ゆうちょ銀行 本店 ファミリーマートアークヒルズ前店内出張所(ATM)"
      }
    },
    {
      "type" : "Feature",
      "id" : 45,
      "geometry" : {
        "type" : "Point",
        "coordinates" : [
          139.73943150000002,
          35.664597000000072
        ]
      },
      "properties" : {
        "OBJECTID" : 45,
        "lat" : 35.664597000000001,
        "lon" : 139.73943149999999,
        "name" : "クレディスイス銀行東京支店"
      }
    },
    {
      "type" : "Feature",
      "id" : 46,
      "geometry" : {
        "type" : "Point",
        "coordinates" : [
          139.7393505,
          35.666271000000052
        ]
      },
      "properties" : {
        "OBJECTID" : 46,
        "lat" : 35.666271000000002,
        "lon" : 139.7393505,
        "name" : "セブン銀行 東京メトロ 南北線 六本木一丁目駅 共同出張所"
      }
    },
    {
      "type" : "Feature",
      "id" : 47,
      "geometry" : {
        "type" : "Point",
        "coordinates" : [
          139.74181650000003,
          35.663625000000081
        ]
      },
      "properties" : {
        "OBJECTID" : 47,
        "lat" : 35.663625000000003,
        "lon" : 139.7418165,
        "name" : "ファミリーマートファミマ仙石山森タワー 共同出張所(イーネットATM)"
      }
    },
    {
      "type" : "Feature",
      "id" : 48,
      "geometry" : {
        "type" : "Point",
        "coordinates" : [
          139.73967450000009,
          35.663193000000035
        ]
      },
      "properties" : {
        "OBJECTID" : 48,
        "lat" : 35.663193,
        "lon" : 139.73967450000001,
        "name" : "ゆうちょ銀行 本店 ファミリーマート六本木一丁目店内出張所(ATM)"
      }
    },
    {
      "type" : "Feature",
      "id" : 49,
      "geometry" : {
        "type" : "Point",
        "coordinates" : [
          139.73943150000002,
          35.664597000000072
        ]
      },
      "properties" : {
        "OBJECTID" : 49,
        "lat" : 35.664597000000001,
        "lon" : 139.73943149999999,
        "name" : "リーベンハウス泉ガーデンタワー六本木 共同出張所(イーネットATM)"
      }
    },
    {
      "type" : "Feature",
      "id" : 50,
      "geometry" : {
        "type" : "Point",
        "coordinates" : [
          139.73943150000002,
          35.664597000000072
        ]
      },
      "properties" : {
        "OBJECTID" : 50,
        "lat" : 35.664597000000001,
        "lon" : 139.73943149999999,
        "name" : "住信SBIネット銀行"
      }
    },
    {
      "type" : "Feature",
      "id" : 51,
      "geometry" : {
        "type" : "Point",
        "coordinates" : [
          139.7392605,
          35.663823000000036
        ]
      },
      "properties" : {
        "OBJECTID" : 51,
        "lat" : 35.663823000000001,
        "lon" : 139.7392605,
        "name" : "全特六本木ビル内郵便局"
      }
    },
    {
      "type" : "Feature",
      "id" : 52,
      "geometry" : {
        "type" : "Point",
        "coordinates" : [
          139.73390550000011,
          35.686755000000062
        ]
      },
      "properties" : {
        "OBJECTID" : 52,
        "lat" : 35.686754999999998,
        "lon" : 139.73390549999999,
        "name" : "三菱UFJ銀行 番町分館"
      }
    },
    {
      "type" : "Feature",
      "id" : 53,
      "geometry" : {
        "type" : "Point",
        "coordinates" : [
          139.7428020000001,
          35.702739000000065
        ]
      },
      "properties" : {
        "OBJECTID" : 53,
        "lat" : 35.702739000000001,
        "lon" : 139.74280200000001,
        "name" : "セブンイレブン 新宿揚場町店"
      }
    },
    {
      "type" : "Feature",
      "id" : 54,
      "geometry" : {
        "type" : "Point",
        "coordinates" : [
          139.74332400000003,
          35.701893000000041
        ]
      },
      "properties" : {
        "OBJECTID" : 54,
        "lat" : 35.701892999999998,
        "lon" : 139.743324,
        "name" : "セブンイレブン 飯田橋升本ビル店"
      }
    },
    {
      "type" : "Feature",
      "id" : 55,
      "geometry" : {
        "type" : "Point",
        "coordinates" : [
          139.74329250000005,
          35.702658000000042
        ]
      },
      "properties" : {
        "OBJECTID" : 55,
        "lat" : 35.702658,
        "lon" : 139.7432925,
        "name" : "ゆうちょ銀行 本店 ファミリーマート飯田橋店内出張所(ATM)"
      }
    },
    {
      "type" : "Feature",
      "id" : 56,
      "geometry" : {
        "type" : "Point",
        "coordinates" : [
          139.74365250000005,
          35.702244000000064
        ]
      },
      "properties" : {
        "OBJECTID" : 56,
        "lat" : 35.702244,
        "lon" : 139.7436525,
        "name" : "三井住友銀行飯田橋支店"
      }
    },
    {
      "type" : "Feature",
      "id" : 57,
      "geometry" : {
        "type" : "Point",
        "coordinates" : [
          139.71637800000008,
          35.698338000000035
        ]
      },
      "properties" : {
        "OBJECTID" : 57,
        "lat" : 35.698338,
        "lon" : 139.71637799999999,
        "name" : "セブンイレブン 新宿余丁町店"
      }
    },
    {
      "type" : "Feature",
      "id" : 58,
      "geometry" : {
        "type" : "Point",
        "coordinates" : [
          139.7154015000001,
          35.696304000000055
        ]
      },
      "properties" : {
        "OBJECTID" : 58,
        "lat" : 35.696303999999998,
        "lon" : 139.71540150000001,
        "name" : "ファミリーマート新宿余丁町 共同出張所(イーネットATM)"
      }
    },
    {
      "type" : "Feature",
      "id" : 59,
      "geometry" : {
        "type" : "Point",
        "coordinates" : [
          139.71503700000005,
          35.697726000000046
        ]
      },
      "properties" : {
        "OBJECTID" : 59,
        "lat" : 35.697726000000003,
        "lon" : 139.715037,
        "name" : "牛込抜弁天郵便局"
      }
    },
    {
      "type" : "Feature",
      "id" : 60,
      "geometry" : {
        "type" : "Point",
        "coordinates" : [
          139.76356500000009,
          35.673570000000041
        ]
      },
      "properties" : {
        "OBJECTID" : 60,
        "lat" : 35.673569999999998,
        "lon" : 139.763565,
        "name" : "PRESTIA EXCHANGE 有楽町マリオン外貨両替コーナー"
      }
    },
    {
      "type" : "Feature",
      "id" : 61,
      "geometry" : {
        "type" : "Point",
        "coordinates" : [
          139.76365950000002,
          35.674209000000076
        ]
      },
      "properties" : {
        "OBJECTID" : 61,
        "lat" : 35.674208999999998,
        "lon" : 139.76365949999999,
        "name" : "セブンイレブン 有楽町イトシア店"
      }
    },
    {
      "type" : "Feature",
      "id" : 62,
      "geometry" : {
        "type" : "Point",
        "coordinates" : [
          139.76270550000004,
          35.674245000000042
        ]
      },
      "properties" : {
        "OBJECTID" : 62,
        "lat" : 35.674244999999999,
        "lon" : 139.76270550000001,
        "name" : "セブンイレブン 有楽町駅前店"
      }
    },
    {
      "type" : "Feature",
      "id" : 63,
      "geometry" : {
        "type" : "Point",
        "coordinates" : [
          139.764366,
          35.674929000000077
        ]
      },
      "properties" : {
        "OBJECTID" : 63,
        "lat" : 35.674928999999999,
        "lon" : 139.764366,
        "name" : "セブン銀行 東京交通会館ビル 共同出張所"
      }
    },
    {
      "type" : "Feature",
      "id" : 64,
      "geometry" : {
        "type" : "Point",
        "coordinates" : [
          139.76365950000002,
          35.674209000000076
        ]
      },
      "properties" : {
        "OBJECTID" : 64,
        "lat" : 35.674208999999998,
        "lon" : 139.76365949999999,
        "name" : "セブン銀行 有楽町イトシア 共同出張所"
      }
    },
    {
      "type" : "Feature",
      "id" : 65,
      "geometry" : {
        "type" : "Point",
        "coordinates" : [
          139.76294400000006,
          35.674380000000042
        ]
      },
      "properties" : {
        "OBJECTID" : 65,
        "lat" : 35.674379999999999,
        "lon" : 139.762944,
        "name" : "ファミリーマート有楽町駅前 共同出張所(イーネットATM)"
      }
    },
    {
      "type" : "Feature",
      "id" : 66,
      "geometry" : {
        "type" : "Point",
        "coordinates" : [
          139.764366,
          35.674929000000077
        ]
      },
      "properties" : {
        "OBJECTID" : 66,
        "lat" : 35.674928999999999,
        "lon" : 139.764366,
        "name" : "外貨両替ワールドカレンシーショップ (三菱UFJフィナンシャル・グループ) 有楽町店"
      }
    },
    {
      "type" : "Feature",
      "id" : 67,
      "geometry" : {
        "type" : "Point",
        "coordinates" : [
          139.764366,
          35.674929000000077
        ]
      },
      "properties" : {
        "OBJECTID" : 67,
        "lat" : 35.674928999999999,
        "lon" : 139.764366,
        "name" : "東京交通会館内郵便局"
      }
    },
    {
      "type" : "Feature",
      "id" : 68,
      "geometry" : {
        "type" : "Point",
        "coordinates" : [
          139.7590335000001,
          35.673552000000086
        ]
      },
      "properties" : {
        "OBJECTID" : 68,
        "lat" : 35.673552000000001,
        "lon" : 139.75903349999999,
        "name" : "セブンイレブン 東京ミッドタウン日比谷ラウンジ店"
      }
    },
    {
      "type" : "Feature",
      "id" : 69,
      "geometry" : {
        "type" : "Point",
        "coordinates" : [
          139.75893450000001,
          35.673552000000086
        ]
      },
      "properties" : {
        "OBJECTID" : 69,
        "lat" : 35.673552000000001,
        "lon" : 139.75893450000001,
        "name" : "セブンイレブン 東京ミッドタウン日比谷店"
      }
    },
    {
      "type" : "Feature",
      "id" : 70,
      "geometry" : {
        "type" : "Point",
        "coordinates" : [
          139.76062650000006,
          35.673903000000053
        ]
      },
      "properties" : {
        "OBJECTID" : 70,
        "lat" : 35.673903000000003,
        "lon" : 139.7606265,
        "name" : "セブンイレブン 日比谷駅前店"
      }
    },
    {
      "type" : "Feature",
      "id" : 71,
      "geometry" : {
        "type" : "Point",
        "coordinates" : [
          139.76194050000004,
          35.675568000000055
        ]
      },
      "properties" : {
        "OBJECTID" : 71,
        "lat" : 35.675567999999998,
        "lon" : 139.76194050000001,
        "name" : "セブン銀行 新有楽町ビル 共同出張所"
      }
    },
    {
      "type" : "Feature",
      "id" : 72,
      "geometry" : {
        "type" : "Point",
        "coordinates" : [
          139.7595060000001,
          35.674560000000042
        ]
      },
      "properties" : {
        "OBJECTID" : 72,
        "lat" : 35.67456,
        "lon" : 139.75950599999999,
        "name" : "セブン銀行 東京メトロ 千代田線 日比谷駅 共同出張所"
      }
    },
    {
      "type" : "Feature",
      "id" : 73,
      "geometry" : {
        "type" : "Point",
        "coordinates" : [
          139.7595060000001,
          35.674560000000042
        ]
      },
      "properties" : {
        "OBJECTID" : 73,
        "lat" : 35.67456,
        "lon" : 139.75950599999999,
        "name" : "セブン銀行 東京メトロ 日比谷線 日比谷駅 共同出張所"
      }
    },
    {
      "type" : "Feature",
      "id" : 74,
      "geometry" : {
        "type" : "Point",
        "coordinates" : [
          139.76292150000006,
          35.675451000000066
        ]
      },
      "properties" : {
        "OBJECTID" : 74,
        "lat" : 35.675451000000002,
        "lon" : 139.7629215,
        "name" : "セブン銀行 東京メトロ 有楽町線 有楽町駅 共同出張所"
      }
    },
    {
      "type" : "Feature",
      "id" : 75,
      "geometry" : {
        "type" : "Point",
        "coordinates" : [
          139.75992450000001,
          35.673066000000063
        ]
      },
      "properties" : {
        "OBJECTID" : 75,
        "lat" : 35.673065999999999,
        "lon" : 139.75992450000001,
        "name" : "セブン銀行 日比谷シャンテ 共同出張所"
      }
    },
    {
      "type" : "Feature",
      "id" : 76,
      "geometry" : {
        "type" : "Point",
        "coordinates" : [
          139.76049150000006,
          35.673201000000063
        ]
      },
      "properties" : {
        "OBJECTID" : 76,
        "lat" : 35.673200999999999,
        "lon" : 139.7604915,
        "name" : "ファミリーマート日比谷シャンテ前 共同出張所(イーネットATM)"
      }
    },
    {
      "type" : "Feature",
      "id" : 77,
      "geometry" : {
        "type" : "Point",
        "coordinates" : [
          139.76292150000006,
          35.675451000000066
        ]
      },
      "properties" : {
        "OBJECTID" : 77,
        "lat" : 35.675451000000002,
        "lon" : 139.7629215,
        "name" : "ゆうちょ銀行 本店 ビックカメラ有楽町店内出張所(ATM)"
      }
    },
    {
      "type" : "Feature",
      "id" : 78,
      "geometry" : {
        "type" : "Point",
        "coordinates" : [
          139.7590335000001,
          35.673552000000086
        ]
      },
      "properties" : {
        "OBJECTID" : 78,
        "lat" : 35.673552000000001,
        "lon" : 139.75903349999999,
        "name" : "ゆうちょ銀行 本店 東京ミッドタウン日比谷内出張所(ATM)"
      }
    },
    {
      "type" : "Feature",
      "id" : 79,
      "geometry" : {
        "type" : "Point",
        "coordinates" : [
          139.76162550000004,
          35.674965000000043
        ]
      },
      "properties" : {
        "OBJECTID" : 79,
        "lat" : 35.674965,
        "lon" : 139.76162550000001,
        "name" : "ゆうちょ銀行 本店 有楽町ビルヂング内出張所(ATM)"
      }
    },
    {
      "type" : "Feature",
      "id" : 80,
      "geometry" : {
        "type" : "Point",
        "coordinates" : [
          139.76292150000006,
          35.675451000000066
        ]
      },
      "properties" : {
        "OBJECTID" : 80,
        "lat" : 35.675451000000002,
        "lon" : 139.7629215,
        "name" : "ゆうちょ銀行 本店 有楽町線有楽町駅内出張所(ATM)"
      }
    },
    {
      "type" : "Feature",
      "id" : 81,
      "geometry" : {
        "type" : "Point",
        "coordinates" : [
          139.7595060000001,
          35.674560000000042
        ]
      },
      "properties" : {
        "OBJECTID" : 81,
        "lat" : 35.67456,
        "lon" : 139.75950599999999,
        "name" : "ゆうちょ銀行本店千代田線日比谷駅内出張所"
      }
    },
    {
      "type" : "Feature",
      "id" : 82,
      "geometry" : {
        "type" : "Point",
        "coordinates" : [
          139.76162550000004,
          35.674965000000043
        ]
      },
      "properties" : {
        "OBJECTID" : 82,
        "lat" : 35.674965,
        "lon" : 139.76162550000001,
        "name" : "りそな銀行 有楽町出張所 無人ATM"
      }
    },
    {
      "type" : "Feature",
      "id" : 83,
      "geometry" : {
        "type" : "Point",
        "coordinates" : [
          139.76098200000001,
          35.67580200000009
        ]
      },
      "properties" : {
        "OBJECTID" : 83,
        "lat" : 35.675801999999997,
        "lon" : 139.76098200000001,
        "name" : "第一生命館内郵便局"
      }
    },
    {
      "type" : "Feature",
      "id" : 84,
      "geometry" : {
        "type" : "Point",
        "coordinates" : [
          139.73261850000006,
          35.704278000000045
        ]
      },
      "properties" : {
        "OBJECTID" : 84,
        "lat" : 35.704278000000002,
        "lon" : 139.7326185,
        "name" : "セブンイレブン 新宿神楽坂駅西店"
      }
    },
    {
      "type" : "Feature",
      "id" : 85,
      "geometry" : {
        "type" : "Point",
        "coordinates" : [
          139.73341500000004,
          35.704395000000034
        ]
      },
      "properties" : {
        "OBJECTID" : 85,
        "lat" : 35.704394999999998,
        "lon" : 139.73341500000001,
        "name" : "ファミリーマート新宿神楽坂駅前 共同出張所(イーネットATM)"
      }
    },
    {
      "type" : "Feature",
      "id" : 86,
      "geometry" : {
        "type" : "Point",
        "coordinates" : [
          139.73290650000001,
          35.701416000000052
        ]
      },
      "properties" : {
        "OBJECTID" : 86,
        "lat" : 35.701416000000002,
        "lon" : 139.73290650000001,
        "name" : "ファミリーマート新宿矢来町 共同出張所(イーネットATM)"
      }
    },
    {
      "type" : "Feature",
      "id" : 87,
      "geometry" : {
        "type" : "Point",
        "coordinates" : [
          139.77712350000002,
          35.667369000000065
        ]
      },
      "properties" : {
        "OBJECTID" : 87,
        "lat" : 35.667369000000001,
        "lon" : 139.77712349999999,
        "name" : "セブンイレブン KOYO聖路加国際病院店"
      }
    },
    {
      "type" : "Feature",
      "id" : 88,
      "geometry" : {
        "type" : "Point",
        "coordinates" : [
          139.77864450000004,
          35.667000000000087
        ]
      },
      "properties" : {
        "OBJECTID" : 88,
        "lat" : 35.667000000000002,
        "lon" : 139.77864450000001,
        "name" : "セブンイレブン 聖路加タワー店"
      }
    },
    {
      "type" : "Feature",
      "id" : 89,
      "geometry" : {
        "type" : "Point",
        "coordinates" : [
          139.77735300000006,
          35.669331000000057
        ]
      },
      "properties" : {
        "OBJECTID" : 89,
        "lat" : 35.669331,
        "lon" : 139.77735300000001,
        "name" : "セブンイレブン 中央区明石町店"
      }
    },
    {
      "type" : "Feature",
      "id" : 90,
      "geometry" : {
        "type" : "Point",
        "coordinates" : [
          139.77777600000002,
          35.668179000000066
        ]
      },
      "properties" : {
        "OBJECTID" : 90,
        "lat" : 35.668179000000002,
        "lon" : 139.77777599999999,
        "name" : "ファミリーマート築地明石町 共同出張所(イーネットATM)"
      }
    },
    {
      "type" : "Feature",
      "id" : 91,
      "geometry" : {
        "type" : "Point",
        "coordinates" : [
          139.7784825,
          35.669070000000033
        ]
      },
      "properties" : {
        "OBJECTID" : 91,
        "lat" : 35.669069999999998,
        "lon" : 139.7784825,
        "name" : "ファミリーマート中央明石町 共同出張所(イーネットATM)"
      }
    },
    {
      "type" : "Feature",
      "id" : 92,
      "geometry" : {
        "type" : "Point",
        "coordinates" : [
          139.77864450000004,
          35.667000000000087
        ]
      },
      "properties" : {
        "OBJECTID" : 92,
        "lat" : 35.667000000000002,
        "lon" : 139.77864450000001,
        "name" : "ゆうちょ銀行 本店 ファミリーマート聖路加ガーデン店内出張所(ATM)"
      }
    },
    {
      "type" : "Feature",
      "id" : 93,
      "geometry" : {
        "type" : "Point",
        "coordinates" : [
          139.77864450000004,
          35.667000000000087
        ]
      },
      "properties" : {
        "OBJECTID" : 93,
        "lat" : 35.667000000000002,
        "lon" : 139.77864450000001,
        "name" : "聖路加ガーデン内郵便局"
      }
    },
    {
      "type" : "Feature",
      "id" : 94,
      "geometry" : {
        "type" : "Point",
        "coordinates" : [
          139.77837900000009,
          35.669970000000035
        ]
      },
      "properties" : {
        "OBJECTID" : 94,
        "lat" : 35.669969999999999,
        "lon" : 139.778379,
        "name" : "中ノ郷信用組合京橋支店"
      }
    },
    {
      "type" : "Feature",
      "id" : 95,
      "geometry" : {
        "type" : "Point",
        "coordinates" : [
          139.7806875,
          35.671275000000037
        ]
      },
      "properties" : {
        "OBJECTID" : 95,
        "lat" : 35.671275000000001,
        "lon" : 139.7806875,
        "name" : "デリド湊 共同出張所(イーネットATM)"
      }
    },
    {
      "type" : "Feature",
      "id" : 96,
      "geometry" : {
        "type" : "Point",
        "coordinates" : [
          139.77917550000006,
          35.670942000000082
        ]
      },
      "properties" : {
        "OBJECTID" : 96,
        "lat" : 35.670941999999997,
        "lon" : 139.77917550000001,
        "name" : "ファミリーマート湊二丁目 共同出張所(イーネットATM)"
      }
    },
    {
      "type" : "Feature",
      "id" : 97,
      "geometry" : {
        "type" : "Point",
        "coordinates" : [
          139.77910800000006,
          35.671482000000083
        ]
      },
      "properties" : {
        "OBJECTID" : 97,
        "lat" : 35.671481999999997,
        "lon" : 139.77910800000001,
        "name" : "中央湊郵便局"
      }
    },
    {
      "type" : "Feature",
      "id" : 98,
      "geometry" : {
        "type" : "Point",
        "coordinates" : [
          139.78069200000004,
          35.671968000000049
        ]
      },
      "properties" : {
        "OBJECTID" : 98,
        "lat" : 35.671968,
        "lon" : 139.78069199999999,
        "name" : "セブンイレブン 中央区湊1丁目店"
      }
    },
    {
      "type" : "Feature",
      "id" : 99,
      "geometry" : {
        "type" : "Point",
        "coordinates" : [
          139.74247350000007,
          35.659818000000087
        ]
      },
      "properties" : {
        "OBJECTID" : 99,
        "lat" : 35.659818000000001,
        "lon" : 139.74247349999999,
        "name" : "セブンイレブン 港区飯倉店"
      }
    },
    {
      "type" : "Feature",
      "id" : 100,
      "geometry" : {
        "type" : "Point",
        "coordinates" : [
          139.74302250000005,
          35.661006000000043
        ]
      },
      "properties" : {
        "OBJECTID" : 100,
        "lat" : 35.661006,
        "lon" : 139.7430225,
        "name" : "麻布郵便局"
      }
    },
    {
      "type" : "Feature",
      "id" : 101,
      "geometry" : {
        "type" : "Point",
        "coordinates" : [
          139.737303,
          35.655003000000079
        ]
      },
      "properties" : {
        "OBJECTID" : 101,
        "lat" : 35.655003000000001,
        "lon" : 139.737303,
        "name" : "さわやか信用金庫麻布支店"
      }
    },
    {
      "type" : "Feature",
      "id" : 102,
      "geometry" : {
        "type" : "Point",
        "coordinates" : [
          139.73731200000009,
          35.654922000000056
        ]
      },
      "properties" : {
        "OBJECTID" : 102,
        "lat" : 35.654921999999999,
        "lon" : 139.737312,
        "name" : "セブンイレブン 港区一の橋店"
      }
    },
    {
      "type" : "Feature",
      "id" : 103,
      "geometry" : {
        "type" : "Point",
        "coordinates" : [
          139.73649750000004,
          35.653653000000077
        ]
      },
      "properties" : {
        "OBJECTID" : 103,
        "lat" : 35.653652999999998,
        "lon" : 139.73649750000001,
        "name" : "きらぼし銀行 麻布支店"
      }
    },
    {
      "type" : "Feature",
      "id" : 104,
      "geometry" : {
        "type" : "Point",
        "coordinates" : [
          139.73583150000002,
          35.653149000000042
        ]
      },
      "properties" : {
        "OBJECTID" : 104,
        "lat" : 35.653148999999999,
        "lon" : 139.73583149999999,
        "name" : "セブンイレブン 港区麻布十番3丁目店"
      }
    },
    {
      "type" : "Feature",
      "id" : 105,
      "geometry" : {
        "type" : "Point",
        "coordinates" : [
          139.73444100000006,
          35.652789000000041
        ]
      },
      "properties" : {
        "OBJECTID" : 105,
        "lat" : 35.652788999999999,
        "lon" : 139.734441,
        "name" : "ゆうちょ銀行 本店 ファミリーマート麻布十番店内出張所(ATM)"
      }
    },
    {
      "type" : "Feature",
      "id" : 106,
      "geometry" : {
        "type" : "Point",
        "coordinates" : [
          139.73357700000008,
          35.656371000000036
        ]
      },
      "properties" : {
        "OBJECTID" : 106,
        "lat" : 35.656371,
        "lon" : 139.733577,
        "name" : "ROPPONGI EXCHANGE@AZABU-JUBAN(六本木エクスチェンジ@麻布十番)"
      }
    },
    {
      "type" : "Feature",
      "id" : 107,
      "geometry" : {
        "type" : "Point",
        "coordinates" : [
          139.73560200000009,
          35.654895000000067
        ]
      },
      "properties" : {
        "OBJECTID" : 107,
        "lat" : 35.654895000000003,
        "lon" : 139.735602,
        "name" : "さわやか信用金庫麻布支店麻布十番出張所"
      }
    },
    {
      "type" : "Feature",
      "id" : 108,
      "geometry" : {
        "type" : "Point",
        "coordinates" : [
          139.73510250000004,
          35.65549800000008
        ]
      },
      "properties" : {
        "OBJECTID" : 108,
        "lat" : 35.655498000000001,
        "lon" : 139.73510250000001,
        "name" : "セブンイレブン 港区麻布十番2丁目店"
      }
    },
    {
      "type" : "Feature",
      "id" : 109,
      "geometry" : {
        "type" : "Point",
        "coordinates" : [
          139.73669100000006,
          35.654832000000056
        ]
      },
      "properties" : {
        "OBJECTID" : 109,
        "lat" : 35.654831999999999,
        "lon" : 139.73669100000001,
        "name" : "セブンイレブン 麻布十番駅前店"
      }
    },
    {
      "type" : "Feature",
      "id" : 110,
      "geometry" : {
        "type" : "Point",
        "coordinates" : [
          139.73690250000004,
          35.654022000000055
        ]
      },
      "properties" : {
        "OBJECTID" : 110,
        "lat" : 35.654021999999998,
        "lon" : 139.73690250000001,
        "name" : "セブン銀行 東京メトロ 南北線 麻布十番駅 共同出張所"
      }
    },
    {
      "type" : "Feature",
      "id" : 111,
      "geometry" : {
        "type" : "Point",
        "coordinates" : [
          139.73577750000004,
          35.655408000000079
        ]
      },
      "properties" : {
        "OBJECTID" : 111,
        "lat" : 35.655408000000001,
        "lon" : 139.73577750000001,
        "name" : "ゆうちょ銀行 本店 ファミリーマート麻布十番商店街通り店内出張所(ATM)"
      }
    },
    {
      "type" : "Feature",
      "id" : 112,
      "geometry" : {
        "type" : "Point",
        "coordinates" : [
          139.73476950000008,
          35.655597000000057
        ]
      },
      "properties" : {
        "OBJECTID" : 112,
        "lat" : 35.655597,
        "lon" : 139.7347695,
        "name" : "三井住友銀行麻布十番支店"
      }
    },
    {
      "type" : "Feature",
      "id" : 113,
      "geometry" : {
        "type" : "Point",
        "coordinates" : [
          139.73535450000008,
          35.655606000000034
        ]
      },
      "properties" : {
        "OBJECTID" : 113,
        "lat" : 35.655605999999999,
        "lon" : 139.7353545,
        "name" : "麻布十番郵便局"
      }
    },
    {
      "type" : "Feature",
      "id" : 114,
      "geometry" : {
        "type" : "Point",
        "coordinates" : [
          139.73373000000004,
          35.656749000000048
        ]
      },
      "properties" : {
        "OBJECTID" : 114,
        "lat" : 35.656748999999998,
        "lon" : 139.73373000000001,
        "name" : "セブンイレブン 港区麻布十番1丁目店"
      }
    },
    {
      "type" : "Feature",
      "id" : 115,
      "geometry" : {
        "type" : "Point",
        "coordinates" : [
          139.73514299999999,
          35.657001000000037
        ]
      },
      "properties" : {
        "OBJECTID" : 115,
        "lat" : 35.657001000000001,
        "lon" : 139.73514299999999,
        "name" : "セブン銀行 都営地下鉄 大江戸線 麻布十番駅 共同出張所"
      }
    },
    {
      "type" : "Feature",
      "id" : 116,
      "geometry" : {
        "type" : "Point",
        "coordinates" : [
          139.73634900000002,
          35.656677000000059
        ]
      },
      "properties" : {
        "OBJECTID" : 116,
        "lat" : 35.656677000000002,
        "lon" : 139.73634899999999,
        "name" : "ファミリーマート一の橋 共同出張所(イーネットATM)"
      }
    },
    {
      "type" : "Feature",
      "id" : 117,
      "geometry" : {
        "type" : "Point",
        "coordinates" : [
          139.73450400000002,
          35.656632000000059
        ]
      },
      "properties" : {
        "OBJECTID" : 117,
        "lat" : 35.656632000000002,
        "lon" : 139.73450399999999,
        "name" : "ファミリーマート麻布十番一丁目 共同出張所(イーネットATM)"
      }
    },
    {
      "type" : "Feature",
      "id" : 118,
      "geometry" : {
        "type" : "Point",
        "coordinates" : [
          139.736763,
          35.65563300000008
        ]
      },
      "properties" : {
        "OBJECTID" : 118,
        "lat" : 35.655633000000002,
        "lon" : 139.736763,
        "name" : "りそな銀行 麻布支店"
      }
    },
    {
      "type" : "Feature",
      "id" : 119,
      "geometry" : {
        "type" : "Point",
        "coordinates" : [
          139.736448,
          35.656236000000035
        ]
      },
      "properties" : {
        "OBJECTID" : 119,
        "lat" : 35.656236,
        "lon" : 139.736448,
        "name" : "三菱UFJ銀行麻布支店"
      }
    },
    {
      "type" : "Feature",
      "id" : 120,
      "geometry" : {
        "type" : "Point",
        "coordinates" : [
          139.67667000000006,
          35.68034700000004
        ]
      },
      "properties" : {
        "OBJECTID" : 120,
        "lat" : 35.680346999999998,
        "lon" : 139.67667,
        "name" : "西武信用金庫幡ヶ谷支店"
      }
    },
    {
      "type" : "Feature",
      "id" : 121,
      "geometry" : {
        "type" : "Point",
        "coordinates" : [
          139.67538750000006,
          35.681814000000088
        ]
      },
      "properties" : {
        "OBJECTID" : 121,
        "lat" : 35.681814000000003,
        "lon" : 139.6753875,
        "name" : "miniピアゴ渋谷本町5丁目 共同出張所(イーネットATM)"
      }
    },
    {
      "type" : "Feature",
      "id" : 122,
      "geometry" : {
        "type" : "Point",
        "coordinates" : [
          139.67420850000008,
          35.682858000000067
        ]
      },
      "properties" : {
        "OBJECTID" : 122,
        "lat" : 35.682858000000003,
        "lon" : 139.67420849999999,
        "name" : "セブンイレブン 渋谷本町店"
      }
    },
    {
      "type" : "Feature",
      "id" : 123,
      "geometry" : {
        "type" : "Point",
        "coordinates" : [
          139.67537850000008,
          35.683326000000079
        ]
      },
      "properties" : {
        "OBJECTID" : 123,
        "lat" : 35.683326000000001,
        "lon" : 139.67537849999999,
        "name" : "渋谷本町五郵便局"
      }
    },
    {
      "type" : "Feature",
      "id" : 124,
      "geometry" : {
        "type" : "Point",
        "coordinates" : [
          139.67971199999999,
          35.688213000000076
        ]
      },
      "properties" : {
        "OBJECTID" : 124,
        "lat" : 35.688212999999998,
        "lon" : 139.67971199999999,
        "name" : "セブンイレブン 渋谷本町4丁目店"
      }
    },
    {
      "type" : "Feature",
      "id" : 125,
      "geometry" : {
        "type" : "Point",
        "coordinates" : [
          139.67763300000001,
          35.685576000000083
        ]
      },
      "properties" : {
        "OBJECTID" : 125,
        "lat" : 35.685575999999998,
        "lon" : 139.67763299999999,
        "name" : "ファミリーマート幡ヶ谷本町 共同出張所(イーネットATM)"
      }
    },
    {
      "type" : "Feature",
      "id" : 126,
      "geometry" : {
        "type" : "Point",
        "coordinates" : [
          139.68050850000009,
          35.688447000000053
        ]
      },
      "properties" : {
        "OBJECTID" : 126,
        "lat" : 35.688446999999996,
        "lon" : 139.6805085,
        "name" : "全東栄信用組合 渋谷本町支店"
      }
    },
    {
      "type" : "Feature",
      "id" : 127,
      "geometry" : {
        "type" : "Point",
        "coordinates" : [
          139.684077,
          35.686728000000073
        ]
      },
      "properties" : {
        "OBJECTID" : 127,
        "lat" : 35.686728000000002,
        "lon" : 139.684077,
        "name" : "miniピアゴ渋谷本町3丁目 共同出張所(イーネットATM)"
      }
    },
    {
      "type" : "Feature",
      "id" : 128,
      "geometry" : {
        "type" : "Point",
        "coordinates" : [
          139.682322,
          35.688357000000053
        ]
      },
      "properties" : {
        "OBJECTID" : 128,
        "lat" : 35.688357000000003,
        "lon" : 139.682322,
        "name" : "さわやか信用金庫新宿西支店"
      }
    },
    {
      "type" : "Feature",
      "id" : 129,
      "geometry" : {
        "type" : "Point",
        "coordinates" : [
          139.68503100000009,
          35.686665000000062
        ]
      },
      "properties" : {
        "OBJECTID" : 129,
        "lat" : 35.686664999999998,
        "lon" : 139.68503100000001,
        "name" : "セブンイレブン 渋谷本町3丁目店"
      }
    },
    {
      "type" : "Feature",
      "id" : 130,
      "geometry" : {
        "type" : "Point",
        "coordinates" : [
          139.68080100000009,
          35.688276000000087
        ]
      },
      "properties" : {
        "OBJECTID" : 130,
        "lat" : 35.688276000000002,
        "lon" : 139.680801,
        "name" : "ゆうちょ銀行 本店 ファミリーマート渋谷本町三丁目店内出張所(ATM)"
      }
    },
    {
      "type" : "Feature",
      "id" : 131,
      "geometry" : {
        "type" : "Point",
        "coordinates" : [
          139.6814895,
          35.683191000000079
        ]
      },
      "properties" : {
        "OBJECTID" : 131,
        "lat" : 35.683191000000001,
        "lon" : 139.6814895,
        "name" : "セブンイレブン 渋谷本町2丁目店"
      }
    },
    {
      "type" : "Feature",
      "id" : 132,
      "geometry" : {
        "type" : "Point",
        "coordinates" : [
          139.68492750000007,
          35.683803000000069
        ]
      },
      "properties" : {
        "OBJECTID" : 132,
        "lat" : 35.683802999999997,
        "lon" : 139.68492749999999,
        "name" : "ファミリーマート渋谷本町 共同出張所(イーネットATM)"
      }
    },
    {
      "type" : "Feature",
      "id" : 133,
      "geometry" : {
        "type" : "Point",
        "coordinates" : [
          139.6845045,
          35.68409100000008
        ]
      },
      "properties" : {
        "OBJECTID" : 133,
        "lat" : 35.684091000000002,
        "lon" : 139.6845045,
        "name" : "渋谷本町二郵便局"
      }
    },
    {
      "type" : "Feature",
      "id" : 134,
      "geometry" : {
        "type" : "Point",
        "coordinates" : [
          139.68389250000007,
          35.683236000000079
        ]
      },
      "properties" : {
        "OBJECTID" : 134,
        "lat" : 35.683236000000001,
        "lon" : 139.68389250000001,
        "name" : "東日本銀行初台支店"
      }
    },
    {
      "type" : "Feature",
      "id" : 135,
      "geometry" : {
        "type" : "Point",
        "coordinates" : [
          139.68436500000007,
          35.68284900000009
        ]
      },
      "properties" : {
        "OBJECTID" : 135,
        "lat" : 35.682848999999997,
        "lon" : 139.68436500000001,
        "name" : "セブンイレブン 渋谷オペラ通り店"
      }
    },
    {
      "type" : "Feature",
      "id" : 136,
      "geometry" : {
        "type" : "Point",
        "coordinates" : [
          139.683852,
          35.68012200000004
        ]
      },
      "properties" : {
        "OBJECTID" : 136,
        "lat" : 35.680121999999997,
        "lon" : 139.683852,
        "name" : "セブンイレブン 渋谷本町1丁目店"
      }
    },
    {
      "type" : "Feature",
      "id" : 137,
      "geometry" : {
        "type" : "Point",
        "coordinates" : [
          139.68130500000007,
          35.678997000000038
        ]
      },
      "properties" : {
        "OBJECTID" : 137,
        "lat" : 35.678997000000003,
        "lon" : 139.68130500000001,
        "name" : "ファミリーマート渋谷本町一丁目 共同出張所(イーネットATM)"
      }
    },
    {
      "type" : "Feature",
      "id" : 138,
      "geometry" : {
        "type" : "Point",
        "coordinates" : [
          139.6854135000001,
          35.681508000000065
        ]
      },
      "properties" : {
        "OBJECTID" : 138,
        "lat" : 35.681508000000001,
        "lon" : 139.68541350000001,
        "name" : "ファミリーマート初台駅北口 共同出張所(イーネットATM)"
      }
    },
    {
      "type" : "Feature",
      "id" : 139,
      "geometry" : {
        "type" : "Point",
        "coordinates" : [
          139.73017500000003,
          35.690877000000057
        ]
      },
      "properties" : {
        "OBJECTID" : 139,
        "lat" : 35.690877,
        "lon" : 139.730175,
        "name" : "ポプラドンチッチ市ヶ谷 共同出張所(イーネットATM)"
      }
    },
    {
      "type" : "Feature",
      "id" : 140,
      "geometry" : {
        "type" : "Point",
        "coordinates" : [
          139.71064950000005,
          35.663814000000059
        ]
      },
      "properties" : {
        "OBJECTID" : 140,
        "lat" : 35.663814000000002,
        "lon" : 139.71064949999999,
        "name" : "SMBC信託銀行 青山支店"
      }
    },
    {
      "type" : "Feature",
      "id" : 141,
      "geometry" : {
        "type" : "Point",
        "coordinates" : [
          139.71033900000009,
          35.664903000000038
        ]
      },
      "properties" : {
        "OBJECTID" : 141,
        "lat" : 35.664903000000002,
        "lon" : 139.710339,
        "name" : "セブンイレブン 港区北青山3丁目店"
      }
    },
    {
      "type" : "Feature",
      "id" : 142,
      "geometry" : {
        "type" : "Point",
        "coordinates" : [
          139.71538350000003,
          35.668899000000067
        ]
      },
      "properties" : {
        "OBJECTID" : 142,
        "lat" : 35.668899000000003,
        "lon" : 139.7153835,
        "name" : "セブンイレブン 北青山青山通り店"
      }
    },
    {
      "type" : "Feature",
      "id" : 143,
      "geometry" : {
        "type" : "Point",
        "coordinates" : [
          139.71185100000002,
          35.665092000000072
        ]
      },
      "properties" : {
        "OBJECTID" : 143,
        "lat" : 35.665092000000001,
        "lon" : 139.711851,
        "name" : "セブン銀行 東京メトロ 千代田線 表参道駅 共同出張所"
      }
    },
    {
      "type" : "Feature",
      "id" : 144,
      "geometry" : {
        "type" : "Point",
        "coordinates" : [
          139.7141640000001,
          35.667405000000088
        ]
      },
      "properties" : {
        "OBJECTID" : 144,
        "lat" : 35.667405000000002,
        "lon" : 139.71416400000001,
        "name" : "ファミリーマート北青山三丁目 共同出張所(イーネットATM)"
      }
    },
    {
      "type" : "Feature",
      "id" : 145,
      "geometry" : {
        "type" : "Point",
        "coordinates" : [
          139.71541500000001,
          35.669043000000045
        ]
      },
      "properties" : {
        "OBJECTID" : 145,
        "lat" : 35.669043000000002,
        "lon" : 139.71541500000001,
        "name" : "みずほ銀行外苑前支店"
      }
    },
    {
      "type" : "Feature",
      "id" : 146,
      "geometry" : {
        "type" : "Point",
        "coordinates" : [
          139.71185100000002,
          35.665092000000072
        ]
      },
      "properties" : {
        "OBJECTID" : 146,
        "lat" : 35.665092000000001,
        "lon" : 139.711851,
        "name" : "みずほ銀行青山支店"
      }
    },
    {
      "type" : "Feature",
      "id" : 147,
      "geometry" : {
        "type" : "Point",
        "coordinates" : [
          139.71185100000002,
          35.665092000000072
        ]
      },
      "properties" : {
        "OBJECTID" : 147,
        "lat" : 35.665092000000001,
        "lon" : 139.711851,
        "name" : "りそな銀行 東京メトロ表参道駅出張所 無人ATM"
      }
    },
    {
      "type" : "Feature",
      "id" : 148,
      "geometry" : {
        "type" : "Point",
        "coordinates" : [
          139.71059100000002,
          35.665677000000073
        ]
      },
      "properties" : {
        "OBJECTID" : 148,
        "lat" : 35.665677000000002,
        "lon" : 139.71059099999999,
        "name" : "三菱UFJ銀行原宿支店"
      }
    },
    {
      "type" : "Feature",
      "id" : 149,
      "geometry" : {
        "type" : "Point",
        "coordinates" : [
          139.71059100000002,
          35.665677000000073
        ]
      },
      "properties" : {
        "OBJECTID" : 149,
        "lat" : 35.665677000000002,
        "lon" : 139.71059099999999,
        "name" : "三菱UFJ銀行青山支店"
      }
    },
    {
      "type" : "Feature",
      "id" : 150,
      "geometry" : {
        "type" : "Point",
        "coordinates" : [
          139.71059100000002,
          35.665677000000073
        ]
      },
      "properties" : {
        "OBJECTID" : 150,
        "lat" : 35.665677000000002,
        "lon" : 139.71059099999999,
        "name" : "三菱UFJ銀行表参道支店"
      }
    },
    {
      "type" : "Feature",
      "id" : 151,
      "geometry" : {
        "type" : "Point",
        "coordinates" : [
          139.71538350000003,
          35.668899000000067
        ]
      },
      "properties" : {
        "OBJECTID" : 151,
        "lat" : 35.668899000000003,
        "lon" : 139.7153835,
        "name" : "東日本銀行青山支店"
      }
    },
    {
      "type" : "Feature",
      "id" : 152,
      "geometry" : {
        "type" : "Point",
        "coordinates" : [
          139.71703500000001,
          35.670573000000047
        ]
      },
      "properties" : {
        "OBJECTID" : 152,
        "lat" : 35.670572999999997,
        "lon" : 139.71703500000001,
        "name" : "セブンイレブン 外苑前駅前店"
      }
    },
    {
      "type" : "Feature",
      "id" : 153,
      "geometry" : {
        "type" : "Point",
        "coordinates" : [
          139.71866850000004,
          35.671095000000037
        ]
      },
      "properties" : {
        "OBJECTID" : 153,
        "lat" : 35.671095000000001,
        "lon" : 139.71866850000001,
        "name" : "ファミリーマートメトロ外苑前 共同出張所(イーネットATM)"
      }
    },
    {
      "type" : "Feature",
      "id" : 154,
      "geometry" : {
        "type" : "Point",
        "coordinates" : [
          139.71929850000004,
          35.671473000000049
        ]
      },
      "properties" : {
        "OBJECTID" : 154,
        "lat" : 35.671472999999999,
        "lon" : 139.71929850000001,
        "name" : "ファミリーマート伊藤忠ビル 共同出張所(イーネットATM)"
      }
    },
    {
      "type" : "Feature",
      "id" : 155,
      "geometry" : {
        "type" : "Point",
        "coordinates" : [
          139.71658050000008,
          35.670681000000059
        ]
      },
      "properties" : {
        "OBJECTID" : 155,
        "lat" : 35.670681000000002,
        "lon" : 139.71658049999999,
        "name" : "ファミリーマート北青山二丁目 共同出張所(イーネットATM)"
      }
    },
    {
      "type" : "Feature",
      "id" : 156,
      "geometry" : {
        "type" : "Point",
        "coordinates" : [
          139.71728700000006,
          35.671437000000083
        ]
      },
      "properties" : {
        "OBJECTID" : 156,
        "lat" : 35.671436999999997,
        "lon" : 139.717287,
        "name" : "ゆうちょ銀行 本店 ファミリーマート神宮スタジアム通り店内出張所(ATM)"
      }
    },
    {
      "type" : "Feature",
      "id" : 157,
      "geometry" : {
        "type" : "Point",
        "coordinates" : [
          139.71602250000001,
          35.670015000000035
        ]
      },
      "properties" : {
        "OBJECTID" : 157,
        "lat" : 35.670014999999999,
        "lon" : 139.71602250000001,
        "name" : "三井住友銀行 ヴィルマルシェ青山店出張所"
      }
    },
    {
      "type" : "Feature",
      "id" : 158,
      "geometry" : {
        "type" : "Point",
        "coordinates" : [
          139.7165715000001,
          35.670546000000058
        ]
      },
      "properties" : {
        "OBJECTID" : 158,
        "lat" : 35.670546000000002,
        "lon" : 139.71657149999999,
        "name" : "城南信用金庫 青山支店"
      }
    },
    {
      "type" : "Feature",
      "id" : 159,
      "geometry" : {
        "type" : "Point",
        "coordinates" : [
          139.71473100000003,
          35.670078000000046
        ]
      },
      "properties" : {
        "OBJECTID" : 159,
        "lat" : 35.670077999999997,
        "lon" : 139.714731,
        "name" : "大東京信用組合 青山支店"
      }
    },
    {
      "type" : "Feature",
      "id" : 160,
      "geometry" : {
        "type" : "Point",
        "coordinates" : [
          139.72196700000006,
          35.67241800000005
        ]
      },
      "properties" : {
        "OBJECTID" : 160,
        "lat" : 35.672418,
        "lon" : 139.72196700000001,
        "name" : "ファミリーマート北青山一丁目 共同出張所(イーネットATM)"
      }
    },
    {
      "type" : "Feature",
      "id" : 161,
      "geometry" : {
        "type" : "Point",
        "coordinates" : [
          139.7231415,
          35.672976000000062
        ]
      },
      "properties" : {
        "OBJECTID" : 161,
        "lat" : 35.672975999999998,
        "lon" : 139.7231415,
        "name" : "ゆうちょ銀行 本店 ファミマ青山ビル店内出張所(ATM)"
      }
    },
    {
      "type" : "Feature",
      "id" : 162,
      "geometry" : {
        "type" : "Point",
        "coordinates" : [
          139.7231415,
          35.672976000000062
        ]
      },
      "properties" : {
        "OBJECTID" : 162,
        "lat" : 35.672975999999998,
        "lon" : 139.7231415,
        "name" : "ゆうちょ銀行 本店 ファミリーマート青山ビル店内出張所(ATM)"
      }
    },
    {
      "type" : "Feature",
      "id" : 163,
      "geometry" : {
        "type" : "Point",
        "coordinates" : [
          139.69416150000006,
          35.706537000000083
        ]
      },
      "properties" : {
        "OBJECTID" : 163,
        "lat" : 35.706536999999997,
        "lon" : 139.69416150000001,
        "name" : "ゆうちょ銀行 本店 ファミリーマート小滝橋通り店内出張所(ATM)"
      }
    },
    {
      "type" : "Feature",
      "id" : 164,
      "geometry" : {
        "type" : "Point",
        "coordinates" : [
          139.69449450000002,
          35.702082000000075
        ]
      },
      "properties" : {
        "OBJECTID" : 164,
        "lat" : 35.702081999999997,
        "lon" : 139.69449449999999,
        "name" : "ゆうちょ銀行 本店 ファミリーマート北新宿大久保通り店内出張所(ATM)"
      }
    },
    {
      "type" : "Feature",
      "id" : 165,
      "geometry" : {
        "type" : "Point",
        "coordinates" : [
          139.69221750000008,
          35.701947000000075
        ]
      },
      "properties" : {
        "OBJECTID" : 165,
        "lat" : 35.701946999999997,
        "lon" : 139.6922175,
        "name" : "北新宿三郵便局"
      }
    },
    {
      "type" : "Feature",
      "id" : 166,
      "geometry" : {
        "type" : "Point",
        "coordinates" : [
          139.69438650000006,
          35.701794000000064
        ]
      },
      "properties" : {
        "OBJECTID" : 166,
        "lat" : 35.701794,
        "lon" : 139.69438650000001,
        "name" : "セブンイレブン 北新宿1丁目大久保通り店"
      }
    },
    {
      "type" : "Feature",
      "id" : 167,
      "geometry" : {
        "type" : "Point",
        "coordinates" : [
          139.6963035,
          35.697996000000046
        ]
      },
      "properties" : {
        "OBJECTID" : 167,
        "lat" : 35.697996000000003,
        "lon" : 139.6963035,
        "name" : "セブンイレブン 北新宿1丁目店"
      }
    },
    {
      "type" : "Feature",
      "id" : 168,
      "geometry" : {
        "type" : "Point",
        "coordinates" : [
          139.69189800000004,
          35.697240000000079
        ]
      },
      "properties" : {
        "OBJECTID" : 168,
        "lat" : 35.697240000000001,
        "lon" : 139.69189800000001,
        "name" : "ファミリーマート新宿税務署通り 共同出張所(イーネットATM)"
      }
    },
    {
      "type" : "Feature",
      "id" : 169,
      "geometry" : {
        "type" : "Point",
        "coordinates" : [
          139.69701000000009,
          35.698455000000081
        ]
      },
      "properties" : {
        "OBJECTID" : 169,
        "lat" : 35.698455000000003,
        "lon" : 139.69701000000001,
        "name" : "ファミリーマート北新宿 共同出張所(イーネットATM)"
      }
    },
    {
      "type" : "Feature",
      "id" : 170,
      "geometry" : {
        "type" : "Point",
        "coordinates" : [
          139.6970235,
          35.698275000000081
        ]
      },
      "properties" : {
        "OBJECTID" : 170,
        "lat" : 35.698275000000002,
        "lon" : 139.6970235,
        "name" : "三菱UFJ銀行大久保支店"
      }
    },
    {
      "type" : "Feature",
      "id" : 171,
      "geometry" : {
        "type" : "Point",
        "coordinates" : [
          139.69502550000004,
          35.701686000000052
        ]
      },
      "properties" : {
        "OBJECTID" : 171,
        "lat" : 35.701686000000002,
        "lon" : 139.69502550000001,
        "name" : "城北信用金庫北新宿支店"
      }
    },
    {
      "type" : "Feature",
      "id" : 172,
      "geometry" : {
        "type" : "Point",
        "coordinates" : [
          139.69546200000002,
          35.700813000000039
        ]
      },
      "properties" : {
        "OBJECTID" : 172,
        "lat" : 35.700812999999997,
        "lon" : 139.69546199999999,
        "name" : "西武信用金庫北新宿支店"
      }
    },
    {
      "type" : "Feature",
      "id" : 173,
      "geometry" : {
        "type" : "Point",
        "coordinates" : [
          139.73108400000001,
          35.699472000000071
        ]
      },
      "properties" : {
        "OBJECTID" : 173,
        "lat" : 35.699472,
        "lon" : 139.73108400000001,
        "name" : "牛込郵便局 ゆうちょ銀行 牛込店"
      }
    },
    {
      "type" : "Feature",
      "id" : 174,
      "geometry" : {
        "type" : "Point",
        "coordinates" : [
          139.76973450000003,
          35.653527000000054
        ]
      },
      "properties" : {
        "OBJECTID" : 174,
        "lat" : 35.653526999999997,
        "lon" : 139.7697345,
        "name" : "ファミリーマート豊海町 共同出張所(イーネットATM)"
      }
    },
    {
      "type" : "Feature",
      "id" : 175,
      "geometry" : {
        "type" : "Point",
        "coordinates" : [
          139.76973450000003,
          35.653527000000054
        ]
      },
      "properties" : {
        "OBJECTID" : 175,
        "lat" : 35.653526999999997,
        "lon" : 139.7697345,
        "name" : "中央豊海郵便局"
      }
    },
    {
      "type" : "Feature",
      "id" : 176,
      "geometry" : {
        "type" : "Point",
        "coordinates" : [
          139.72666500000003,
          35.704575000000034
        ]
      },
      "properties" : {
        "OBJECTID" : 176,
        "lat" : 35.704574999999998,
        "lon" : 139.726665,
        "name" : "ファミリーマート新宿弁天町 共同出張所(イーネットATM)"
      }
    },
    {
      "type" : "Feature",
      "id" : 177,
      "geometry" : {
        "type" : "Point",
        "coordinates" : [
          139.74024600000007,
          35.67910500000005
        ]
      },
      "properties" : {
        "OBJECTID" : 177,
        "lat" : 35.679105,
        "lon" : 139.74024600000001,
        "name" : "セブンイレブン 千代田平河町2丁目店"
      }
    },
    {
      "type" : "Feature",
      "id" : 178,
      "geometry" : {
        "type" : "Point",
        "coordinates" : [
          139.73895900000002,
          35.679168000000061
        ]
      },
      "properties" : {
        "OBJECTID" : 178,
        "lat" : 35.679167999999997,
        "lon" : 139.73895899999999,
        "name" : "ファミリーマート都道府県会館 共同出張所(イーネットATM)"
      }
    },
    {
      "type" : "Feature",
      "id" : 179,
      "geometry" : {
        "type" : "Point",
        "coordinates" : [
          139.73895900000002,
          35.679168000000061
        ]
      },
      "properties" : {
        "OBJECTID" : 179,
        "lat" : 35.679167999999997,
        "lon" : 139.73895899999999,
        "name" : "都道府県会館内郵便局"
      }
    },
    {
      "type" : "Feature",
      "id" : 180,
      "geometry" : {
        "type" : "Point",
        "coordinates" : [
          139.74159600000007,
          35.682723000000067
        ]
      },
      "properties" : {
        "OBJECTID" : 180,
        "lat" : 35.682723000000003,
        "lon" : 139.74159599999999,
        "name" : "セブンイレブン 千代田平河町1丁目店"
      }
    },
    {
      "type" : "Feature",
      "id" : 181,
      "geometry" : {
        "type" : "Point",
        "coordinates" : [
          139.7461770000001,
          35.699787000000072
        ]
      },
      "properties" : {
        "OBJECTID" : 181,
        "lat" : 35.699787000000001,
        "lon" : 139.74617699999999,
        "name" : "セブンイレブン 千代田大神宮通り店"
      }
    },
    {
      "type" : "Feature",
      "id" : 182,
      "geometry" : {
        "type" : "Point",
        "coordinates" : [
          139.741488,
          35.696277000000066
        ]
      },
      "properties" : {
        "OBJECTID" : 182,
        "lat" : 35.696277000000002,
        "lon" : 139.741488,
        "name" : "セブンイレブン 法政大学市ヶ谷キャンパス店"
      }
    },
    {
      "type" : "Feature",
      "id" : 183,
      "geometry" : {
        "type" : "Point",
        "coordinates" : [
          139.74498900000003,
          35.701047000000074
        ]
      },
      "properties" : {
        "OBJECTID" : 183,
        "lat" : 35.701047000000003,
        "lon" : 139.744989,
        "name" : "ファミリーマート飯田橋プラーノ1号機 共同出張所(イーネットATM)"
      }
    },
    {
      "type" : "Feature",
      "id" : 184,
      "geometry" : {
        "type" : "Point",
        "coordinates" : [
          139.74498900000003,
          35.701047000000074
        ]
      },
      "properties" : {
        "OBJECTID" : 184,
        "lat" : 35.701047000000003,
        "lon" : 139.744989,
        "name" : "ファミリーマート飯田橋プラーノ2号機 共同出張所(イーネットATM)"
      }
    },
    {
      "type" : "Feature",
      "id" : 185,
      "geometry" : {
        "type" : "Point",
        "coordinates" : [
          139.74237900000003,
          35.696925000000078
        ]
      },
      "properties" : {
        "OBJECTID" : 185,
        "lat" : 35.696925,
        "lon" : 139.742379,
        "name" : "ゆうちょ銀行 本店 東京逓信病院内出張所(ATM)"
      }
    },
    {
      "type" : "Feature",
      "id" : 186,
      "geometry" : {
        "type" : "Point",
        "coordinates" : [
          139.741488,
          35.696277000000066
        ]
      },
      "properties" : {
        "OBJECTID" : 186,
        "lat" : 35.696277000000002,
        "lon" : 139.741488,
        "name" : "ゆうちょ銀行 本店 法政大学市ケ谷校舎内出張所(ATM)"
      }
    },
    {
      "type" : "Feature",
      "id" : 187,
      "geometry" : {
        "type" : "Point",
        "coordinates" : [
          139.74499350000008,
          35.700624000000062
        ]
      },
      "properties" : {
        "OBJECTID" : 187,
        "lat" : 35.700623999999998,
        "lon" : 139.74499349999999,
        "name" : "東京スター銀行ATM 三徳 飯田橋店"
      }
    },
    {
      "type" : "Feature",
      "id" : 188,
      "geometry" : {
        "type" : "Point",
        "coordinates" : [
          139.74382800000001,
          35.698914000000059
        ]
      },
      "properties" : {
        "OBJECTID" : 188,
        "lat" : 35.698914000000002,
        "lon" : 139.74382800000001,
        "name" : "飯田橋郵便局"
      }
    },
    {
      "type" : "Feature",
      "id" : 189,
      "geometry" : {
        "type" : "Point",
        "coordinates" : [
          139.7464920000001,
          35.69796000000008
        ]
      },
      "properties" : {
        "OBJECTID" : 189,
        "lat" : 35.697960000000002,
        "lon" : 139.74649199999999,
        "name" : "セブンイレブン 千代田富士見1丁目店"
      }
    },
    {
      "type" : "Feature",
      "id" : 190,
      "geometry" : {
        "type" : "Point",
        "coordinates" : [
          139.74655500000006,
          35.698356000000047
        ]
      },
      "properties" : {
        "OBJECTID" : 190,
        "lat" : 35.698355999999997,
        "lon" : 139.746555,
        "name" : "株式会社東日本銀行 飯田橋支店"
      }
    },
    {
      "type" : "Feature",
      "id" : 191,
      "geometry" : {
        "type" : "Point",
        "coordinates" : [
          139.71329100000003,
          35.692389000000048
        ]
      },
      "properties" : {
        "OBJECTID" : 191,
        "lat" : 35.692388999999999,
        "lon" : 139.713291,
        "name" : "セブンイレブン 新宿富久町店"
      }
    },
    {
      "type" : "Feature",
      "id" : 192,
      "geometry" : {
        "type" : "Point",
        "coordinates" : [
          139.71329100000003,
          35.692389000000048
        ]
      },
      "properties" : {
        "OBJECTID" : 192,
        "lat" : 35.692388999999999,
        "lon" : 139.713291,
        "name" : "セブン銀行 イトーヨーカドー 食品館新宿富久店 共同出張所"
      }
    },
    {
      "type" : "Feature",
      "id" : 193,
      "geometry" : {
        "type" : "Point",
        "coordinates" : [
          139.6869210000001,
          35.66501100000005
        ]
      },
      "properties" : {
        "OBJECTID" : 193,
        "lat" : 35.665011,
        "lon" : 139.68692100000001,
        "name" : "セブンイレブン 渋谷富ヶ谷2丁目店"
      }
    },
    {
      "type" : "Feature",
      "id" : 194,
      "geometry" : {
        "type" : "Point",
        "coordinates" : [
          139.68528300000003,
          35.663283000000035
        ]
      },
      "properties" : {
        "OBJECTID" : 194,
        "lat" : 35.663283,
        "lon" : 139.685283,
        "name" : "渋谷富ケ谷二郵便局"
      }
    },
    {
      "type" : "Feature",
      "id" : 195,
      "geometry" : {
        "type" : "Point",
        "coordinates" : [
          139.69207350000011,
          35.665866000000051
        ]
      },
      "properties" : {
        "OBJECTID" : 195,
        "lat" : 35.665866000000001,
        "lon" : 139.69207349999999,
        "name" : "セブンイレブン 渋谷代々木公園店"
      }
    },
    {
      "type" : "Feature",
      "id" : 196,
      "geometry" : {
        "type" : "Point",
        "coordinates" : [
          139.68934650000006,
          35.668809000000067
        ]
      },
      "properties" : {
        "OBJECTID" : 196,
        "lat" : 35.668809000000003,
        "lon" : 139.6893465,
        "name" : "三井住友銀行 代々木八幡出張所(ATM)"
      }
    },
    {
      "type" : "Feature",
      "id" : 197,
      "geometry" : {
        "type" : "Point",
        "coordinates" : [
          139.69053450000001,
          35.668098000000043
        ]
      },
      "properties" : {
        "OBJECTID" : 197,
        "lat" : 35.668098000000001,
        "lon" : 139.69053450000001,
        "name" : "渋谷富ケ谷一郵便局"
      }
    },
    {
      "type" : "Feature",
      "id" : 198,
      "geometry" : {
        "type" : "Point",
        "coordinates" : [
          139.75483500000007,
          35.653293000000076
        ]
      },
      "properties" : {
        "OBJECTID" : 198,
        "lat" : 35.653292999999998,
        "lon" : 139.75483500000001,
        "name" : "セブンイレブン 浜松町2丁目店"
      }
    },
    {
      "type" : "Feature",
      "id" : 199,
      "geometry" : {
        "type" : "Point",
        "coordinates" : [
          139.75599150000005,
          35.656497000000059
        ]
      },
      "properties" : {
        "OBJECTID" : 199,
        "lat" : 35.656497000000002,
        "lon" : 139.75599149999999,
        "name" : "セブン銀行 都営地下鉄 大江戸線 大門駅 共同出張所"
      }
    },
    {
      "type" : "Feature",
      "id" : 200,
      "geometry" : {
        "type" : "Point",
        "coordinates" : [
          139.75673400000005,
          35.655480000000068
        ]
      },
      "properties" : {
        "OBJECTID" : 200,
        "lat" : 35.655479999999997,
        "lon" : 139.75673399999999,
        "name" : "セブン銀行 東京モノレール 浜松町駅 共同出張所"
      }
    },
    {
      "type" : "Feature",
      "id" : 201,
      "geometry" : {
        "type" : "Point",
        "coordinates" : [
          139.75491600000009,
          35.656146000000035
        ]
      },
      "properties" : {
        "OBJECTID" : 201,
        "lat" : 35.656146,
        "lon" : 139.75491600000001,
        "name" : "ファミリーマート浜松町二丁目 共同出張所(イーネットATM)"
      }
    },
    {
      "type" : "Feature",
      "id" : 202,
      "geometry" : {
        "type" : "Point",
        "coordinates" : [
          139.7561535000001,
          35.655606000000034
        ]
      },
      "properties" : {
        "OBJECTID" : 202,
        "lat" : 35.655605999999999,
        "lon" : 139.75615350000001,
        "name" : "みずほ銀行浜松町支店"
      }
    },
    {
      "type" : "Feature",
      "id" : 203,
      "geometry" : {
        "type" : "Point",
        "coordinates" : [
          139.7561535000001,
          35.655606000000034
        ]
      },
      "properties" : {
        "OBJECTID" : 203,
        "lat" : 35.655605999999999,
        "lon" : 139.75615350000001,
        "name" : "ゆうちょ銀行 本店 ファミリーマート世界貿易センター店内出張所(ATM)"
      }
    },
    {
      "type" : "Feature",
      "id" : 204,
      "geometry" : {
        "type" : "Point",
        "coordinates" : [
          139.75638750000007,
          35.654013000000077
        ]
      },
      "properties" : {
        "OBJECTID" : 204,
        "lat" : 35.654012999999999,
        "lon" : 139.75638749999999,
        "name" : "ゆうちょ銀行 本店 ファミリーマート浜松町駅南店内出張所(ATM)"
      }
    },
    {
      "type" : "Feature",
      "id" : 205,
      "geometry" : {
        "type" : "Point",
        "coordinates" : [
          139.75557750000007,
          35.655624000000046
        ]
      },
      "properties" : {
        "OBJECTID" : 205,
        "lat" : 35.655624000000003,
        "lon" : 139.75557749999999,
        "name" : "三井住友銀行浜松町支店"
      }
    },
    {
      "type" : "Feature",
      "id" : 206,
      "geometry" : {
        "type" : "Point",
        "coordinates" : [
          139.7561535000001,
          35.655606000000034
        ]
      },
      "properties" : {
        "OBJECTID" : 206,
        "lat" : 35.655605999999999,
        "lon" : 139.75615350000001,
        "name" : "世界貿易センター内郵便局"
      }
    },
    {
      "type" : "Feature",
      "id" : 207,
      "geometry" : {
        "type" : "Point",
        "coordinates" : [
          139.7561535000001,
          35.655606000000034
        ]
      },
      "properties" : {
        "OBJECTID" : 207,
        "lat" : 35.655605999999999,
        "lon" : 139.75615350000001,
        "name" : "生活彩家貿易センター 共同出張所(イーネットATM)"
      }
    },
    {
      "type" : "Feature",
      "id" : 208,
      "geometry" : {
        "type" : "Point",
        "coordinates" : [
          139.75674750000007,
          35.657757000000061
        ]
      },
      "properties" : {
        "OBJECTID" : 208,
        "lat" : 35.657756999999997,
        "lon" : 139.75674749999999,
        "name" : "セブンイレブン 浜松町1丁目中央店"
      }
    },
    {
      "type" : "Feature",
      "id" : 209,
      "geometry" : {
        "type" : "Point",
        "coordinates" : [
          139.75597800000003,
          35.660025000000076
        ]
      },
      "properties" : {
        "OBJECTID" : 209,
        "lat" : 35.660024999999997,
        "lon" : 139.755978,
        "name" : "セブンイレブン 浜松町1丁目北店"
      }
    },
    {
      "type" : "Feature",
      "id" : 210,
      "geometry" : {
        "type" : "Point",
        "coordinates" : [
          139.75498350000009,
          35.657001000000037
        ]
      },
      "properties" : {
        "OBJECTID" : 210,
        "lat" : 35.657001000000001,
        "lon" : 139.75498350000001,
        "name" : "セブン銀行 都営地下鉄 浅草線 大門駅 共同出張所"
      }
    },
    {
      "type" : "Feature",
      "id" : 211,
      "geometry" : {
        "type" : "Point",
        "coordinates" : [
          139.75515900000005,
          35.65766700000006
        ]
      },
      "properties" : {
        "OBJECTID" : 211,
        "lat" : 35.657666999999996,
        "lon" : 139.75515899999999,
        "name" : "ファミリーマート浜松町一丁目 共同出張所(イーネットATM)"
      }
    },
    {
      "type" : "Feature",
      "id" : 212,
      "geometry" : {
        "type" : "Point",
        "coordinates" : [
          139.755672,
          35.657937000000061
        ]
      },
      "properties" : {
        "OBJECTID" : 212,
        "lat" : 35.657936999999997,
        "lon" : 139.755672,
        "name" : "ファミリーマート名鉄イン浜松町 共同出張所(イーネットATM)"
      }
    },
    {
      "type" : "Feature",
      "id" : 213,
      "geometry" : {
        "type" : "Point",
        "coordinates" : [
          139.75704450000001,
          35.659863000000087
        ]
      },
      "properties" : {
        "OBJECTID" : 213,
        "lat" : 35.659863000000001,
        "lon" : 139.75704450000001,
        "name" : "東日本銀行赤坂支店"
      }
    },
    {
      "type" : "Feature",
      "id" : 214,
      "geometry" : {
        "type" : "Point",
        "coordinates" : [
          139.69845450000003,
          35.704809000000068
        ]
      },
      "properties" : {
        "OBJECTID" : 214,
        "lat" : 35.704808999999997,
        "lon" : 139.6984545,
        "name" : "きらぼし銀行 東京山手メディカルセンター内"
      }
    },
    {
      "type" : "Feature",
      "id" : 215,
      "geometry" : {
        "type" : "Point",
        "coordinates" : [
          139.69609650000007,
          35.706645000000037
        ]
      },
      "properties" : {
        "OBJECTID" : 215,
        "lat" : 35.706645000000002,
        "lon" : 139.69609650000001,
        "name" : "新宿百人町郵便局"
      }
    },
    {
      "type" : "Feature",
      "id" : 216,
      "geometry" : {
        "type" : "Point",
        "coordinates" : [
          139.6990485,
          35.704593000000045
        ]
      },
      "properties" : {
        "OBJECTID" : 216,
        "lat" : 35.704593000000003,
        "lon" : 139.6990485,
        "name" : "東京スター銀行ATM 東京山手メディカルセンター"
      }
    },
    {
      "type" : "Feature",
      "id" : 217,
      "geometry" : {
        "type" : "Point",
        "coordinates" : [
          139.69728450000002,
          35.701857000000075
        ]
      },
      "properties" : {
        "OBJECTID" : 217,
        "lat" : 35.701856999999997,
        "lon" : 139.69728449999999,
        "name" : "セブンイレブン 新宿大久保駅前店"
      }
    },
    {
      "type" : "Feature",
      "id" : 218,
      "geometry" : {
        "type" : "Point",
        "coordinates" : [
          139.69970550000005,
          35.702874000000065
        ]
      },
      "properties" : {
        "OBJECTID" : 218,
        "lat" : 35.702874000000001,
        "lon" : 139.69970549999999,
        "name" : "セブンイレブン 新宿百人町2丁目店"
      }
    },
    {
      "type" : "Feature",
      "id" : 219,
      "geometry" : {
        "type" : "Point",
        "coordinates" : [
          139.699161,
          35.701758000000041
        ]
      },
      "properties" : {
        "OBJECTID" : 219,
        "lat" : 35.701757999999998,
        "lon" : 139.699161,
        "name" : "ゆうちょ銀行 本店 新大久保・新戸山ビル内出張所(ATM)"
      }
    },
    {
      "type" : "Feature",
      "id" : 220,
      "geometry" : {
        "type" : "Point",
        "coordinates" : [
          139.69960200000003,
          35.699760000000083
        ]
      },
      "properties" : {
        "OBJECTID" : 220,
        "lat" : 35.699759999999998,
        "lon" : 139.699602,
        "name" : "miniピアゴ百人町1丁目 共同出張所(イーネットATM)"
      }
    },
    {
      "type" : "Feature",
      "id" : 221,
      "geometry" : {
        "type" : "Point",
        "coordinates" : [
          139.70195550000005,
          35.698266000000046
        ]
      },
      "properties" : {
        "OBJECTID" : 221,
        "lat" : 35.698265999999997,
        "lon" : 139.7019555,
        "name" : "セブンイレブン 新宿職安通り店"
      }
    },
    {
      "type" : "Feature",
      "id" : 222,
      "geometry" : {
        "type" : "Point",
        "coordinates" : [
          139.69755000000009,
          35.699247000000071
        ]
      },
      "properties" : {
        "OBJECTID" : 222,
        "lat" : 35.699247,
        "lon" : 139.69755000000001,
        "name" : "セブンイレブン 新宿大久保駅南口店"
      }
    },
    {
      "type" : "Feature",
      "id" : 223,
      "geometry" : {
        "type" : "Point",
        "coordinates" : [
          139.699161,
          35.701407000000074
        ]
      },
      "properties" : {
        "OBJECTID" : 223,
        "lat" : 35.701407000000003,
        "lon" : 139.699161,
        "name" : "セブンイレブン 新大久保駅西店"
      }
    },
    {
      "type" : "Feature",
      "id" : 224,
      "geometry" : {
        "type" : "Point",
        "coordinates" : [
          139.7020500000001,
          35.701011000000051
        ]
      },
      "properties" : {
        "OBJECTID" : 224,
        "lat" : 35.701011000000001,
        "lon" : 139.70205000000001,
        "name" : "ファミリーマート新大久保 共同出張所(イーネットATM)"
      }
    },
    {
      "type" : "Feature",
      "id" : 225,
      "geometry" : {
        "type" : "Point",
        "coordinates" : [
          139.69639800000004,
          35.701623000000041
        ]
      },
      "properties" : {
        "OBJECTID" : 225,
        "lat" : 35.701622999999998,
        "lon" : 139.69639799999999,
        "name" : "ファミリーマート大久保駅前 共同出張所(イーネットATM)"
      }
    },
    {
      "type" : "Feature",
      "id" : 226,
      "geometry" : {
        "type" : "Point",
        "coordinates" : [
          139.69766700000002,
          35.69972400000006
        ]
      },
      "properties" : {
        "OBJECTID" : 226,
        "lat" : 35.699724000000003,
        "lon" : 139.697667,
        "name" : "ファミリーマート大久保駅南口1号機 共同出張所(イーネットATM)"
      }
    },
    {
      "type" : "Feature",
      "id" : 227,
      "geometry" : {
        "type" : "Point",
        "coordinates" : [
          139.69766700000002,
          35.69972400000006
        ]
      },
      "properties" : {
        "OBJECTID" : 227,
        "lat" : 35.699724000000003,
        "lon" : 139.697667,
        "name" : "ファミリーマート大久保駅南口2号機 共同出張所(イーネットATM)"
      }
    },
    {
      "type" : "Feature",
      "id" : 228,
      "geometry" : {
        "type" : "Point",
        "coordinates" : [
          139.69997100000001,
          35.700669000000062
        ]
      },
      "properties" : {
        "OBJECTID" : 228,
        "lat" : 35.700668999999998,
        "lon" : 139.69997100000001,
        "name" : "新大久保駅前郵便局"
      }
    },
    {
      "type" : "Feature",
      "id" : 229,
      "geometry" : {
        "type" : "Point",
        "coordinates" : [
          139.74782850000008,
          35.700111000000049
        ]
      },
      "properties" : {
        "OBJECTID" : 229,
        "lat" : 35.700111,
        "lon" : 139.7478285,
        "name" : "セブンイレブン 飯田橋4丁目店"
      }
    },
    {
      "type" : "Feature",
      "id" : 230,
      "geometry" : {
        "type" : "Point",
        "coordinates" : [
          139.74616800000001,
          35.70135300000004
        ]
      },
      "properties" : {
        "OBJECTID" : 230,
        "lat" : 35.701352999999997,
        "lon" : 139.74616800000001,
        "name" : "ゆうちょ銀行 本店 ファミリーマート飯田橋駅前店内出張所(ATM)"
      }
    },
    {
      "type" : "Feature",
      "id" : 231,
      "geometry" : {
        "type" : "Point",
        "coordinates" : [
          139.74780600000008,
          35.700219000000061
        ]
      },
      "properties" : {
        "OBJECTID" : 231,
        "lat" : 35.700218999999997,
        "lon" : 139.747806,
        "name" : "りそな銀行 飯田橋駅東口出張所 無人ATM"
      }
    },
    {
      "type" : "Feature",
      "id" : 232,
      "geometry" : {
        "type" : "Point",
        "coordinates" : [
          139.75053300000002,
          35.700363000000038
        ]
      },
      "properties" : {
        "OBJECTID" : 232,
        "lat" : 35.700363000000003,
        "lon" : 139.75053299999999,
        "name" : "セブンイレブン KDDI本社20階店"
      }
    },
    {
      "type" : "Feature",
      "id" : 233,
      "geometry" : {
        "type" : "Point",
        "coordinates" : [
          139.75053300000002,
          35.700363000000038
        ]
      },
      "properties" : {
        "OBJECTID" : 233,
        "lat" : 35.700363000000003,
        "lon" : 139.75053299999999,
        "name" : "セブンイレブン KDDI本社店"
      }
    },
    {
      "type" : "Feature",
      "id" : 234,
      "geometry" : {
        "type" : "Point",
        "coordinates" : [
          139.750272,
          35.701065000000085
        ]
      },
      "properties" : {
        "OBJECTID" : 234,
        "lat" : 35.701065,
        "lon" : 139.750272,
        "name" : "セブンイレブン 飯田橋アイガーデンテラス店"
      }
    },
    {
      "type" : "Feature",
      "id" : 235,
      "geometry" : {
        "type" : "Point",
        "coordinates" : [
          139.74864750000006,
          35.700399000000061
        ]
      },
      "properties" : {
        "OBJECTID" : 235,
        "lat" : 35.700398999999997,
        "lon" : 139.7486475,
        "name" : "ファミリーマート飯田橋三丁目 共同出張所(イーネットATM)"
      }
    },
    {
      "type" : "Feature",
      "id" : 236,
      "geometry" : {
        "type" : "Point",
        "coordinates" : [
          139.75124400000004,
          35.699094000000059
        ]
      },
      "properties" : {
        "OBJECTID" : 236,
        "lat" : 35.699094000000002,
        "lon" : 139.75124400000001,
        "name" : "セブンイレブン 大和ハウス九段ビル店"
      }
    },
    {
      "type" : "Feature",
      "id" : 237,
      "geometry" : {
        "type" : "Point",
        "coordinates" : [
          139.74967800000002,
          35.699004000000059
        ]
      },
      "properties" : {
        "OBJECTID" : 237,
        "lat" : 35.699004000000002,
        "lon" : 139.74967799999999,
        "name" : "ファミリーマート飯田橋二丁目 共同出張所(イーネットATM)"
      }
    },
    {
      "type" : "Feature",
      "id" : 238,
      "geometry" : {
        "type" : "Point",
        "coordinates" : [
          139.74922350000008,
          35.699355000000082
        ]
      },
      "properties" : {
        "OBJECTID" : 238,
        "lat" : 35.699354999999997,
        "lon" : 139.7492235,
        "name" : "麹町飯田橋通郵便局"
      }
    },
    {
      "type" : "Feature",
      "id" : 239,
      "geometry" : {
        "type" : "Point",
        "coordinates" : [
          139.74883199999999,
          35.699157000000071
        ]
      },
      "properties" : {
        "OBJECTID" : 239,
        "lat" : 35.699157,
        "lon" : 139.74883199999999,
        "name" : "興産信用金庫飯田橋支店"
      }
    },
    {
      "type" : "Feature",
      "id" : 240,
      "geometry" : {
        "type" : "Point",
        "coordinates" : [
          139.7418345000001,
          35.683308000000068
        ]
      },
      "properties" : {
        "OBJECTID" : 240,
        "lat" : 35.683307999999997,
        "lon" : 139.74183450000001,
        "name" : "ゆうちょ銀行 本店 ファミリーマート半蔵門駅南店内出張所(ATM)"
      }
    },
    {
      "type" : "Feature",
      "id" : 241,
      "geometry" : {
        "type" : "Point",
        "coordinates" : [
          139.74388650000003,
          35.680230000000051
        ]
      },
      "properties" : {
        "OBJECTID" : 241,
        "lat" : 35.680230000000002,
        "lon" : 139.7438865,
        "name" : "最高裁判所内郵便局"
      }
    },
    {
      "type" : "Feature",
      "id" : 242,
      "geometry" : {
        "type" : "Point",
        "coordinates" : [
          139.77400950000003,
          35.674479000000076
        ]
      },
      "properties" : {
        "OBJECTID" : 242,
        "lat" : 35.674478999999998,
        "lon" : 139.77400950000001,
        "name" : "セブンイレブン 中央区八丁堀4丁目店"
      }
    },
    {
      "type" : "Feature",
      "id" : 243,
      "geometry" : {
        "type" : "Point",
        "coordinates" : [
          139.77651600000002,
          35.674407000000087
        ]
      },
      "properties" : {
        "OBJECTID" : 243,
        "lat" : 35.674407000000002,
        "lon" : 139.77651599999999,
        "name" : "ファミリーマート八丁堀四丁目 共同出張所(イーネットATM)"
      }
    },
    {
      "type" : "Feature",
      "id" : 244,
      "geometry" : {
        "type" : "Point",
        "coordinates" : [
          139.77840150000009,
          35.673993000000053
        ]
      },
      "properties" : {
        "OBJECTID" : 244,
        "lat" : 35.673993000000003,
        "lon" : 139.7784015,
        "name" : "ゆうちょ銀行 本店 ファミリーマート八丁堀店内出張所(ATM)"
      }
    },
    {
      "type" : "Feature",
      "id" : 245,
      "geometry" : {
        "type" : "Point",
        "coordinates" : [
          139.77833400000009,
          35.674407000000087
        ]
      },
      "properties" : {
        "OBJECTID" : 245,
        "lat" : 35.674407000000002,
        "lon" : 139.778334,
        "name" : "中京銀行東京支店"
      }
    },
    {
      "type" : "Feature",
      "id" : 246,
      "geometry" : {
        "type" : "Point",
        "coordinates" : [
          139.77567450000004,
          35.676189000000079
        ]
      },
      "properties" : {
        "OBJECTID" : 246,
        "lat" : 35.676189000000001,
        "lon" : 139.77567450000001,
        "name" : "セブンイレブン 八丁堀2丁目店"
      }
    },
    {
      "type" : "Feature",
      "id" : 247,
      "geometry" : {
        "type" : "Point",
        "coordinates" : [
          139.77756900000008,
          35.676279000000079
        ]
      },
      "properties" : {
        "OBJECTID" : 247,
        "lat" : 35.676279000000001,
        "lon" : 139.777569,
        "name" : "セブン銀行 東京メトロ 日比谷線 八丁堀駅 共同出張所"
      }
    },
    {
      "type" : "Feature",
      "id" : 248,
      "geometry" : {
        "type" : "Point",
        "coordinates" : [
          139.77686249999999,
          35.675901000000067
        ]
      },
      "properties" : {
        "OBJECTID" : 248,
        "lat" : 35.675901000000003,
        "lon" : 139.77686249999999,
        "name" : "ファミリーマート八丁堀二丁目 共同出張所(イーネットATM)"
      }
    },
    {
      "type" : "Feature",
      "id" : 249,
      "geometry" : {
        "type" : "Point",
        "coordinates" : [
          139.77569700000004,
          35.677332000000035
        ]
      },
      "properties" : {
        "OBJECTID" : 249,
        "lat" : 35.677332,
        "lon" : 139.77569700000001,
        "name" : "大垣共立銀行東京支店"
      }
    },
    {
      "type" : "Feature",
      "id" : 250,
      "geometry" : {
        "type" : "Point",
        "coordinates" : [
          139.77512550000006,
          35.676450000000045
        ]
      },
      "properties" : {
        "OBJECTID" : 250,
        "lat" : 35.676450000000003,
        "lon" : 139.7751255,
        "name" : "中央八丁堀郵便局"
      }
    },
    {
      "type" : "Feature",
      "id" : 251,
      "geometry" : {
        "type" : "Point",
        "coordinates" : [
          139.77617400000008,
          35.676846000000069
        ]
      },
      "properties" : {
        "OBJECTID" : 251,
        "lat" : 35.676845999999998,
        "lon" : 139.776174,
        "name" : "東京シティ信用金庫京橋支店"
      }
    },
    {
      "type" : "Feature",
      "id" : 252,
      "geometry" : {
        "type" : "Point",
        "coordinates" : [
          139.76943300000005,
          35.679906000000074
        ]
      },
      "properties" : {
        "OBJECTID" : 252,
        "lat" : 35.679906000000003,
        "lon" : 139.76943299999999,
        "name" : "セブンイレブン 八重洲地下街南店"
      }
    },
    {
      "type" : "Feature",
      "id" : 253,
      "geometry" : {
        "type" : "Point",
        "coordinates" : [
          139.76858700000003,
          35.677224000000081
        ]
      },
      "properties" : {
        "OBJECTID" : 253,
        "lat" : 35.677224000000002,
        "lon" : 139.768587,
        "name" : "セブンイレブン 八重洲柳通り店"
      }
    },
    {
      "type" : "Feature",
      "id" : 254,
      "geometry" : {
        "type" : "Point",
        "coordinates" : [
          139.7700675000001,
          35.679609000000085
        ]
      },
      "properties" : {
        "OBJECTID" : 254,
        "lat" : 35.679608999999999,
        "lon" : 139.77006750000001,
        "name" : "セブン銀行 新生銀行 東京フィナンシャルセンター 共同出張所"
      }
    },
    {
      "type" : "Feature",
      "id" : 255,
      "geometry" : {
        "type" : "Point",
        "coordinates" : [
          139.76943300000005,
          35.679906000000074
        ]
      },
      "properties" : {
        "OBJECTID" : 255,
        "lat" : 35.679906000000003,
        "lon" : 139.76943299999999,
        "name" : "セブン銀行 八重洲地下街 共同出張所"
      }
    },
    {
      "type" : "Feature",
      "id" : 256,
      "geometry" : {
        "type" : "Point",
        "coordinates" : [
          139.76943300000005,
          35.679906000000074
        ]
      },
      "properties" : {
        "OBJECTID" : 256,
        "lat" : 35.679906000000003,
        "lon" : 139.76943299999999,
        "name" : "つみたてプラザやえす 八重洲地下街店"
      }
    },
    {
      "type" : "Feature",
      "id" : 257,
      "geometry" : {
        "type" : "Point",
        "coordinates" : [
          139.76943300000005,
          35.679906000000074
        ]
      },
      "properties" : {
        "OBJECTID" : 257,
        "lat" : 35.679906000000003,
        "lon" : 139.76943299999999,
        "name" : "ファミリーマート八重洲地下街 共同出張所(イーネットATM)"
      }
    },
    {
      "type" : "Feature",
      "id" : 258,
      "geometry" : {
        "type" : "Point",
        "coordinates" : [
          139.76770050000005,
          35.675766000000067
        ]
      },
      "properties" : {
        "OBJECTID" : 258,
        "lat" : 35.675766000000003,
        "lon" : 139.76770049999999,
        "name" : "ゆうちょ銀行 本店 ファミリーマート中央八重洲二丁目店内出張所(ATM)"
      }
    },
    {
      "type" : "Feature",
      "id" : 259,
      "geometry" : {
        "type" : "Point",
        "coordinates" : [
          139.7689785,
          35.677773000000059
        ]
      },
      "properties" : {
        "OBJECTID" : 259,
        "lat" : 35.677773000000002,
        "lon" : 139.7689785,
        "name" : "ゆうちょ銀行 本店 ファミリーマート八重洲二丁目店内出張所(ATM)"
      }
    },
    {
      "type" : "Feature",
      "id" : 260,
      "geometry" : {
        "type" : "Point",
        "coordinates" : [
          139.76943300000005,
          35.679906000000074
        ]
      },
      "properties" : {
        "OBJECTID" : 260,
        "lat" : 35.679906000000003,
        "lon" : 139.76943299999999,
        "name" : "りそな銀行 八重洲地下街メイン・アベニュー出張所 無人ATM"
      }
    },
    {
      "type" : "Feature",
      "id" : 261,
      "geometry" : {
        "type" : "Point",
        "coordinates" : [
          139.76943300000005,
          35.679906000000074
        ]
      },
      "properties" : {
        "OBJECTID" : 261,
        "lat" : 35.679906000000003,
        "lon" : 139.76943299999999,
        "name" : "りそな銀行ATM 八重洲地下街"
      }
    },
    {
      "type" : "Feature",
      "id" : 262,
      "geometry" : {
        "type" : "Point",
        "coordinates" : [
          139.76943300000005,
          35.679906000000074
        ]
      },
      "properties" : {
        "OBJECTID" : 262,
        "lat" : 35.679906000000003,
        "lon" : 139.76943299999999,
        "name" : "三井住友銀行ATMコーナー 八重洲地下街"
      }
    },
    {
      "type" : "Feature",
      "id" : 263,
      "geometry" : {
        "type" : "Point",
        "coordinates" : [
          139.76676000000009,
          35.676153000000056
        ]
      },
      "properties" : {
        "OBJECTID" : 263,
        "lat" : 35.676152999999999,
        "lon" : 139.76676,
        "name" : "商工組合中央金庫 本店"
      }
    },
    {
      "type" : "Feature",
      "id" : 264,
      "geometry" : {
        "type" : "Point",
        "coordinates" : [
          139.76769150000007,
          35.67743100000007
        ]
      },
      "properties" : {
        "OBJECTID" : 264,
        "lat" : 35.677430999999999,
        "lon" : 139.76769150000001,
        "name" : "常陽銀行東京営業部"
      }
    },
    {
      "type" : "Feature",
      "id" : 265,
      "geometry" : {
        "type" : "Point",
        "coordinates" : [
          139.7700675000001,
          35.679609000000085
        ]
      },
      "properties" : {
        "OBJECTID" : 265,
        "lat" : 35.679608999999999,
        "lon" : 139.77006750000001,
        "name" : "新生銀行 東京フィナンシャルセンター/東京住宅ローンセンター"
      }
    },
    {
      "type" : "Feature",
      "id" : 266,
      "geometry" : {
        "type" : "Point",
        "coordinates" : [
          139.76797050000005,
          35.676585000000046
        ]
      },
      "properties" : {
        "OBJECTID" : 266,
        "lat" : 35.676585000000003,
        "lon" : 139.76797049999999,
        "name" : "親和銀行 東京支店"
      }
    },
    {
      "type" : "Feature",
      "id" : 267,
      "geometry" : {
        "type" : "Point",
        "coordinates" : [
          139.76943300000005,
          35.679906000000074
        ]
      },
      "properties" : {
        "OBJECTID" : 267,
        "lat" : 35.679906000000003,
        "lon" : 139.76943299999999,
        "name" : "八重洲地下街郵便局"
      }
    },
    {
      "type" : "Feature",
      "id" : 268,
      "geometry" : {
        "type" : "Point",
        "coordinates" : [
          139.76797050000005,
          35.676585000000046
        ]
      },
      "properties" : {
        "OBJECTID" : 268,
        "lat" : 35.676585000000003,
        "lon" : 139.76797049999999,
        "name" : "福岡銀行東京支店"
      }
    },
    {
      "type" : "Feature",
      "id" : 269,
      "geometry" : {
        "type" : "Point",
        "coordinates" : [
          139.76943300000005,
          35.679906000000074
        ]
      },