{
  "type" : "FeatureCollection",
  "features" : [
    {
      "type" : "Feature",
      "id" : 1,
      "geometry" : {
        "type" : "Point",
        "coordinates" : [
          139.75767450000001,
          35.693118000000084
        ]
      },
      "properties" : {
        "OBJECTID" : 1,
        "lat" : 35.693117999999998,
        "lon" : 139.75767450000001,
        "name" : "共立女子大学"
      }
    },
    {
      "type" : "Feature",
      "id" : 2,
      "geometry" : {
        "type" : "Point",
        "coordinates" : [
          139.75799400000005,
          35.692479000000048
        ]
      },
      "properties" : {
        "OBJECTID" : 2,
        "lat" : 35.692478999999999,
        "lon" : 139.757994,
        "name" : "一橋大学"
      }
    },
    {
      "type" : "Feature",
      "id" : 3,
      "geometry" : {
        "type" : "Point",
        "coordinates" : [
          139.75799400000005,
          35.692479000000048
        ]
      },
      "properties" : {
        "OBJECTID" : 3,
        "lat" : 35.692478999999999,
        "lon" : 139.757994,
        "name" : "総合研究大学院大学"
      }
    },
    {
      "type" : "Feature",
      "id" : 4,
      "geometry" : {
        "type" : "Point",
        "coordinates" : [
          139.69474650000006,
          35.720703000000071
        ]
      },
      "properties" : {
        "OBJECTID" : 4,
        "lat" : 35.720703,
        "lon" : 139.69474650000001,
        "name" : "上智大学"
      }
    },
    {
      "type" : "Feature",
      "id" : 5,
      "geometry" : {
        "type" : "Point",
        "coordinates" : [
          139.72028850000004,
          35.697186000000045
        ]
      },
      "properties" : {
        "OBJECTID" : 5,
        "lat" : 35.697186000000002,
        "lon" : 139.72028850000001,
        "name" : "東京女子医科大学"
      }
    },
    {
      "type" : "Feature",
      "id" : 6,
      "geometry" : {
        "type" : "Point",
        "coordinates" : [
          139.76693550000005,
          35.677962000000036
        ]
      },
      "properties" : {
        "OBJECTID" : 6,
        "lat" : 35.677962000000001,
        "lon" : 139.76693549999999,
        "name" : "ＳＢＩ大学院大学"
      }
    },
    {
      "type" : "Feature",
      "id" : 7,
      "geometry" : {
        "type" : "Point",
        "coordinates" : [
          139.76851950000002,
          35.683749000000034
        ]
      },
      "properties" : {
        "OBJECTID" : 7,
        "lat" : 35.683748999999999,
        "lon" : 139.7685195,
        "name" : "関西学院大学"
      }
    },
    {
      "type" : "Feature",
      "id" : 8,
      "geometry" : {
        "type" : "Point",
        "coordinates" : [
          139.72135500000002,
          35.705106000000058
        ]
      },
      "properties" : {
        "OBJECTID" : 8,
        "lat" : 35.705106000000001,
        "lon" : 139.72135499999999,
        "name" : "早稲田大学"
      }
    },
    {
      "type" : "Feature",
      "id" : 9,
      "geometry" : {
        "type" : "Point",
        "coordinates" : [
          139.73202000000003,
          35.683362000000045
        ]
      },
      "properties" : {
        "OBJECTID" : 9,
        "lat" : 35.683362000000002,
        "lon" : 139.73202000000001,
        "name" : "上智大学"
      }
    },
    {
      "type" : "Feature",
      "id" : 10,
      "geometry" : {
        "type" : "Point",
        "coordinates" : [
          139.73773950000009,
          35.682165000000055
        ]
      },
      "properties" : {
        "OBJECTID" : 10,
        "lat" : 35.682164999999998,
        "lon" : 139.7377395,
        "name" : "城西国際大学"
      }
    },
    {
      "type" : "Feature",
      "id" : 11,
      "geometry" : {
        "type" : "Point",
        "coordinates" : [
          139.75371140000004,
          35.693930060000071
        ]
      },
      "properties" : {
        "OBJECTID" : 11,
        "lat" : 35.69393006,
        "lon" : 139.75371139999999,
        "name" : "ビジネス・ブレークスルー大学"
      }
    },
    {
      "type" : "Feature",
      "id" : 12,
      "geometry" : {
        "type" : "Point",
        "coordinates" : [
          139.73744700000009,
          35.691066000000035
        ]
      },
      "properties" : {
        "OBJECTID" : 12,
        "lat" : 35.691065999999999,
        "lon" : 139.737447,
        "name" : "日本大学"
      }
    },
    {
      "type" : "Feature",
      "id" : 13,
      "geometry" : {
        "type" : "Point",
        "coordinates" : [
          139.71781800000008,
          35.705088000000046
        ]
      },
      "properties" : {
        "OBJECTID" : 13,
        "lat" : 35.705088000000003,
        "lon" : 139.71781799999999,
        "name" : "早稲田大学"
      }
    },
    {
      "type" : "Feature",
      "id" : 14,
      "geometry" : {
        "type" : "Point",
        "coordinates" : [
          139.71106800000007,
          35.707527000000084
        ]
      },
      "properties" : {
        "OBJECTID" : 14,
        "lat" : 35.707526999999999,
        "lon" : 139.71106800000001,
        "name" : "学習院女子大学"
      }
    },
    {
      "type" : "Feature",
      "id" : 15,
      "geometry" : {
        "type" : "Point",
        "coordinates" : [
          139.72214250000002,
          35.709867000000088
        ]
      },
      "properties" : {
        "OBJECTID" : 15,
        "lat" : 35.709867000000003,
        "lon" : 139.72214249999999,
        "name" : "早稲田大学"
      }
    },
    {
      "type" : "Feature",
      "id" : 16,
      "geometry" : {
        "type" : "Point",
        "coordinates" : [
          139.72045500000002,
          35.651214000000039
        ]
      },
      "properties" : {
        "OBJECTID" : 16,
        "lat" : 35.651214000000003,
        "lon" : 139.72045499999999,
        "name" : "聖心女子大学"
      }
    },
    {
      "type" : "Feature",
      "id" : 17,
      "geometry" : {
        "type" : "Point",
        "coordinates" : [
          139.71926250000001,
          35.653383000000076
        ]
      },
      "properties" : {
        "OBJECTID" : 17,
        "lat" : 35.653382999999998,
        "lon" : 139.71926250000001,
        "name" : "日本赤十字看護大学"
      }
    },
    {
      "type" : "Feature",
      "id" : 18,
      "geometry" : {
        "type" : "Point",
        "coordinates" : [
          139.74741900000004,
          35.624781000000041
        ]
      },
      "properties" : {
        "OBJECTID" : 18,
        "lat" : 35.624780999999999,
        "lon" : 139.74741900000001,
        "name" : "東京海洋大学"
      }
    },
    {
      "type" : "Feature",
      "id" : 19,
      "geometry" : {
        "type" : "Point",
        "coordinates" : [
          139.70655900000008,
          35.712306000000069
        ]
      },
      "properties" : {
        "OBJECTID" : 19,
        "lat" : 35.712305999999998,
        "lon" : 139.706559,
        "name" : "社会情報大学院大学"
      }
    },
    {
      "type" : "Feature",
      "id" : 20,
      "geometry" : {
        "type" : "Point",
        "coordinates" : [
          139.7010375000001,
          35.714808000000062
        ]
      },
      "properties" : {
        "OBJECTID" : 20,
        "lat" : 35.714807999999998,
        "lon" : 139.70103750000001,
        "name" : "東京富士大学"
      }
    },
    {
      "type" : "Feature",
      "id" : 21,
      "geometry" : {
        "type" : "Point",
        "coordinates" : [
          139.73431950000008,
          35.637849000000074
        ]
      },
      "properties" : {
        "OBJECTID" : 21,
        "lat" : 35.637849000000003,
        "lon" : 139.7343195,
        "name" : "東海大学"
      }
    },
    {
      "type" : "Feature",
      "id" : 22,
      "geometry" : {
        "type" : "Point",
        "coordinates" : [
          139.70049300000005,
          35.65638000000007
        ]
      },
      "properties" : {
        "OBJECTID" : 22,
        "lat" : 35.656379999999999,
        "lon" : 139.70049299999999,
        "name" : "日本経済大学"
      }
    },
    {
      "type" : "Feature",
      "id" : 23,
      "geometry" : {
        "type" : "Point",
        "coordinates" : [
          139.74308550000001,
          35.64840600000008
        ]
      },
      "properties" : {
        "OBJECTID" : 23,
        "lat" : 35.648406000000001,
        "lon" : 139.74308550000001,
        "name" : "慶應義塾大学"
      }
    },
    {
      "type" : "Feature",
      "id" : 24,
      "geometry" : {
        "type" : "Point",
        "coordinates" : [
          139.74233850000007,
          35.690940000000069
        ]
      },
      "properties" : {
        "OBJECTID" : 24,
        "lat" : 35.690939999999998,
        "lon" : 139.74233849999999,
        "name" : "大妻女子大学"
      }
    },
    {
      "type" : "Feature",
      "id" : 25,
      "geometry" : {
        "type" : "Point",
        "coordinates" : [
          139.74183900000003,
          35.691273000000081
        ]
      },
      "properties" : {
        "OBJECTID" : 25,
        "lat" : 35.691273000000002,
        "lon" : 139.741839,
        "name" : "東京家政学院大学"
      }
    },
    {
      "type" : "Feature",
      "id" : 26,
      "geometry" : {
        "type" : "Point",
        "coordinates" : [
          139.74573150000003,
          35.692290000000071
        ]
      },
      "properties" : {
        "OBJECTID" : 26,
        "lat" : 35.69229,
        "lon" : 139.74573150000001,
        "name" : "二松學舎大学"
      }
    },
    {
      "type" : "Feature",
      "id" : 27,
      "geometry" : {
        "type" : "Point",
        "coordinates" : [
          139.72884940000006,
          35.686699390000058
        ]
      },
      "properties" : {
        "OBJECTID" : 27,
        "lat" : 35.686699390000001,
        "lon" : 139.7288494,
        "name" : "桜美林大学"
      }
    },
    {
      "type" : "Feature",
      "id" : 28,
      "geometry" : {
        "type" : "Point",
        "coordinates" : [
          139.73662350000006,
          35.693712000000062
        ]
      },
      "properties" : {
        "OBJECTID" : 28,
        "lat" : 35.693711999999998,
        "lon" : 139.73662350000001,
        "name" : "中央大学"
      }
    },
    {
      "type" : "Feature",
      "id" : 29,
      "geometry" : {
        "type" : "Point",
        "coordinates" : [
          139.7293373,
          35.694207240000082
        ]
      },
      "properties" : {
        "OBJECTID" : 29,
        "lat" : 35.694207239999997,
        "lon" : 139.7293373,
        "name" : "中央大学"
      }
    },
    {
      "type" : "Feature",
      "id" : 30,
      "geometry" : {
        "type" : "Point",
        "coordinates" : [
          139.74973199999999,
          35.643402000000037
        ]
      },
      "properties" : {
        "OBJECTID" : 30,
        "lat" : 35.643402000000002,
        "lon" : 139.74973199999999,
        "name" : "芝浦工業大学"
      }
    },
    {
      "type" : "Feature",
      "id" : 31,
      "geometry" : {
        "type" : "Point",
        "coordinates" : [
          139.7471895000001,
          35.644041000000072
        ]
      },
      "properties" : {
        "OBJECTID" : 31,
        "lat" : 35.644041000000001,
        "lon" : 139.74718949999999,
        "name" : "東京工業大学"
      }
    },
    {
      "type" : "Feature",
      "id" : 32,
      "geometry" : {
        "type" : "Point",
        "coordinates" : [
          139.751577,
          35.65845900000005
        ]
      },
      "properties" : {
        "OBJECTID" : 32,
        "lat" : 35.658459000000001,
        "lon" : 139.751577,
        "name" : "慶應義塾大学"
      }
    },
    {
      "type" : "Feature",
      "id" : 33,
      "geometry" : {
        "type" : "Point",
        "coordinates" : [
          139.70966850000002,
          35.659107000000063
        ]
      },
      "properties" : {
        "OBJECTID" : 33,
        "lat" : 35.659106999999999,
        "lon" : 139.70966849999999,
        "name" : "青山学院大学"
      }
    },
    {
      "type" : "Feature",
      "id" : 34,
      "geometry" : {
        "type" : "Point",
        "coordinates" : [
          139.68904050000003,
          35.660511000000042
        ]
      },
      "properties" : {
        "OBJECTID" : 34,
        "lat" : 35.660511,
        "lon" : 139.6890405,
        "name" : "ヤマザキ動物看護大学"
      }
    },
    {
      "type" : "Feature",
      "id" : 35,
      "geometry" : {
        "type" : "Point",
        "coordinates" : [
          139.71822300000008,
          35.681499000000088
        ]
      },
      "properties" : {
        "OBJECTID" : 35,
        "lat" : 35.681499000000002,
        "lon" : 139.71822299999999,
        "name" : "慶應義塾大学"
      }
    },
    {
      "type" : "Feature",
      "id" : 36,
      "geometry" : {
        "type" : "Point",
        "coordinates" : [
          139.7123325,
          35.694018000000085
        ]
      },
      "properties" : {
        "OBJECTID" : 36,
        "lat" : 35.694018,
        "lon" : 139.7123325,
        "name" : "東京医科大学"
      }
    },
    {
      "type" : "Feature",
      "id" : 37,
      "geometry" : {
        "type" : "Point",
        "coordinates" : [
          139.7417805,
          35.69967900000006
        ]
      },
      "properties" : {
        "OBJECTID" : 37,
        "lat" : 35.699679000000003,
        "lon" : 139.7417805,
        "name" : "東京理科大学"
      }
    },
    {
      "type" : "Feature",
      "id" : 38,
      "geometry" : {
        "type" : "Point",
        "coordinates" : [
          139.76346150000006,
          35.698311000000047
        ]
      },
      "properties" : {
        "OBJECTID" : 38,
        "lat" : 35.698310999999997,
        "lon" : 139.76346150000001,
        "name" : "日本大学"
      }
    },
    {
      "type" : "Feature",
      "id" : 39,
      "geometry" : {
        "type" : "Point",
        "coordinates" : [
          139.76149050000004,
          35.697591000000045
        ]
      },
      "properties" : {
        "OBJECTID" : 39,
        "lat" : 35.697591000000003,
        "lon" : 139.76149050000001,
        "name" : "明治大学"
      }
    },
    {
      "type" : "Feature",
      "id" : 40,
      "geometry" : {
        "type" : "Point",
        "coordinates" : [
          139.76102250000008,
          35.700777000000073
        ]
      },
      "properties" : {
        "OBJECTID" : 40,
        "lat" : 35.700777000000002,
        "lon" : 139.7610225,
        "name" : "東京医科歯科大学"
      }
    },
    {
      "type" : "Feature",
      "id" : 41,
      "geometry" : {
        "type" : "Point",
        "coordinates" : [
          139.76643150000007,
          35.698671000000047
        ]
      },
      "properties" : {
        "OBJECTID" : 41,
        "lat" : 35.698670999999997,
        "lon" : 139.76643150000001,
        "name" : "デジタルハリウッド大学"
      }
    },
    {
      "type" : "Feature",
      "id" : 42,
      "geometry" : {
        "type" : "Point",
        "coordinates" : [
          139.754862,
          35.694378000000086
        ]
      },
      "properties" : {
        "OBJECTID" : 42,
        "lat" : 35.694378,
        "lon" : 139.754862,
        "name" : "共立女子大学"
      }
    },
    {
      "type" : "Feature",
      "id" : 43,
      "geometry" : {
        "type" : "Point",
        "coordinates" : [
          139.753737,
          35.696610000000078
        ]
      },
      "properties" : {
        "OBJECTID" : 43,
        "lat" : 35.69661,
        "lon" : 139.753737,
        "name" : "専修大学"
      }
    },
    {
      "type" : "Feature",
      "id" : 44,
      "geometry" : {
        "type" : "Point",
        "coordinates" : [
          139.750227,
          35.662122000000068
        ]
      },
      "properties" : {
        "OBJECTID" : 44,
        "lat" : 35.662121999999997,
        "lon" : 139.750227,
        "name" : "東京慈恵会医科大学"
      }
    },
    {
      "type" : "Feature",
      "id" : 45,
      "geometry" : {
        "type" : "Point",
        "coordinates" : [
          139.69541250000009,
          35.690625000000068
        ]
      },
      "properties" : {
        "OBJECTID" : 45,
        "lat" : 35.690624999999997,
        "lon" : 139.6954125,
        "name" : "工学院大学"
      }
    },
    {
      "type" : "Feature",
      "id" : 46,
      "geometry" : {
        "type" : "Point",
        "coordinates" : [
          139.69699200000002,
          35.691597000000058
        ]
      },
      "properties" : {
        "OBJECTID" : 46,
        "lat" : 35.691597000000002,
        "lon" : 139.69699199999999,
        "name" : "国際ファッション専門職大学"
      }
    },
    {
      "type" : "Feature",
      "id" : 47,
      "geometry" : {
        "type" : "Point",
        "coordinates" : [
          139.69699200000002,
          35.691597000000058
        ]
      },
      "properties" : {
        "OBJECTID" : 47,
        "lat" : 35.691597000000002,
        "lon" : 139.69699199999999,
        "name" : "東京通信大学"
      }
    },
    {
      "type" : "Feature",
      "id" : 48,
      "geometry" : {
        "type" : "Point",
        "coordinates" : [
          139.69734750000009,
          35.693784000000051
        ]
      },
      "properties" : {
        "OBJECTID" : 48,
        "lat" : 35.693784000000001,
        "lon" : 139.69734750000001,
        "name" : "宝塚大学"
      }
    },
    {
      "type" : "Feature",
      "id" : 49,
      "geometry" : {
        "type" : "Point",
        "coordinates" : [
          139.7560926000001,
          35.699795380000069
        ]
      },
      "properties" : {
        "OBJECTID" : 49,
        "lat" : 35.699795379999998,
        "lon" : 139.75609259999999,
        "name" : "日本大学"
      }
    },
    {
      "type" : "Feature",
      "id" : 50,
      "geometry" : {
        "type" : "Point",
        "coordinates" : [
          139.7560926000001,
          35.699795380000069
        ]
      },
      "properties" : {
        "OBJECTID" : 50,
        "lat" : 35.699795379999998,
        "lon" : 139.75609259999999,
        "name" : "東京歯科大学"
      }
    },
    {
      "type" : "Feature",
      "id" : 51,
      "geometry" : {
        "type" : "Point",
        "coordinates" : [
          139.7556495,
          35.698743000000036
        ]
      },
      "properties" : {
        "OBJECTID" : 51,
        "lat" : 35.698743,
        "lon" : 139.7556495,
        "name" : "大原大学院大学"
      }
    },
    {
      "type" : "Feature",
      "id" : 52,
      "geometry" : {
        "type" : "Point",
        "coordinates" : [
          139.71943800000008,
          35.709345000000042
        ]
      },
      "properties" : {
        "OBJECTID" : 52,
        "lat" : 35.709344999999999,
        "lon" : 139.719438,
        "name" : "早稲田大学"
      }
    },
    {
      "type" : "Feature",
      "id" : 53,
      "geometry" : {
        "type" : "Point",
        "coordinates" : [
          139.73470200000008,
          35.676396000000068
        ]
      },
      "properties" : {
        "OBJECTID" : 53,
        "lat" : 35.676395999999997,
        "lon" : 139.734702,
        "name" : "国際医療福祉大学"
      }
    },
    {
      "type" : "Feature",
      "id" : 54,
      "geometry" : {
        "type" : "Point",
        "coordinates" : [
          139.71039300000007,
          35.680446000000074
        ]
      },
      "properties" : {
        "OBJECTID" : 54,
        "lat" : 35.680446000000003,
        "lon" : 139.71039300000001,
        "name" : "津田塾大学"
      }
    },
    {
      "type" : "Feature",
      "id" : 55,
      "geometry" : {
        "type" : "Point",
        "coordinates" : [
          139.69511550000004,
          35.684910000000059
        ]
      },
      "properties" : {
        "OBJECTID" : 55,
        "lat" : 35.684910000000002,
        "lon" : 139.69511550000001,
        "name" : "文化ファッション大学院大学"
      }
    },
    {
      "type" : "Feature",
      "id" : 56,
      "geometry" : {
        "type" : "Point",
        "coordinates" : [
          139.69511550000004,
          35.684910000000059
        ]
      },
      "properties" : {
        "OBJECTID" : 56,
        "lat" : 35.684910000000002,
        "lon" : 139.69511550000001,
        "name" : "文化学園大学"
      }
    },
    {
      "type" : "Feature",
      "id" : 57,
      "geometry" : {
        "type" : "Point",
        "coordinates" : [
          139.70582100000001,
          35.706060000000036
        ]
      },
      "properties" : {
        "OBJECTID" : 57,
        "lat" : 35.706060000000001,
        "lon" : 139.70582099999999,
        "name" : "早稲田大学"
      }
    },
    {
      "type" : "Feature",
      "id" : 58,
      "geometry" : {
        "type" : "Point",
        "coordinates" : [
          139.76718300000005,
          35.685198000000071
        ]
      },
      "properties" : {
        "OBJECTID" : 58,
        "lat" : 35.685198,
        "lon" : 139.76718299999999,
        "name" : "東洋大学"
      }
    },
    {
      "type" : "Feature",
      "id" : 59,
      "geometry" : {
        "type" : "Point",
        "coordinates" : [
          139.68094050000002,
          35.717679000000089
        ]
      },
      "properties" : {
        "OBJECTID" : 59,
        "lat" : 35.717678999999997,
        "lon" : 139.68094049999999,
        "name" : "目白大学"
      }
    },
    {
      "type" : "Feature",
      "id" : 60,
      "geometry" : {
        "type" : "Point",
        "coordinates" : [
          139.710105,
          35.657919000000049
        ]
      },
      "properties" : {
        "OBJECTID" : 60,
        "lat" : 35.657919,
        "lon" : 139.710105,
        "name" : "実践女子大学"
      }
    },
    {
      "type" : "Feature",
      "id" : 61,
      "geometry" : {
        "type" : "Point",
        "coordinates" : [
          139.7121075,
          35.655345000000068
        ]
      },
      "properties" : {
        "OBJECTID" : 61,
        "lat" : 35.655344999999997,
        "lon" : 139.7121075,
        "name" : "國學院大學"
      }
    },
    {
      "type" : "Feature",
      "id" : 62,
      "geometry" : {
        "type" : "Point",
        "coordinates" : [
          139.71356550000007,
          35.665398000000039
        ]
      },
      "properties" : {
        "OBJECTID" : 62,
        "lat" : 35.665398000000003,
        "lon" : 139.71356549999999,
        "name" : "事業構想大学院大学"
      }
    },
    {
      "type" : "Feature",
      "id" : 63,
      "geometry" : {
        "type" : "Point",
        "coordinates" : [
          139.73674500000004,
          35.68540500000006
        ]
      },
      "properties" : {
        "OBJECTID" : 63,
        "lat" : 35.685405000000003,
        "lon" : 139.73674500000001,
        "name" : "グロービス経営大学院大学"
      }
    },
    {
      "type" : "Feature",
      "id" : 64,
      "geometry" : {
        "type" : "Point",
        "coordinates" : [
          139.7745675000001,
          35.682597000000044
        ]
      },
      "properties" : {
        "OBJECTID" : 64,
        "lat" : 35.682597000000001,
        "lon" : 139.77456749999999,
        "name" : "早稲田大学"
      }
    },
    {
      "type" : "Feature",
      "id" : 65,
      "geometry" : {
        "type" : "Point",
        "coordinates" : [
          139.7741158,
          35.681310560000043
        ]
      },
      "properties" : {
        "OBJECTID" : 65,
        "lat" : 35.68131056,
        "lon" : 139.7741158,
        "name" : "大学院大学至善館"
      }
    },
    {
      "type" : "Feature",
      "id" : 66,
      "geometry" : {
        "type" : "Point",
        "coordinates" : [
          139.72573350000005,
          35.64479700000004
        ]
      },
      "properties" : {
        "OBJECTID" : 66,
        "lat" : 35.644796999999997,
        "lon" : 139.72573349999999,
        "name" : "北里大学"
      }
    },
    {
      "type" : "Feature",
      "id" : 67,
      "geometry" : {
        "type" : "Point",
        "coordinates" : [
          139.73098500000003,
          35.638587000000086
        ]
      },
      "properties" : {
        "OBJECTID" : 67,
        "lat" : 35.638587000000001,
        "lon" : 139.730985,
        "name" : "明治学院大学"
      }
    },
    {
      "type" : "Feature",
      "id" : 68,
      "geometry" : {
        "type" : "Point",
        "coordinates" : [
          139.72513950000007,
          35.639883000000054
        ]
      },
      "properties" : {
        "OBJECTID" : 68,
        "lat" : 35.639882999999998,
        "lon" : 139.72513950000001,
        "name" : "東京大学"
      }
    },
    {
      "type" : "Feature",
      "id" : 69,
      "geometry" : {
        "type" : "Point",
        "coordinates" : [
          139.698261,
          35.705628000000047
        ]
      },
      "properties" : {
        "OBJECTID" : 69,
        "lat" : 35.705627999999997,
        "lon" : 139.698261,
        "name" : "桜美林大学"
      }
    },
    {
      "type" : "Feature",
      "id" : 70,
      "geometry" : {
        "type" : "Point",
        "coordinates" : [
          139.68403650000005,
          35.66471400000006
        ]
      },
      "properties" : {
        "OBJECTID" : 70,
        "lat" : 35.664713999999996,
        "lon" : 139.68403649999999,
        "name" : "東海大学"
      }
    },
    {
      "type" : "Feature",
      "id" : 71,
      "geometry" : {
        "type" : "Point",
        "coordinates" : [
          139.74590250000006,
          35.697789000000057
        ]
      },
      "properties" : {
        "OBJECTID" : 71,
        "lat" : 35.697789,
        "lon" : 139.7459025,
        "name" : "日本歯科大学"
      }
    },
    {
      "type" : "Feature",
      "id" : 72,
      "geometry" : {
        "type" : "Point",
        "coordinates" : [
          139.741488,
          35.696277000000066
        ]
      },
      "properties" : {
        "OBJECTID" : 72,
        "lat" : 35.696277000000002,
        "lon" : 139.741488,
        "name" : "法政大学"
      }
    },
    {
      "type" : "Feature",
      "id" : 73,
      "geometry" : {
        "type" : "Point",
        "coordinates" : [
          139.77612450000004,
          35.667756000000054
        ]
      },
      "properties" : {
        "OBJECTID" : 73,
        "lat" : 35.667755999999997,
        "lon" : 139.77612450000001,
        "name" : "聖路加国際大学"
      }
    },
    {
      "type" : "Feature",
      "id" : 74,
      "geometry" : {
        "type" : "Point",
        "coordinates" : [
          139.73013450000008,
          35.661339000000055
        ]
      },
      "properties" : {
        "OBJECTID" : 74,
        "lat" : 35.661338999999998,
        "lon" : 139.73013449999999,
        "name" : "ハリウッド大学院大学"
      }
    },
    {
      "type" : "Feature",
      "id" : 75,
      "geometry" : {
        "type" : "Point",
        "coordinates" : [
          139.7272365,
          35.66383200000007
        ]
      },
      "properties" : {
        "OBJECTID" : 75,
        "lat" : 35.663831999999999,
        "lon" : 139.7272365,
        "name" : "政策研究大学院大学"
      }
    }
  ]
}